[{"id":"90068","filename":"Zhulyany_NDB_UA","ident":"KV","name":"Zhulyany","type":"NDB","frequency_khz":"360","latitude_deg":"50.40420150756836","longitude_deg":"30.511600494384766","elevation_ft":null,"iso_country":"UA","dme_frequency_khz":null,"dme_channel":null,"dme_latitude_deg":null,"dme_longitude_deg":null,"dme_elevation_ft":null,"slaved_variation_deg":null,"magnetic_variation_deg":"6.159","usageType":"TERMINAL","power":"LOW","associated_airport":"UKKK"},{"id":"90069","filename":"Kvernberget_VOR-DME_NO","ident":"KVB","name":"Kvernberget","type":"VOR-DME","frequency_khz":"113800","latitude_deg":"63.118099212646484","longitude_deg":"7.810540199279785","elevation_ft":"684","iso_country":"NO","dme_frequency_khz":"113800","dme_channel":"085X","dme_latitude_deg":null,"dme_longitude_deg":null,"dme_elevation_ft":null,"slaved_variation_deg":"-2.007","magnetic_variation_deg":"-0.177","usageType":"RNAV","power":"HIGH","associated_airport":"ENKB"},{"id":"90070","filename":"Kavouri_NDB_GR","ident":"KVR","name":"Kavouri","type":"NDB","frequency_khz":"357","latitude_deg":"37.81420135498047","longitude_deg":"23.7593994140625","elevation_ft":null,"iso_country":"GR","dme_frequency_khz":null,"dme_channel":null,"dme_latitude_deg":null,"dme_longitude_deg":null,"dme_elevation_ft":null,"slaved_variation_deg":null,"magnetic_variation_deg":"3.166","usageType":"LO","power":"LOW","associated_airport":"GR-0098"},{"id":"90071","filename":"Kryvyi_Rih_DME_UA","ident":"KVR","name":"Kryvyi Rih","type":"DME","frequency_khz":"116000","latitude_deg":"48.050899505615234","longitude_deg":"33.211700439453125","elevation_ft":"397","iso_country":"UA","dme_frequency_khz":"116000","dme_channel":"107X","dme_latitude_deg":null,"dme_longitude_deg":null,"dme_elevation_ft":null,"slaved_variation_deg":null,"magnetic_variation_deg":"6.12","usageType":"BOTH","power":"MEDIUM","associated_airport":"UKDR"},{"id":"90072","filename":"Karlovy_Vary_VOR-DME_CZ","ident":"KVY","name":"Karlovy Vary","type":"VOR-DME","frequency_khz":"111550","latitude_deg":"50.20119857788086","longitude_deg":"12.92590045928955","elevation_ft":"2167","iso_country":"CZ","dme_frequency_khz":"111550","dme_channel":"052Y","dme_latitude_deg":null,"dme_longitude_deg":null,"dme_elevation_ft":null,"slaved_variation_deg":null,"magnetic_variation_deg":"2.015","usageType":"TERMINAL","power":"LOW","associated_airport":"LKKV"},{"id":"90073","filename":"Klagenfurt_NDB_AT","ident":"KW","name":"Klagenfurt","type":"NDB","frequency_khz":"405","latitude_deg":"46.66749954223633","longitude_deg":"14.218299865722656","elevation_ft":null,"iso_country":"AT","dme_frequency_khz":null,"dme_channel":null,"dme_latitude_deg":null,"dme_longitude_deg":null,"dme_elevation_ft":null,"slaved_variation_deg":null,"magnetic_variation_deg":"2.153","usageType":"LO","power":"LOW","associated_airport":"LOWK"},{"id":"90074","filename":"Bujumbura_NDB_BI","ident":"KW","name":"Bujumbura","type":"NDB","frequency_khz":"385","latitude_deg":"-3.1321699619293213","longitude_deg":"29.28849983215332","elevation_ft":null,"iso_country":"BI","dme_frequency_khz":null,"dme_channel":null,"dme_latitude_deg":null,"dme_longitude_deg":null,"dme_elevation_ft":null,"slaved_variation_deg":null,"magnetic_variation_deg":"-0.091","usageType":"TERMINAL","power":"LOW","associated_airport":"HBBA"},{"id":"90075","filename":"Kitona_Base_NDB_CD","ident":"KW","name":"Kitona Base","type":"NDB","frequency_khz":"255","latitude_deg":"-5.931670188903809","longitude_deg":"12.43280029296875","elevation_ft":null,"iso_country":"CD","dme_frequency_khz":null,"dme_channel":null,"dme_latitude_deg":null,"dme_longitude_deg":null,"dme_elevation_ft":null,"slaved_variation_deg":null,"magnetic_variation_deg":"-4.416","usageType":"TERMINAL","power":"MEDIUM","associated_airport":null},{"id":"90076","filename":"Kokshetau_NDB_KZ","ident":"KW","name":"Kokshetau","type":"NDB","frequency_khz":"975","latitude_deg":"53.37189865112305","longitude_deg":"69.64029693603516","elevation_ft":null,"iso_country":"KZ","dme_frequency_khz":null,"dme_channel":null,"dme_latitude_deg":null,"dme_longitude_deg":null,"dme_elevation_ft":null,"slaved_variation_deg":null,"magnetic_variation_deg":"11.037","usageType":"HI","power":"MEDIUM","associated_airport":null},{"id":"90077","filename":"Kislovodsk_NDB_RU","ident":"KW","name":"Kislovodsk","type":"NDB","frequency_khz":"995","latitude_deg":"43.94169998168945","longitude_deg":"42.650001525878906","elevation_ft":null,"iso_country":"RU","dme_frequency_khz":null,"dme_channel":null,"dme_latitude_deg":null,"dme_longitude_deg":null,"dme_elevation_ft":null,"slaved_variation_deg":null,"magnetic_variation_deg":"6.147","usageType":"BOTH","power":"HIGH","associated_airport":null},{"id":"90078","filename":"Knevichi_NDB_RU","ident":"KW","name":"Knevichi","type":"NDB","frequency_khz":"400","latitude_deg":"43.470001220703125","longitude_deg":"132.322998046875","elevation_ft":null,"iso_country":"RU","dme_frequency_khz":null,"dme_channel":null,"dme_latitude_deg":null,"dme_longitude_deg":null,"dme_elevation_ft":null,"slaved_variation_deg":null,"magnetic_variation_deg":"-10.03","usageType":"BOTH","power":"HIGH","associated_airport":"UHWW"},{"id":"90079","filename":"Hengchun_NDB_TW","ident":"KW","name":"Hengchun","type":"NDB","frequency_khz":"415","latitude_deg":"21.931699752807617","longitude_deg":"120.83899688720703","elevation_ft":null,"iso_country":"TW","dme_frequency_khz":null,"dme_channel":null,"dme_latitude_deg":null,"dme_longitude_deg":null,"dme_elevation_ft":null,"slaved_variation_deg":null,"magnetic_variation_deg":"-2.545","usageType":"BOTH","power":"MEDIUM","associated_airport":"RCKW"},{"id":"90080","filename":"Kirkwall_NDB_GB","ident":"KW","name":"Kirkwall","type":"NDB","frequency_khz":"395","latitude_deg":"58.959598541259766","longitude_deg":"-2.9115800857543945","elevation_ft":null,"iso_country":"GB","dme_frequency_khz":null,"dme_channel":null,"dme_latitude_deg":null,"dme_longitude_deg":null,"dme_elevation_ft":null,"slaved_variation_deg":null,"magnetic_variation_deg":"-4.557","usageType":"TERMINAL","power":"LOW","associated_airport":"EGPA"},{"id":"90081","filename":"Koviahy_NDB_UA","ident":"KW","name":"Koviahy","type":"NDB","frequency_khz":"735","latitude_deg":"49.916500091552734","longitude_deg":"35.54330062866211","elevation_ft":null,"iso_country":"UA","dme_frequency_khz":null,"dme_channel":null,"dme_latitude_deg":null,"dme_longitude_deg":null,"dme_elevation_ft":null,"slaved_variation_deg":null,"magnetic_variation_deg":"7.076","usageType":"BOTH","power":"HIGH","associated_airport":null},{"id":"90082","filename":"Noibai_NDB_VN","ident":"KW","name":"Noibai","type":"NDB","frequency_khz":"320","latitude_deg":"21.238800048828125","longitude_deg":"105.74600219726562","elevation_ft":null,"iso_country":"VN","dme_frequency_khz":null,"dme_channel":null,"dme_latitude_deg":null,"dme_longitude_deg":null,"dme_elevation_ft":null,"slaved_variation_deg":null,"magnetic_variation_deg":"-1.114","usageType":"BOTH","power":"MEDIUM","associated_airport":"VVNB"},{"id":"90083","filename":"Gwangju_VOR-DME_KR","ident":"KWA","name":"Gwangju","type":"VOR-DME","frequency_khz":"114400","latitude_deg":"35.12620162963867","longitude_deg":"126.81199645996094","elevation_ft":"42","iso_country":"KR","dme_frequency_khz":"114400","dme_channel":"091X","dme_latitude_deg":null,"dme_longitude_deg":null,"dme_elevation_ft":null,"slaved_variation_deg":"-7.011","magnetic_variation_deg":"-7.026","usageType":"BOTH","power":"HIGH","associated_airport":"RKJJ"},{"id":"90084","filename":"Guiyang_VOR-DME_CN","ident":"KWE","name":"Guiyang","type":"VOR-DME","frequency_khz":"114300","latitude_deg":"26.520000457763672","longitude_deg":"106.79499816894531","elevation_ft":"3812","iso_country":"CN","dme_frequency_khz":"114300","dme_channel":"090X","dme_latitude_deg":null,"dme_longitude_deg":null,"dme_elevation_ft":null,"slaved_variation_deg":null,"magnetic_variation_deg":"-1.499","usageType":"BOTH","power":"HIGH","associated_airport":"ZUGY"},{"id":"90085","filename":"Kohtoh_VOR-DME_JP","ident":"KWE","name":"Kohtoh","type":"VOR-DME","frequency_khz":"115000","latitude_deg":"35.60900115966797","longitude_deg":"139.81500244140625","elevation_ft":"78","iso_country":"JP","dme_frequency_khz":"115000","dme_channel":"097X","dme_latitude_deg":null,"dme_longitude_deg":null,"dme_elevation_ft":null,"slaved_variation_deg":"-7.011","magnetic_variation_deg":"-6.533","usageType":"BOTH","power":"HIGH","associated_airport":"RJTT"},{"id":"90086","filename":"Gwangju_TACAN_KR","ident":"KWJ","name":"Gwangju","type":"TACAN","frequency_khz":"114100","latitude_deg":"35.11880111694336","longitude_deg":"126.80000305175781","elevation_ft":"40","iso_country":"KR","dme_frequency_khz":"114100","dme_channel":"088X","dme_latitude_deg":null,"dme_longitude_deg":null,"dme_elevation_ft":null,"slaved_variation_deg":"-7.011","magnetic_variation_deg":"-7.024","usageType":"BOTH","power":"HIGH","associated_airport":"RKJJ"},{"id":"90087","filename":"Guilin_VOR-DME_CN","ident":"KWL","name":"Guilin","type":"VOR-DME","frequency_khz":"114900","latitude_deg":"25.209999084472656","longitude_deg":"110.03800201416016","elevation_ft":"570","iso_country":"CN","dme_frequency_khz":"114900","dme_channel":"096X","dme_latitude_deg":null,"dme_longitude_deg":null,"dme_elevation_ft":null,"slaved_variation_deg":null,"magnetic_variation_deg":"-2.091","usageType":"BOTH","power":"HIGH","associated_airport":"ZGKL"},{"id":"90088","filename":"Kirkwall_VOR-DME_GB","ident":"KWL","name":"Kirkwall","type":"VOR-DME","frequency_khz":"108600","latitude_deg":"58.95970153808594","longitude_deg":"-2.8939499855041504","elevation_ft":"65","iso_country":"GB","dme_frequency_khz":"108600","dme_channel":"023X","dme_latitude_deg":null,"dme_longitude_deg":null,"dme_elevation_ft":null,"slaved_variation_deg":"-6.812","magnetic_variation_deg":"-4.552","usageType":"BOTH","power":"LOW","associated_airport":"EGPA"},{"id":"90089","filename":"Kolwezi_NDB_CD","ident":"KWZ","name":"Kolwezi","type":"NDB","frequency_khz":"264","latitude_deg":"-10.718400001525879","longitude_deg":"25.499799728393555","elevation_ft":null,"iso_country":"CD","dme_frequency_khz":null,"dme_channel":null,"dme_latitude_deg":null,"dme_longitude_deg":null,"dme_elevation_ft":null,"slaved_variation_deg":null,"magnetic_variation_deg":"-3.063","usageType":"BOTH","power":"MEDIUM","associated_airport":"FZQM"},{"id":"90090","filename":"Kumejima_NDB_JP","ident":"KX","name":"Kumejima","type":"NDB","frequency_khz":"295","latitude_deg":"26.36240005493164","longitude_deg":"126.71600341796875","elevation_ft":null,"iso_country":"JP","dme_frequency_khz":null,"dme_channel":null,"dme_latitude_deg":null,"dme_longitude_deg":null,"dme_elevation_ft":null,"slaved_variation_deg":null,"magnetic_variation_deg":"-4.267","usageType":"BOTH","power":"MEDIUM","associated_airport":"ROKJ"},{"id":"90091","filename":"Kumejima_VORTAC_JP","ident":"KXC","name":"Kumejima","type":"VORTAC","frequency_khz":"116700","latitude_deg":"26.37190055847168","longitude_deg":"126.72200012207031","elevation_ft":"42","iso_country":"JP","dme_frequency_khz":"116700","dme_channel":"114X","dme_latitude_deg":"26.3717","dme_longitude_deg":"126.722","dme_elevation_ft":"54","slaved_variation_deg":"-4.011","magnetic_variation_deg":"-4.269","usageType":"BOTH","power":"HIGH","associated_airport":"ROKJ"},{"id":"90092","filename":"Wangbingou_NDB_CN","ident":"KY","name":"Wangbingou","type":"NDB","frequency_khz":"365","latitude_deg":"41.70500183105469","longitude_deg":"123.74700164794922","elevation_ft":null,"iso_country":"CN","dme_frequency_khz":null,"dme_channel":null,"dme_latitude_deg":null,"dme_longitude_deg":null,"dme_elevation_ft":null,"slaved_variation_deg":null,"magnetic_variation_deg":"-8.34","usageType":"BOTH","power":"MEDIUM","associated_airport":"ZYTX"},{"id":"90093","filename":"Kamiyaku_VOR-DME_JP","ident":"KYE","name":"Kamiyaku","type":"VOR-DME","frequency_khz":"115400","latitude_deg":"30.390100479125977","longitude_deg":"130.6510009765625","elevation_ft":"139","iso_country":"JP","dme_frequency_khz":"115400","dme_channel":"101X","dme_latitude_deg":null,"dme_longitude_deg":null,"dme_elevation_ft":null,"slaved_variation_deg":"-6.011","magnetic_variation_deg":"-5.454","usageType":"BOTH","power":"HIGH","associated_airport":"RJFC"},{"id":"90094","filename":"Kaiyuan_VOR-DME_CN","ident":"KYU","name":"Kaiyuan","type":"VOR-DME","frequency_khz":"114900","latitude_deg":"42.63330078125","longitude_deg":"124.00800323486328","elevation_ft":"324","iso_country":"CN","dme_frequency_khz":"114900","dme_channel":"096X","dme_latitude_deg":null,"dme_longitude_deg":null,"dme_elevation_ft":null,"slaved_variation_deg":null,"magnetic_variation_deg":"-8.542","usageType":"BOTH","power":"HIGH","associated_airport":null},{"id":"90095","filename":"Kimberley_VOR-DME_ZA","ident":"KYV","name":"Kimberley","type":"VOR-DME","frequency_khz":"113200","latitude_deg":"-28.79990005493164","longitude_deg":"24.760400772094727","elevation_ft":"3950","iso_country":"ZA","dme_frequency_khz":"113200","dme_channel":"079X","dme_latitude_deg":null,"dme_longitude_deg":null,"dme_elevation_ft":null,"slaved_variation_deg":null,"magnetic_variation_deg":"-20.234","usageType":"BOTH","power":"HIGH","associated_airport":"FAKM"},{"id":"90096","filename":"Buttonville_NDB_CA","ident":"KZ","name":"Buttonville","type":"NDB","frequency_khz":"248","latitude_deg":"43.93370056152344","longitude_deg":"-79.3292007446289","elevation_ft":null,"iso_country":"CA","dme_frequency_khz":null,"dme_channel":null,"dme_latitude_deg":null,"dme_longitude_deg":null,"dme_elevation_ft":null,"slaved_variation_deg":null,"magnetic_variation_deg":"-10.388","usageType":"LO","power":"LOW","associated_airport":"CA-1108"},{"id":"90097","filename":"Kyzyl_Kiya_NDB_KG","ident":"KZ","name":"Kyzyl Kiya","type":"NDB","frequency_khz":"555","latitude_deg":"40.25","longitude_deg":"72.0999984741211","elevation_ft":null,"iso_country":"KG","dme_frequency_khz":null,"dme_channel":null,"dme_latitude_deg":null,"dme_longitude_deg":null,"dme_elevation_ft":null,"slaved_variation_deg":null,"magnetic_variation_deg":"4.121","usageType":"BOTH","power":"MEDIUM","associated_airport":null},{"id":"90098","filename":"Kyzylorda_NDB_KZ","ident":"KZ","name":"Kyzylorda","type":"NDB","frequency_khz":"486","latitude_deg":"44.701698303222656","longitude_deg":"65.5999984741211","elevation_ft":null,"iso_country":"KZ","dme_frequency_khz":null,"dme_channel":null,"dme_latitude_deg":null,"dme_longitude_deg":null,"dme_elevation_ft":null,"slaved_variation_deg":null,"magnetic_variation_deg":"6.378","usageType":"BOTH","power":"MEDIUM","associated_airport":null},{"id":"90099","filename":"Kizlyar_NDB_RU","ident":"KZ","name":"Kizlyar","type":"NDB","frequency_khz":"455","latitude_deg":"43.83330154418945","longitude_deg":"46.71670150756836","elevation_ft":null,"iso_country":"RU","dme_frequency_khz":null,"dme_channel":null,"dme_latitude_deg":null,"dme_longitude_deg":null,"dme_elevation_ft":null,"slaved_variation_deg":null,"magnetic_variation_deg":"6.278","usageType":"BOTH","power":"HIGH","associated_airport":null},{"id":"90100","filename":"Severnoye_NDB_RU","ident":"KZ","name":"Severnoye","type":"NDB","frequency_khz":"100","latitude_deg":"56.334999084472656","longitude_deg":"78.36000061035156","elevation_ft":null,"iso_country":"RU","dme_frequency_khz":null,"dme_channel":null,"dme_latitude_deg":null,"dme_longitude_deg":null,"dme_elevation_ft":null,"slaved_variation_deg":null,"magnetic_variation_deg":"11.112","usageType":"BOTH","power":"HIGH","associated_airport":null},{"id":"90101","filename":"Kleinsee_NDB_ZA","ident":"KZ","name":"Kleinsee","type":"NDB","frequency_khz":"213","latitude_deg":"-29.644100189208984","longitude_deg":"17.09779930114746","elevation_ft":null,"iso_country":"ZA","dme_frequency_khz":null,"dme_channel":null,"dme_latitude_deg":null,"dme_longitude_deg":null,"dme_elevation_ft":null,"slaved_variation_deg":null,"magnetic_variation_deg":"-20.175","usageType":"BOTH","power":"MEDIUM","associated_airport":"FAKZ"},{"id":"90102","filename":"Kisarazu_VOR-DME_JP","ident":"KZE","name":"Kisarazu","type":"VOR-DME","frequency_khz":"114500","latitude_deg":"35.402400970458984","longitude_deg":"139.9029998779297","elevation_ft":"45","iso_country":"JP","dme_frequency_khz":"114500","dme_channel":"092X","dme_latitude_deg":null,"dme_longitude_deg":null,"dme_elevation_ft":null,"slaved_variation_deg":"-7.011","magnetic_variation_deg":"-6.483","usageType":"BOTH","power":"LOW","associated_airport":"RJTK"},{"id":"90103","filename":"Kyzyl_VOR-DME_RU","ident":"KZL","name":"Kyzyl","type":"VOR-DME","frequency_khz":"112300","latitude_deg":"51.59000015258789","longitude_deg":"94.20670318603516","elevation_ft":"2142","iso_country":"RU","dme_frequency_khz":"112300","dme_channel":"070X","dme_latitude_deg":null,"dme_longitude_deg":null,"dme_elevation_ft":null,"slaved_variation_deg":"1.007","magnetic_variation_deg":"2.17","usageType":"BOTH","power":"HIGH","associated_airport":null},{"id":"90104","filename":"Kazan_VOR-DME_RU","ident":"KZN","name":"Kazan","type":"VOR-DME","frequency_khz":"112700","latitude_deg":"55.60499954223633","longitude_deg":"49.27170181274414","elevation_ft":"409","iso_country":"RU","dme_frequency_khz":"112700","dme_channel":"074X","dme_latitude_deg":null,"dme_longitude_deg":null,"dme_elevation_ft":null,"slaved_variation_deg":null,"magnetic_variation_deg":"12.036","usageType":"BOTH","power":"HIGH","associated_airport":"UWKD"},{"id":"90105","filename":"Kozani_NDB_GR","ident":"KZN","name":"Kozani","type":"NDB","frequency_khz":"291","latitude_deg":"40.28900146484375","longitude_deg":"21.841999053955078","elevation_ft":null,"iso_country":"GR","dme_frequency_khz":null,"dme_channel":null,"dme_latitude_deg":null,"dme_longitude_deg":null,"dme_elevation_ft":null,"slaved_variation_deg":null,"magnetic_variation_deg":"3.141","usageType":"TERMINAL","power":"MEDIUM","associated_airport":"LGKZ"},{"id":"90106","filename":"Kyzylorda_VOR-DME_KZ","ident":"KZO","name":"Kyzylorda","type":"VOR-DME","frequency_khz":"112700","latitude_deg":"44.70669937133789","longitude_deg":"65.5999984741211","elevation_ft":"213","iso_country":"KZ","dme_frequency_khz":"112700","dme_channel":"074X","dme_latitude_deg":null,"dme_longitude_deg":null,"dme_elevation_ft":null,"slaved_variation_deg":"5.007","magnetic_variation_deg":"6.379","usageType":"BOTH","power":"HIGH","associated_airport":null},{"id":"90107","filename":"Kastelorizo_NDB_GR","ident":"KZO","name":"Kastelorizo","type":"NDB","frequency_khz":"416","latitude_deg":"36.1422004699707","longitude_deg":"29.576099395751953","elevation_ft":null,"iso_country":"GR","dme_frequency_khz":null,"dme_channel":null,"dme_latitude_deg":null,"dme_longitude_deg":null,"dme_elevation_ft":null,"slaved_variation_deg":null,"magnetic_variation_deg":"3.454","usageType":"TERMINAL","power":"LOW","associated_airport":null},{"id":"90108","filename":"Salta_NDB_AR","ident":"L","name":"Salta","type":"NDB","frequency_khz":"305","latitude_deg":"-24.86359977722168","longitude_deg":"-65.49739837646484","elevation_ft":"4062","iso_country":"AR","dme_frequency_khz":null,"dme_channel":null,"dme_latitude_deg":null,"dme_longitude_deg":null,"dme_elevation_ft":null,"slaved_variation_deg":null,"magnetic_variation_deg":"-5.112","usageType":"TERMINAL","power":"MEDIUM","associated_airport":"SASA"},{"id":"90109","filename":"La_Rioja_NDB_AR","ident":"L","name":"La Rioja","type":"NDB","frequency_khz":"307","latitude_deg":"-29.35849952697754","longitude_deg":"-66.78150177001953","elevation_ft":"1394","iso_country":"AR","dme_frequency_khz":null,"dme_channel":null,"dme_latitude_deg":null,"dme_longitude_deg":null,"dme_elevation_ft":null,"slaved_variation_deg":null,"magnetic_variation_deg":"-2.031","usageType":"TERMINAL","power":"MEDIUM","associated_airport":null},{"id":"90110","filename":"Paso_De_Los_Libres_NDB_AR","ident":"L","name":"Paso De Los Libres","type":"NDB","frequency_khz":"325","latitude_deg":"-29.66939926147461","longitude_deg":"-57.155799865722656","elevation_ft":"230","iso_country":"AR","dme_frequency_khz":null,"dme_channel":null,"dme_latitude_deg":null,"dme_longitude_deg":null,"dme_elevation_ft":null,"slaved_variation_deg":null,"magnetic_variation_deg":"-10.356","usageType":"TERMINAL","power":"MEDIUM","associated_airport":null},{"id":"90111","filename":"El_Palomar_NDB_AR","ident":"L","name":"El Palomar","type":"NDB","frequency_khz":"315","latitude_deg":"-34.58829879760742","longitude_deg":"-58.625","elevation_ft":null,"iso_country":"AR","dme_frequency_khz":null,"dme_channel":null,"dme_latitude_deg":null,"dme_longitude_deg":null,"dme_elevation_ft":null,"slaved_variation_deg":null,"magnetic_variation_deg":"-6.528","usageType":"TERMINAL","power":"MEDIUM","associated_airport":null},{"id":"90112","filename":"Esquel_NDB_AR","ident":"L","name":"Esquel","type":"NDB","frequency_khz":"260","latitude_deg":"-42.89289855957031","longitude_deg":"-71.11260223388672","elevation_ft":"2585","iso_country":"AR","dme_frequency_khz":null,"dme_channel":null,"dme_latitude_deg":null,"dme_longitude_deg":null,"dme_elevation_ft":null,"slaved_variation_deg":null,"magnetic_variation_deg":"8.566","usageType":"TERMINAL","power":"LOW","associated_airport":null},{"id":"90113","filename":"Beijing_NDB_CN","ident":"L","name":"Beijing","type":"NDB","frequency_khz":"287","latitude_deg":"40.11180114746094","longitude_deg":"116.56800079345703","elevation_ft":null,"iso_country":"CN","dme_frequency_khz":null,"dme_channel":null,"dme_latitude_deg":null,"dme_longitude_deg":null,"dme_elevation_ft":null,"slaved_variation_deg":null,"magnetic_variation_deg":"-6.228","usageType":"TERMINAL","power":"MEDIUM","associated_airport":null},{"id":"90114","filename":"Tallinn_NDB_EE","ident":"L","name":"Tallinn","type":"NDB","frequency_khz":"418","latitude_deg":"59.41310119628906","longitude_deg":"24.87649917602539","elevation_ft":null,"iso_country":"EE","dme_frequency_khz":null,"dme_channel":null,"dme_latitude_deg":null,"dme_longitude_deg":null,"dme_elevation_ft":null,"slaved_variation_deg":null,"magnetic_variation_deg":"6.537","usageType":"TERMINAL","power":"LOW","associated_airport":null},{"id":"90115","filename":"Liboc_NDB_CZ","ident":"L","name":"Liboc","type":"NDB","frequency_khz":"372","latitude_deg":"50.11989974975586","longitude_deg":"14.286600112915039","elevation_ft":null,"iso_country":"CZ","dme_frequency_khz":null,"dme_channel":null,"dme_latitude_deg":null,"dme_longitude_deg":null,"dme_elevation_ft":null,"slaved_variation_deg":null,"magnetic_variation_deg":"2.226","usageType":"TERMINAL","power":"LOW","associated_airport":null},{"id":"90116","filename":"Budapest_NDB_HU","ident":"L","name":"Budapest","type":"NDB","frequency_khz":"357","latitude_deg":"47.45180130004883","longitude_deg":"19.247299194335938","elevation_ft":null,"iso_country":"HU","dme_frequency_khz":null,"dme_channel":null,"dme_latitude_deg":null,"dme_longitude_deg":null,"dme_elevation_ft":null,"slaved_variation_deg":null,"magnetic_variation_deg":"3.238","usageType":"TERMINAL","power":"LOW","associated_airport":null},{"id":"90117","filename":"Almaty_NDB_KZ","ident":"L","name":"Almaty","type":"NDB","frequency_khz":"430","latitude_deg":"43.33489990234375","longitude_deg":"77.00589752197266","elevation_ft":null,"iso_country":"KZ","dme_frequency_khz":null,"dme_channel":null,"dme_latitude_deg":null,"dme_longitude_deg":null,"dme_elevation_ft":null,"slaved_variation_deg":null,"magnetic_variation_deg":"4.451","usageType":"BOTH","power":"MEDIUM","associated_airport":null},{"id":"90118","filename":"Balti_NDB_MD","ident":"L","name":"Balti","type":"NDB","frequency_khz":"389","latitude_deg":"47.8557014465332","longitude_deg":"27.769500732421875","elevation_ft":null,"iso_country":"MD","dme_frequency_khz":null,"dme_channel":null,"dme_latitude_deg":null,"dme_longitude_deg":null,"dme_elevation_ft":null,"slaved_variation_deg":null,"magnetic_variation_deg":"5.092","usageType":"TERMINAL","power":"LOW","associated_airport":null},{"id":"90119","filename":"Porsang_NDB_NO","ident":"L","name":"Porsang","type":"NDB","frequency_khz":"275","latitude_deg":"69.89579772949219","longitude_deg":"25.008100509643555","elevation_ft":null,"iso_country":"NO","dme_frequency_khz":null,"dme_channel":null,"dme_latitude_deg":null,"dme_longitude_deg":null,"dme_elevation_ft":null,"slaved_variation_deg":null,"magnetic_variation_deg":"9.53","usageType":"TERMINAL","power":"LOW","associated_airport":null},{"id":"90120","filename":"Krakow_NDB_PL","ident":"L","name":"Krakow","type":"NDB","frequency_khz":"379","latitude_deg":"50.08190155029297","longitude_deg":"19.814599990844727","elevation_ft":null,"iso_country":"PL","dme_frequency_khz":null,"dme_channel":null,"dme_latitude_deg":null,"dme_longitude_deg":null,"dme_elevation_ft":null,"slaved_variation_deg":null,"magnetic_variation_deg":"3.463","usageType":"TERMINAL","power":"MEDIUM","associated_airport":null},{"id":"90121","filename":"Getafe_NDB_ES","ident":"L","name":"Getafe","type":"NDB","frequency_khz":"335","latitude_deg":"40.27989959716797","longitude_deg":"-3.7423698902130127","elevation_ft":null,"iso_country":"ES","dme_frequency_khz":null,"dme_channel":null,"dme_latitude_deg":null,"dme_longitude_deg":null,"dme_elevation_ft":null,"slaved_variation_deg":null,"magnetic_variation_deg":"-2.162","usageType":"TERMINAL","power":"LOW","associated_airport":null},{"id":"90122","filename":"Nipawin_NDB_CA","ident":"L4","name":"Nipawin","type":"NDB","frequency_khz":"402","latitude_deg":"53.33470153808594","longitude_deg":"-104.00900268554688","elevation_ft":"1220","iso_country":"CA","dme_frequency_khz":null,"dme_channel":null,"dme_latitude_deg":null,"dme_longitude_deg":null,"dme_elevation_ft":null,"slaved_variation_deg":null,"magnetic_variation_deg":"10.221","usageType":"LO","power":"MEDIUM","associated_airport":"CYBU"},{"id":"90123","filename":"Estevan_NDB_CA","ident":"L7","name":"Estevan","type":"NDB","frequency_khz":"395","latitude_deg":"49.209999084472656","longitude_deg":"-102.86000061035156","elevation_ft":null,"iso_country":"CA","dme_frequency_khz":null,"dme_channel":null,"dme_latitude_deg":null,"dme_longitude_deg":null,"dme_elevation_ft":null,"slaved_variation_deg":null,"magnetic_variation_deg":"9.062","usageType":"LO","power":"MEDIUM","associated_airport":"CYEN"},{"id":"90124","filename":"Lahore_VOR-DME_PK","ident":"LA","name":"Lahore","type":"VOR-DME","frequency_khz":"112700","latitude_deg":"31.49970054626465","longitude_deg":"74.4000015258789","elevation_ft":"729","iso_country":"PK","dme_frequency_khz":"112700","dme_channel":"074X","dme_latitude_deg":null,"dme_longitude_deg":null,"dme_elevation_ft":null,"slaved_variation_deg":"1.007","magnetic_variation_deg":"1.266","usageType":"BOTH","power":"HIGH","associated_airport":"OPLA"},{"id":"90125","filename":"Lake_Awasa_NDB_ET","ident":"LA","name":"Lake Awasa","type":"NDB","frequency_khz":"215","latitude_deg":"7.067840099334717","longitude_deg":"38.50080108642578","elevation_ft":null,"iso_country":"ET","dme_frequency_khz":null,"dme_channel":null,"dme_latitude_deg":null,"dme_longitude_deg":null,"dme_elevation_ft":null,"slaved_variation_deg":null,"magnetic_variation_deg":"1.27","usageType":"BOTH","power":"MEDIUM","associated_airport":null},{"id":"90126","filename":"Namest_NDB_CZ","ident":"LA","name":"Namest","type":"NDB","frequency_khz":"563","latitude_deg":"49.13650131225586","longitude_deg":"16.17959976196289","elevation_ft":null,"iso_country":"CZ","dme_frequency_khz":null,"dme_channel":null,"dme_latitude_deg":null,"dme_longitude_deg":null,"dme_elevation_ft":null,"slaved_variation_deg":null,"magnetic_variation_deg":"2.49","usageType":"TERMINAL","power":"HIGH","associated_airport":"LKNA"},{"id":"90127","filename":"Langholt_NDB_IS","ident":"LA","name":"Langholt","type":"NDB","frequency_khz":"344","latitude_deg":"65.57669830322266","longitude_deg":"-19.488300323486328","elevation_ft":null,"iso_country":"IS","dme_frequency_khz":null,"dme_channel":null,"dme_latitude_deg":null,"dme_longitude_deg":null,"dme_elevation_ft":null,"slaved_variation_deg":null,"magnetic_variation_deg":"-16.271","usageType":"BOTH","power":"LOW","associated_airport":"BIKR"},{"id":"90128","filename":"Bula_NDB_ID","ident":"LA","name":"Bula","type":"NDB","frequency_khz":"405","latitude_deg":"-3.1108200550079346","longitude_deg":"130.51100158691406","elevation_ft":"15","iso_country":"ID","dme_frequency_khz":null,"dme_channel":null,"dme_latitude_deg":null,"dme_longitude_deg":null,"dme_elevation_ft":null,"slaved_variation_deg":null,"magnetic_variation_deg":"2.189","usageType":"BOTH","power":"MEDIUM","associated_airport":"WAPB"},{"id":"90129","filename":"Leh_NDB_IN","ident":"LA","name":"Leh","type":"NDB","frequency_khz":"105","latitude_deg":"34.150001525878906","longitude_deg":"77.58329772949219","elevation_ft":null,"iso_country":"IN","dme_frequency_khz":null,"dme_channel":null,"dme_latitude_deg":null,"dme_longitude_deg":null,"dme_elevation_ft":null,"slaved_variation_deg":null,"magnetic_variation_deg":"1.514","usageType":"BOTH","power":"LOW","associated_airport":"VILH"},{"id":"90130","filename":"Lagos_NDB_NG","ident":"LA","name":"Lagos","type":"NDB","frequency_khz":"336","latitude_deg":"6.606480121612549","longitude_deg":"3.327929973602295","elevation_ft":"115","iso_country":"NG","dme_frequency_khz":null,"dme_channel":null,"dme_latitude_deg":null,"dme_longitude_deg":null,"dme_elevation_ft":null,"slaved_variation_deg":null,"magnetic_variation_deg":"-3.296","usageType":"TERMINAL","power":"LOW","associated_airport":"DNMM"},{"id":"90131","filename":"Lahore_NDB_PK","ident":"LA","name":"Lahore","type":"NDB","frequency_khz":"268","latitude_deg":"31.501100540161133","longitude_deg":"74.38330078125","elevation_ft":null,"iso_country":"PK","dme_frequency_khz":null,"dme_channel":null,"dme_latitude_deg":null,"dme_longitude_deg":null,"dme_elevation_ft":null,"slaved_variation_deg":null,"magnetic_variation_deg":"1.267","usageType":"BOTH","power":"MEDIUM","associated_airport":"OPLA"},{"id":"90132","filename":"Lavrentiya_NDB_RU","ident":"LA","name":"Lavrentiya","type":"NDB","frequency_khz":"445","latitude_deg":"65.58329772949219","longitude_deg":"-171.01300048828125","elevation_ft":null,"iso_country":"RU","dme_frequency_khz":null,"dme_channel":null,"dme_latitude_deg":null,"dme_longitude_deg":null,"dme_elevation_ft":null,"slaved_variation_deg":null,"magnetic_variation_deg":"10.334","usageType":"BOTH","power":"HIGH","associated_airport":null},{"id":"90133","filename":"Lazarevskoye_NDB_RU","ident":"LA","name":"Lazarevskoye","type":"NDB","frequency_khz":"307","latitude_deg":"43.91669845581055","longitude_deg":"39.33330154418945","elevation_ft":null,"iso_country":"RU","dme_frequency_khz":null,"dme_channel":null,"dme_latitude_deg":null,"dme_longitude_deg":null,"dme_elevation_ft":null,"slaved_variation_deg":null,"magnetic_variation_deg":"5.572","usageType":"BOTH","power":"HIGH","associated_airport":null},{"id":"90134","filename":"Cheboksary_NDB_RU","ident":"LA","name":"Cheboksary","type":"NDB","frequency_khz":"510","latitude_deg":"56.073299407958984","longitude_deg":"47.26169967651367","elevation_ft":null,"iso_country":"RU","dme_frequency_khz":null,"dme_channel":null,"dme_latitude_deg":null,"dme_longitude_deg":null,"dme_elevation_ft":null,"slaved_variation_deg":null,"magnetic_variation_deg":"11.588","usageType":"TERMINAL","power":"HIGH","associated_airport":"UWKS"},{"id":"90135","filename":"Lanseria_NDB_ZA","ident":"LA","name":"Lanseria","type":"NDB","frequency_khz":"270","latitude_deg":"-26.010299682617188","longitude_deg":"27.839500427246094","elevation_ft":null,"iso_country":"ZA","dme_frequency_khz":null,"dme_channel":null,"dme_latitude_deg":null,"dme_longitude_deg":null,"dme_elevation_ft":null,"slaved_variation_deg":null,"magnetic_variation_deg":"-17.312","usageType":"BOTH","power":"MEDIUM","associated_airport":"FALA"},{"id":"90136","filename":"Arlanda_NDB_SE","ident":"LA","name":"Arlanda","type":"NDB","frequency_khz":"404","latitude_deg":"59.72949981689453","longitude_deg":"17.946699142456055","elevation_ft":null,"iso_country":"SE","dme_frequency_khz":null,"dme_channel":null,"dme_latitude_deg":null,"dme_longitude_deg":null,"dme_elevation_ft":null,"slaved_variation_deg":null,"magnetic_variation_deg":"4.152","usageType":"BOTH","power":"MEDIUM","associated_airport":"ESSA"},{"id":"90137","filename":"Lyneham_NDB_GB","ident":"LA","name":"Lyneham","type":"NDB","frequency_khz":"282","latitude_deg":"51.50830078125","longitude_deg":"-2.0058701038360596","elevation_ft":"513","iso_country":"GB","dme_frequency_khz":null,"dme_channel":null,"dme_latitude_deg":null,"dme_longitude_deg":null,"dme_elevation_ft":null,"slaved_variation_deg":null,"magnetic_variation_deg":"-2.596","usageType":"TERMINAL","power":"LOW","associated_airport":"GB-1213"},{"id":"90138","filename":"Wirey_NDB_US","ident":"LA","name":"Wirey","type":"NDB","frequency_khz":"227","latitude_deg":"27.935400009155273","longitude_deg":"-82.07579803466797","elevation_ft":"100","iso_country":"US","dme_frequency_khz":null,"dme_channel":null,"dme_latitude_deg":null,"dme_longitude_deg":null,"dme_elevation_ft":null,"slaved_variation_deg":null,"magnetic_variation_deg":"-4.399","usageType":"TERMINAL","power":"LOW","associated_airport":"KLAL"},{"id":"90139","filename":"Earle_NDB_US","ident":"LA","name":"Earle","type":"NDB","frequency_khz":"401","latitude_deg":"40.42649841308594","longitude_deg":"-87.05180358886719","elevation_ft":"670","iso_country":"US","dme_frequency_khz":null,"dme_channel":null,"dme_latitude_deg":null,"dme_longitude_deg":null,"dme_elevation_ft":null,"slaved_variation_deg":null,"magnetic_variation_deg":"-3.177","usageType":"TERMINAL","power":"LOW","associated_airport":"KLAF"},{"id":"90140","filename":"Artda_NDB_US","ident":"LA","name":"Artda","type":"NDB","frequency_khz":"206","latitude_deg":"42.7775993347168","longitude_deg":"-84.49759674072266","elevation_ft":"841","iso_country":"US","dme_frequency_khz":null,"dme_channel":null,"dme_latitude_deg":null,"dme_longitude_deg":null,"dme_elevation_ft":null,"slaved_variation_deg":null,"magnetic_variation_deg":"-6.019","usageType":"TERMINAL","power":"LOW","associated_airport":"KLAN"},{"id":"90141","filename":"Lamar_VORTAC_US","ident":"LAA","name":"Lamar","type":"VORTAC","frequency_khz":"116900","latitude_deg":"38.19710159301758","longitude_deg":"-102.68800354003906","elevation_ft":"3944","iso_country":"US","dme_frequency_khz":"116900","dme_channel":"116X","dme_latitude_deg":null,"dme_longitude_deg":null,"dme_elevation_ft":null,"slaved_variation_deg":"12.001","magnetic_variation_deg":"8.139","usageType":"BOTH","power":"HIGH","associated_airport":null},{"id":"90142","filename":"Laanila_NDB_FI","ident":"LAA","name":"Laanila","type":"NDB","frequency_khz":"350","latitude_deg":"64.96630096435547","longitude_deg":"25.211200714111328","elevation_ft":null,"iso_country":"FI","dme_frequency_khz":null,"dme_channel":null,"dme_latitude_deg":null,"dme_longitude_deg":null,"dme_elevation_ft":null,"slaved_variation_deg":null,"magnetic_variation_deg":"8.327","usageType":"LO","power":"LOW","associated_airport":"EFOU"},{"id":"90143","filename":"Landsberg_TACAN_DE","ident":"LAB","name":"Landsberg","type":"TACAN","frequency_khz":"112150","latitude_deg":"48.06529998779297","longitude_deg":"10.880800247192383","elevation_ft":"2102","iso_country":"DE","dme_frequency_khz":"112150","dme_channel":"058Y","dme_latitude_deg":null,"dme_longitude_deg":null,"dme_elevation_ft":null,"slaved_variation_deg":null,"magnetic_variation_deg":"1.277","usageType":"BOTH","power":"HIGH","associated_airport":"DE-0883"},{"id":"90144","filename":"Labraq_NDB_LY","ident":"LAB","name":"Labraq","type":"NDB","frequency_khz":"392","latitude_deg":"32.78689956665039","longitude_deg":"21.96579933166504","elevation_ft":"2157","iso_country":"LY","dme_frequency_khz":null,"dme_channel":null,"dme_latitude_deg":null,"dme_longitude_deg":null,"dme_elevation_ft":null,"slaved_variation_deg":null,"magnetic_variation_deg":"2.398","usageType":"BOTH","power":"HIGH","associated_airport":"HLLQ"},{"id":"90145","filename":"Labuan_NDB_MY","ident":"LAB","name":"Labuan","type":"NDB","frequency_khz":"260","latitude_deg":"5.284719944000244","longitude_deg":"115.25499725341797","elevation_ft":"101","iso_country":"MY","dme_frequency_khz":null,"dme_channel":null,"dme_latitude_deg":null,"dme_longitude_deg":null,"dme_elevation_ft":null,"slaved_variation_deg":null,"magnetic_variation_deg":"0.243","usageType":"BOTH","power":"MEDIUM","associated_airport":"WBKL"},{"id":"90146","filename":"Lacomas_NDB_US","ident":"LAC","name":"Lacomas","type":"NDB","frequency_khz":"328","latitude_deg":"47.007999420166016","longitude_deg":"-122.55599975585938","elevation_ft":"101","iso_country":"US","dme_frequency_khz":null,"dme_channel":null,"dme_latitude_deg":null,"dme_longitude_deg":null,"dme_elevation_ft":null,"slaved_variation_deg":null,"magnetic_variation_deg":"17.311","usageType":"LO","power":"LOW","associated_airport":"KGRF"},{"id":"90147","filename":"Lae_NDB_PG","ident":"LAE","name":"Lae","type":"NDB","frequency_khz":"388","latitude_deg":"-6.737269878387451","longitude_deg":"146.9980010986328","elevation_ft":null,"iso_country":"PG","dme_frequency_khz":null,"dme_channel":null,"dme_latitude_deg":null,"dme_longitude_deg":null,"dme_elevation_ft":null,"slaved_variation_deg":null,"magnetic_variation_deg":"5.566","usageType":"BOTH","power":"LOW","associated_airport":null},{"id":"90148","filename":"Laage_TACAN_DE","ident":"LAG","name":"Laage","type":"TACAN","frequency_khz":"108250","latitude_deg":"53.9197998046875","longitude_deg":"12.286299705505371","elevation_ft":"190","iso_country":"DE","dme_frequency_khz":"108250","dme_channel":"019Y","dme_latitude_deg":null,"dme_longitude_deg":null,"dme_elevation_ft":null,"slaved_variation_deg":"0.007","magnetic_variation_deg":"1.51","usageType":"BOTH","power":"HIGH","associated_airport":"ETNL"},{"id":"90149","filename":"Lagos_VOR-DME_NG","ident":"LAG","name":"Lagos","type":"VOR-DME","frequency_khz":"113700","latitude_deg":"6.708459854125977","longitude_deg":"3.3274500370025635","elevation_ft":"251","iso_country":"NG","dme_frequency_khz":"113700","dme_channel":"084X","dme_latitude_deg":null,"dme_longitude_deg":null,"dme_elevation_ft":null,"slaved_variation_deg":null,"magnetic_variation_deg":"-3.281","usageType":"BOTH","power":"HIGH","associated_airport":"DNMM"},{"id":"90150","filename":"Lago_Agrio_NDB_EC","ident":"LAG","name":"Lago Agrio","type":"NDB","frequency_khz":"353","latitude_deg":"0.06666699796915054","longitude_deg":"-76.9032974243164","elevation_ft":null,"iso_country":"EC","dme_frequency_khz":null,"dme_channel":null,"dme_latitude_deg":null,"dme_longitude_deg":null,"dme_elevation_ft":null,"slaved_variation_deg":null,"magnetic_variation_deg":"-2.498","usageType":"LO","power":"HIGH","associated_airport":"SENL"},{"id":"90151","filename":"Hanover_NDB_US","ident":"LAH","name":"Hanover","type":"NDB","frequency_khz":"276","latitude_deg":"43.702301025390625","longitude_deg":"-72.17749786376953","elevation_ft":"1175","iso_country":"US","dme_frequency_khz":null,"dme_channel":null,"dme_latitude_deg":null,"dme_longitude_deg":null,"dme_elevation_ft":null,"slaved_variation_deg":null,"magnetic_variation_deg":"-15.172","usageType":"LO","power":"LOW","associated_airport":null},{"id":"90152","filename":"Lajes_TACAN_PT","ident":"LAJ","name":"Lajes","type":"TACAN","frequency_khz":"110800","latitude_deg":"38.71329879760742","longitude_deg":"-27.115400314331055","elevation_ft":"1785","iso_country":"PT","dme_frequency_khz":"110800","dme_channel":"045X","dme_latitude_deg":null,"dme_longitude_deg":null,"dme_elevation_ft":null,"slaved_variation_deg":"-14.001","magnetic_variation_deg":"-10.479","usageType":"BOTH","power":"HIGH","associated_airport":"LPLA"},{"id":"90153","filename":"Banja_Luka_VOR-DME_BA","ident":"LAK","name":"Banja Luka","type":"VOR-DME","frequency_khz":"115900","latitude_deg":"44.94169998168945","longitude_deg":"17.295799255371094","elevation_ft":"400","iso_country":"BA","dme_frequency_khz":"115900","dme_channel":"106X","dme_latitude_deg":null,"dme_longitude_deg":null,"dme_elevation_ft":null,"slaved_variation_deg":null,"magnetic_variation_deg":"2.492","usageType":"BOTH","power":"LOW","associated_airport":"LQBK"},{"id":"90154","filename":"Lakeland_VORTAC_US","ident":"LAL","name":"Lakeland","type":"VORTAC","frequency_khz":"116000","latitude_deg":"27.9862003326416","longitude_deg":"-82.01390075683594","elevation_ft":"135","iso_country":"US","dme_frequency_khz":"116000","dme_channel":"107X","dme_latitude_deg":null,"dme_longitude_deg":null,"dme_elevation_ft":null,"slaved_variation_deg":"1.001","magnetic_variation_deg":"-4.43","usageType":"BOTH","power":"HIGH","associated_airport":"KLAL"},{"id":"90155","filename":"Lamerd_VOR-DME_IR","ident":"LAM","name":"Lamerd","type":"VOR-DME","frequency_khz":"117000","latitude_deg":"27.372800827026367","longitude_deg":"53.183998107910156","elevation_ft":"1251","iso_country":"IR","dme_frequency_khz":"117000","dme_channel":"117X","dme_latitude_deg":null,"dme_longitude_deg":null,"dme_elevation_ft":null,"slaved_variation_deg":null,"magnetic_variation_deg":"2.063","usageType":"LO","power":"MEDIUM","associated_airport":null},{"id":"90156","filename":"Lambourne_VOR-DME_GB","ident":"LAM","name":"Lambourne","type":"VOR-DME","frequency_khz":"115600","latitude_deg":"51.64609909057617","longitude_deg":"0.15166699886322021","elevation_ft":"200","iso_country":"GB","dme_frequency_khz":"115600","dme_channel":"103X","dme_latitude_deg":null,"dme_longitude_deg":null,"dme_elevation_ft":null,"slaved_variation_deg":"-3.001","magnetic_variation_deg":"-2.119","usageType":"BOTH","power":"HIGH","associated_airport":null},{"id":"90157","filename":"Lamerd_NDB_IR","ident":"LAM","name":"Lamerd","type":"NDB","frequency_khz":"346","latitude_deg":"27.36709976196289","longitude_deg":"53.1952018737793","elevation_ft":"1345","iso_country":"IR","dme_frequency_khz":null,"dme_channel":null,"dme_latitude_deg":null,"dme_longitude_deg":null,"dme_elevation_ft":null,"slaved_variation_deg":null,"magnetic_variation_deg":"2.062","usageType":"BOTH","power":"HIGH","associated_airport":"OISR"},{"id":"90158","filename":"Lansing_VORTAC_US","ident":"LAN","name":"Lansing","type":"VORTAC","frequency_khz":"110800","latitude_deg":"42.71739959716797","longitude_deg":"-84.69770050048828","elevation_ft":"880","iso_country":"US","dme_frequency_khz":"110800","dme_channel":"045X","dme_latitude_deg":null,"dme_longitude_deg":null,"dme_elevation_ft":null,"slaved_variation_deg":"-5.001","magnetic_variation_deg":"-5.506","usageType":"LO","power":"MEDIUM","associated_airport":"KLAN"},{"id":"90159","filename":"Amatecampo_NDB_SV","ident":"LAN","name":"Amatecampo","type":"NDB","frequency_khz":"331","latitude_deg":"13.412099838256836","longitude_deg":"-89.13749694824219","elevation_ft":"101","iso_country":"SV","dme_frequency_khz":null,"dme_channel":null,"dme_latitude_deg":null,"dme_longitude_deg":null,"dme_elevation_ft":null,"slaved_variation_deg":null,"magnetic_variation_deg":"2.04","usageType":"BOTH","power":"MEDIUM","associated_airport":"MSLP"},{"id":"90160","filename":"Laoag_VOR-DME_PH","ident":"LAO","name":"Laoag","type":"VOR-DME","frequency_khz":"112900","latitude_deg":"18.178800582885742","longitude_deg":"120.52899932861328","elevation_ft":"53","iso_country":"PH","dme_frequency_khz":"112900","dme_channel":"076X","dme_latitude_deg":null,"dme_longitude_deg":null,"dme_elevation_ft":null,"slaved_variation_deg":"0.007","magnetic_variation_deg":"-2.031","usageType":"BOTH","power":"HIGH","associated_airport":"RPLI"},{"id":"90161","filename":"Lapa_VOR-DME_BR","ident":"LAP","name":"Lapa","type":"VOR-DME","frequency_khz":"113700","latitude_deg":"-13.264599800109863","longitude_deg":"-43.408199310302734","elevation_ft":"1454","iso_country":"BR","dme_frequency_khz":"113700","dme_channel":"084X","dme_latitude_deg":null,"dme_longitude_deg":null,"dme_elevation_ft":null,"slaved_variation_deg":"-21.007","magnetic_variation_deg":"-22.038","usageType":"BOTH","power":"HIGH","associated_airport":"SBLP"},{"id":"90162","filename":"La_Paz_VOR-DME_MX","ident":"LAP","name":"La Paz","type":"VOR-DME","frequency_khz":"112300","latitude_deg":"24.085599899291992","longitude_deg":"-110.35900115966797","elevation_ft":"69","iso_country":"MX","dme_frequency_khz":"112300","dme_channel":"070X","dme_latitude_deg":null,"dme_longitude_deg":null,"dme_elevation_ft":null,"slaved_variation_deg":"10.001","magnetic_variation_deg":"9.386","usageType":"BOTH","power":"HIGH","associated_airport":"MMLP"},{"id":"90163","filename":"Lapa_NDB_BR","ident":"LAP","name":"Lapa","type":"NDB","frequency_khz":"320","latitude_deg":"-13.264900207519531","longitude_deg":"-43.41310119628906","elevation_ft":"1580","iso_country":"BR","dme_frequency_khz":null,"dme_channel":null,"dme_latitude_deg":null,"dme_longitude_deg":null,"dme_elevation_ft":null,"slaved_variation_deg":null,"magnetic_variation_deg":"-22.037","usageType":"BOTH","power":"MEDIUM","associated_airport":"SBLP"},{"id":"90164","filename":"La_Paz_NDB_MX","ident":"LAP","name":"La Paz","type":"NDB","frequency_khz":"300","latitude_deg":"24.069400787353516","longitude_deg":"-110.36599731445312","elevation_ft":"69","iso_country":"MX","dme_frequency_khz":null,"dme_channel":null,"dme_latitude_deg":null,"dme_longitude_deg":null,"dme_elevation_ft":null,"slaved_variation_deg":null,"magnetic_variation_deg":"9.386","usageType":"BOTH","power":"MEDIUM","associated_airport":"MMLP"},{"id":"90165","filename":"La_Praz_DME_CH","ident":"LAP","name":"La Praz","type":"DME","frequency_khz":"110650","latitude_deg":"46.67610168457031","longitude_deg":"6.413330078125","elevation_ft":"4244","iso_country":"CH","dme_frequency_khz":"110650","dme_channel":"043Y","dme_latitude_deg":null,"dme_longitude_deg":null,"dme_elevation_ft":null,"slaved_variation_deg":null,"magnetic_variation_deg":"0.184","usageType":"BOTH","power":"HIGH","associated_airport":null},{"id":"90166","filename":"La_Rioja_VOR_AR","ident":"LAR","name":"La Rioja","type":"VOR","frequency_khz":"113500","latitude_deg":"-29.388599395751953","longitude_deg":"-66.80359649658203","elevation_ft":"1437","iso_country":"AR","dme_frequency_khz":null,"dme_channel":null,"dme_latitude_deg":null,"dme_longitude_deg":null,"dme_elevation_ft":null,"slaved_variation_deg":"0.007","magnetic_variation_deg":"-2.01","usageType":"BOTH","power":"HIGH","associated_airport":"SANL"},{"id":"90167","filename":"Laramie_VORTAC_US","ident":"LAR","name":"Laramie","type":"VORTAC","frequency_khz":"117600","latitude_deg":"41.33789825439453","longitude_deg":"-105.72100067138672","elevation_ft":"7280","iso_country":"US","dme_frequency_khz":"117600","dme_channel":"123X","dme_latitude_deg":null,"dme_longitude_deg":null,"dme_elevation_ft":null,"slaved_variation_deg":"14.001","magnetic_variation_deg":"10.099","usageType":"BOTH","power":"MEDIUM","associated_airport":"KLAR"},{"id":"90168","filename":"Larisa_TACAN_GR","ident":"LAR","name":"Larisa","type":"TACAN","frequency_khz":"109000","latitude_deg":"39.654598236083984","longitude_deg":"22.50659942626953","elevation_ft":"241","iso_country":"GR","dme_frequency_khz":"109000","dme_channel":"027X","dme_latitude_deg":null,"dme_longitude_deg":null,"dme_elevation_ft":null,"slaved_variation_deg":null,"magnetic_variation_deg":"3.164","usageType":"BOTH","power":"HIGH","associated_airport":"LGLR"},{"id":"90169","filename":"Lar_VOR-DME_IR","ident":"LAR","name":"Lar","type":"VOR-DME","frequency_khz":"117900","latitude_deg":"27.675199508666992","longitude_deg":"54.415199279785156","elevation_ft":"2619","iso_country":"IR","dme_frequency_khz":"117900","dme_channel":"126X","dme_latitude_deg":null,"dme_longitude_deg":null,"dme_elevation_ft":null,"slaved_variation_deg":null,"magnetic_variation_deg":"2.025","usageType":"LO","power":"HIGH","associated_airport":"OISL"},{"id":"90170","filename":"La_Rioja_NDB_AR","ident":"LAR","name":"La Rioja","type":"NDB","frequency_khz":"410","latitude_deg":"-29.38279914855957","longitude_deg":"-66.7925033569336","elevation_ft":"1415","iso_country":"AR","dme_frequency_khz":null,"dme_channel":null,"dme_latitude_deg":null,"dme_longitude_deg":null,"dme_elevation_ft":null,"slaved_variation_deg":null,"magnetic_variation_deg":"-2.018","usageType":"BOTH","power":"HIGH","associated_airport":"SANL"},{"id":"90171","filename":"Lago_Agrio_NDB_EC","ident":"LAR","name":"Lago Agrio","type":"NDB","frequency_khz":"412","latitude_deg":"0.08388900011777878","longitude_deg":"-76.88030242919922","elevation_ft":"981","iso_country":"EC","dme_frequency_khz":null,"dme_channel":null,"dme_latitude_deg":null,"dme_longitude_deg":null,"dme_elevation_ft":null,"slaved_variation_deg":null,"magnetic_variation_deg":"-2.51","usageType":"TERMINAL","power":"MEDIUM","associated_airport":"SENL"},{"id":"90172","filename":"Lar_NDB_IR","ident":"LAR","name":"Lar","type":"NDB","frequency_khz":"224","latitude_deg":"27.669700622558594","longitude_deg":"54.377498626708984","elevation_ft":"2641","iso_country":"IR","dme_frequency_khz":null,"dme_channel":null,"dme_latitude_deg":null,"dme_longitude_deg":null,"dme_elevation_ft":null,"slaved_variation_deg":null,"magnetic_variation_deg":"2.021","usageType":"LO","power":"MEDIUM","associated_airport":"OISL"},{"id":"90173","filename":"Arruda_NDB_PT","ident":"LAR","name":"Arruda","type":"NDB","frequency_khz":"382","latitude_deg":"38.994300842285156","longitude_deg":"-9.040390014648438","elevation_ft":null,"iso_country":"PT","dme_frequency_khz":null,"dme_channel":null,"dme_latitude_deg":null,"dme_longitude_deg":null,"dme_elevation_ft":null,"slaved_variation_deg":null,"magnetic_variation_deg":"-3.58","usageType":"TERMINAL","power":"LOW","associated_airport":"LPPT"},{"id":"90174","filename":"Las_Vegas_VORTAC_US","ident":"LAS","name":"Las Vegas","type":"VORTAC","frequency_khz":"116900","latitude_deg":"36.0797004699707","longitude_deg":"-115.16000366210938","elevation_ft":"2141","iso_country":"US","dme_frequency_khz":"116900","dme_channel":"116X","dme_latitude_deg":null,"dme_longitude_deg":null,"dme_elevation_ft":null,"slaved_variation_deg":"15.001","magnetic_variation_deg":"12.529","usageType":"BOTH","power":"HIGH","associated_airport":"KLAS"},{"id":"90175","filename":"Guerra_NDB_DO","ident":"LAS","name":"Guerra","type":"NDB","frequency_khz":"200","latitude_deg":"18.578100204467773","longitude_deg":"-69.72440338134766","elevation_ft":"57","iso_country":"DO","dme_frequency_khz":null,"dme_channel":null,"dme_latitude_deg":null,"dme_longitude_deg":null,"dme_elevation_ft":null,"slaved_variation_deg":null,"magnetic_variation_deg":"-10.398","usageType":"LO","power":"LOW","associated_airport":"MDSD"},{"id":"90176","filename":"Latina_VOR-DME_IT","ident":"LAT","name":"Latina","type":"VOR-DME","frequency_khz":"111200","latitude_deg":"41.541099548339844","longitude_deg":"12.918100357055664","elevation_ft":"93","iso_country":"IT","dme_frequency_khz":"111200","dme_channel":"049X","dme_latitude_deg":null,"dme_longitude_deg":null,"dme_elevation_ft":null,"slaved_variation_deg":null,"magnetic_variation_deg":"1.514","usageType":"BOTH","power":"HIGH","associated_airport":"LIRL"},{"id":"90177","filename":"Latina_NDB_IT","ident":"LAT","name":"Latina","type":"NDB","frequency_khz":"379","latitude_deg":"41.52439880371094","longitude_deg":"12.943599700927734","elevation_ft":null,"iso_country":"IT","dme_frequency_khz":null,"dme_channel":null,"dme_latitude_deg":null,"dme_longitude_deg":null,"dme_elevation_ft":null,"slaved_variation_deg":null,"magnetic_variation_deg":"1.507","usageType":"TERMINAL","power":"LOW","associated_airport":"LIRL"},{"id":"90178","filename":"Lichtenau_NDB_DE","ident":"LAU","name":"Lichtenau","type":"NDB","frequency_khz":"341","latitude_deg":"51.20429992675781","longitude_deg":"9.690990447998047","elevation_ft":null,"iso_country":"DE","dme_frequency_khz":null,"dme_channel":null,"dme_latitude_deg":null,"dme_longitude_deg":null,"dme_elevation_ft":null,"slaved_variation_deg":null,"magnetic_variation_deg":"1.041","usageType":"BOTH","power":"HIGH","associated_airport":null},{"id":"90179","filename":"Laravale_VOR_AU","ident":"LAV","name":"Laravale","type":"VOR","frequency_khz":"117800","latitude_deg":"-28.089799880981445","longitude_deg":"152.9250030517578","elevation_ft":null,"iso_country":"AU","dme_frequency_khz":null,"dme_channel":null,"dme_latitude_deg":null,"dme_longitude_deg":null,"dme_elevation_ft":null,"slaved_variation_deg":"11.007","magnetic_variation_deg":"11.163","usageType":"BOTH","power":"HIGH","associated_airport":null},{"id":"90180","filename":"Lago_Agrio_VOR-DME_EC","ident":"LAV","name":"Lago Agrio","type":"VOR-DME","frequency_khz":"112300","latitude_deg":"0.1022220030426979","longitude_deg":"-76.85639953613281","elevation_ft":"1001","iso_country":"EC","dme_frequency_khz":"112300","dme_channel":"070X","dme_latitude_deg":null,"dme_longitude_deg":null,"dme_elevation_ft":null,"slaved_variation_deg":"0.007","magnetic_variation_deg":"-2.522","usageType":"BOTH","power":"HIGH","associated_airport":"SENL"},{"id":"90181","filename":"Landvetter_VOR-DME_SE","ident":"LAV","name":"Landvetter","type":"VOR-DME","frequency_khz":"114600","latitude_deg":"57.65610122680664","longitude_deg":"12.289899826049805","elevation_ft":"574","iso_country":"SE","dme_frequency_khz":"114600","dme_channel":"093X","dme_latitude_deg":null,"dme_longitude_deg":null,"dme_elevation_ft":null,"slaved_variation_deg":"1.001","magnetic_variation_deg":"1.523","usageType":"BOTH","power":"HIGH","associated_airport":"ESGG"},{"id":"90182","filename":"Poznan_VOR-DME_PL","ident":"LAW","name":"Poznan","type":"VOR-DME","frequency_khz":"115800","latitude_deg":"52.422401428222656","longitude_deg":"16.8302001953125","elevation_ft":"308","iso_country":"PL","dme_frequency_khz":"115800","dme_channel":"105X","dme_latitude_deg":null,"dme_longitude_deg":null,"dme_elevation_ft":null,"slaved_variation_deg":null,"magnetic_variation_deg":"3.113","usageType":"BOTH","power":"MEDIUM","associated_airport":null},{"id":"90183","filename":"Lawton_VOR-DME_US","ident":"LAW","name":"Lawton","type":"VOR-DME","frequency_khz":"109400","latitude_deg":"34.49620056152344","longitude_deg":"-98.41310119628906","elevation_ft":"1100","iso_country":"US","dme_frequency_khz":"109400","dme_channel":"031X","dme_latitude_deg":null,"dme_longitude_deg":null,"dme_elevation_ft":null,"slaved_variation_deg":"9.001","magnetic_variation_deg":"5.376","usageType":"LO","power":"MEDIUM","associated_airport":"KFSI"},{"id":"90184","filename":"Los_Angeles_VORTAC_US","ident":"LAX","name":"Los Angeles","type":"VORTAC","frequency_khz":"113600","latitude_deg":"33.933101654052734","longitude_deg":"-118.43199920654297","elevation_ft":"182","iso_country":"US","dme_frequency_khz":"113600","dme_channel":"083X","dme_latitude_deg":"33.9334","dme_longitude_deg":"-118.432","dme_elevation_ft":"180","slaved_variation_deg":"15.001","magnetic_variation_deg":"13.076","usageType":"BOTH","power":"HIGH","associated_airport":"KLAX"},{"id":"90185","filename":"Laayoune_VOR-DME_EH","ident":"LAY","name":"Laayoune","type":"VOR-DME","frequency_khz":"112100","latitude_deg":"27.142900466918945","longitude_deg":"-13.218000411987305","elevation_ft":"223","iso_country":"EH","dme_frequency_khz":"112100","dme_channel":"058X","dme_latitude_deg":null,"dme_longitude_deg":null,"dme_elevation_ft":null,"slaved_variation_deg":"-6.007","magnetic_variation_deg":"-5.251","usageType":"BOTH","power":"HIGH","associated_airport":"GMML"},{"id":"90186","filename":"Atalaya_NDB_PE","ident":"LAY","name":"Atalaya","type":"NDB","frequency_khz":"295","latitude_deg":"-10.727800369262695","longitude_deg":"-73.76969909667969","elevation_ft":"751","iso_country":"PE","dme_frequency_khz":null,"dme_channel":null,"dme_latitude_deg":null,"dme_longitude_deg":null,"dme_elevation_ft":null,"slaved_variation_deg":null,"magnetic_variation_deg":"-2.447","usageType":"BOTH","power":"LOW","associated_airport":"SPAY"},{"id":"90187","filename":"Islay_NDB_GB","ident":"LAY","name":"Islay","type":"NDB","frequency_khz":"395","latitude_deg":"55.682899475097656","longitude_deg":"-6.2494797706604","elevation_ft":"58","iso_country":"GB","dme_frequency_khz":null,"dme_channel":null,"dme_latitude_deg":null,"dme_longitude_deg":null,"dme_elevation_ft":null,"slaved_variation_deg":null,"magnetic_variation_deg":"-5.396","usageType":"BOTH","power":"LOW","associated_airport":"EGPI"},{"id":"90188","filename":"Labasa_VOR-DME_FJ","ident":"LB","name":"Labasa","type":"VOR-DME","frequency_khz":"115100","latitude_deg":"-16.41830062866211","longitude_deg":"179.31500244140625","elevation_ft":"32","iso_country":"FJ","dme_frequency_khz":"115100","dme_channel":"098X","dme_latitude_deg":null,"dme_longitude_deg":null,"dme_elevation_ft":null,"slaved_variation_deg":"12.007","magnetic_variation_deg":"12.001","usageType":"BOTH","power":"HIGH","associated_airport":"NFNL"},{"id":"90189","filename":"Lobito_NDB_AO","ident":"LB","name":"Lobito","type":"NDB","frequency_khz":"380","latitude_deg":"-12.366700172424316","longitude_deg":"13.533300399780273","elevation_ft":"10","iso_country":"AO","dme_frequency_khz":null,"dme_channel":null,"dme_latitude_deg":null,"dme_longitude_deg":null,"dme_elevation_ft":null,"slaved_variation_deg":null,"magnetic_variation_deg":"-7.118","usageType":"BOTH","power":"MEDIUM","associated_airport":"FNLB"},{"id":"90190","filename":"Bahrain_NDB_BH","ident":"LB","name":"Bahrain","type":"NDB","frequency_khz":"395","latitude_deg":"26.258399963378906","longitude_deg":"50.65520095825195","elevation_ft":null,"iso_country":"BH","dme_frequency_khz":null,"dme_channel":null,"dme_latitude_deg":null,"dme_longitude_deg":null,"dme_elevation_ft":null,"slaved_variation_deg":null,"magnetic_variation_deg":"2.118","usageType":"BOTH","power":"LOW","associated_airport":"OBBI"},{"id":"90191","filename":"Lambarene_NDB_GA","ident":"LB","name":"Lambarene","type":"NDB","frequency_khz":"310","latitude_deg":"-0.7120530009269714","longitude_deg":"10.230899810791016","elevation_ft":null,"iso_country":"GA","dme_frequency_khz":null,"dme_channel":null,"dme_latitude_deg":null,"dme_longitude_deg":null,"dme_elevation_ft":null,"slaved_variation_deg":null,"magnetic_variation_deg":"-3.394","usageType":"BOTH","power":"MEDIUM","associated_airport":"FOGR"},{"id":"90192","filename":"Labe_NDB_GN","ident":"LB","name":"Labe","type":"NDB","frequency_khz":"340","latitude_deg":"11.32610034942627","longitude_deg":"-12.286800384521484","elevation_ft":null,"iso_country":"GN","dme_frequency_khz":null,"dme_channel":null,"dme_latitude_deg":null,"dme_longitude_deg":null,"dme_elevation_ft":null,"slaved_variation_deg":null,"magnetic_variation_deg":"-7.248","usageType":"LO","power":"LOW","associated_airport":"GULB"},{"id":"90193","filename":"Labuhan_Bajo_NDB_ID","ident":"LB","name":"Labuhan Bajo","type":"NDB","frequency_khz":"238","latitude_deg":"-8.489520072937012","longitude_deg":"119.88700103759766","elevation_ft":"66","iso_country":"ID","dme_frequency_khz":null,"dme_channel":null,"dme_latitude_deg":null,"dme_longitude_deg":null,"dme_elevation_ft":null,"slaved_variation_deg":null,"magnetic_variation_deg":"1.558","usageType":"BOTH","power":"MEDIUM","associated_airport":"WATO"},{"id":"90194","filename":"Chelyabinsk_NDB_RU","ident":"LB","name":"Chelyabinsk","type":"NDB","frequency_khz":"452","latitude_deg":"55.31669998168945","longitude_deg":"61.42169952392578","elevation_ft":null,"iso_country":"RU","dme_frequency_khz":null,"dme_channel":null,"dme_latitude_deg":null,"dme_longitude_deg":null,"dme_elevation_ft":null,"slaved_variation_deg":null,"magnetic_variation_deg":"12.554","usageType":"TERMINAL","power":"MEDIUM","associated_airport":"USCC"},{"id":"90195","filename":"Lop_Buri_NDB_TH","ident":"LB","name":"Lop Buri","type":"NDB","frequency_khz":"280","latitude_deg":"14.886300086975098","longitude_deg":"100.66000366210938","elevation_ft":null,"iso_country":"TH","dme_frequency_khz":null,"dme_channel":null,"dme_latitude_deg":null,"dme_longitude_deg":null,"dme_elevation_ft":null,"slaved_variation_deg":null,"magnetic_variation_deg":"-0.366","usageType":"BOTH","power":"LOW","associated_airport":"VTBL"},{"id":"90196","filename":"Liubymivka_NDB_UA","ident":"LB","name":"Liubymivka","type":"NDB","frequency_khz":"670","latitude_deg":"45.62480163574219","longitude_deg":"34.89680099487305","elevation_ft":null,"iso_country":"UA","dme_frequency_khz":null,"dme_channel":null,"dme_latitude_deg":null,"dme_longitude_deg":null,"dme_elevation_ft":null,"slaved_variation_deg":null,"magnetic_variation_deg":"5.525","usageType":"BOTH","power":"HIGH","associated_airport":null},{"id":"90197","filename":"Panck_NDB_US","ident":"LB","name":"Panck","type":"NDB","frequency_khz":"383","latitude_deg":"36.964599609375","longitude_deg":"-100.95600128173828","elevation_ft":"2845","iso_country":"US","dme_frequency_khz":null,"dme_channel":null,"dme_latitude_deg":null,"dme_longitude_deg":null,"dme_elevation_ft":null,"slaved_variation_deg":null,"magnetic_variation_deg":"7.109","usageType":"TERMINAL","power":"LOW","associated_airport":"KLBL"},{"id":"90198","filename":"Panbe_NDB_US","ident":"LB","name":"Panbe","type":"NDB","frequency_khz":"416","latitude_deg":"41.06829833984375","longitude_deg":"-100.572998046875","elevation_ft":"2722","iso_country":"US","dme_frequency_khz":null,"dme_channel":null,"dme_latitude_deg":null,"dme_longitude_deg":null,"dme_elevation_ft":null,"slaved_variation_deg":null,"magnetic_variation_deg":"7.063","usageType":"TERMINAL","power":"MEDIUM","associated_airport":null},{"id":"90199","filename":"Freep_NDB_US","ident":"LB","name":"Freep","type":"NDB","frequency_khz":"263","latitude_deg":"29.194400787353516","longitude_deg":"-95.46330261230469","elevation_ft":"35","iso_country":"US","dme_frequency_khz":null,"dme_channel":null,"dme_latitude_deg":null,"dme_longitude_deg":null,"dme_elevation_ft":null,"slaved_variation_deg":null,"magnetic_variation_deg":"3.58","usageType":"TERMINAL","power":"MEDIUM","associated_airport":null},{"id":"90200","filename":"Pollo_NDB_US","ident":"LB","name":"Pollo","type":"NDB","frequency_khz":"219","latitude_deg":"33.73789978027344","longitude_deg":"-101.8290023803711","elevation_ft":null,"iso_country":"US","dme_frequency_khz":null,"dme_channel":null,"dme_latitude_deg":null,"dme_longitude_deg":null,"dme_elevation_ft":null,"slaved_variation_deg":null,"magnetic_variation_deg":"7.296","usageType":"TERMINAL","power":"LOW","associated_airport":"KLBB"},{"id":"90201","filename":"Turkmenabat_VOR-DME_TM","ident":"LBA","name":"Turkmenabat","type":"VOR-DME","frequency_khz":"109200","latitude_deg":"39.09000015258789","longitude_deg":"63.611698150634766","elevation_ft":"646","iso_country":"TM","dme_frequency_khz":"109200","dme_channel":"029X","dme_latitude_deg":null,"dme_longitude_deg":null,"dme_elevation_ft":null,"slaved_variation_deg":"4.007","magnetic_variation_deg":"4.266","usageType":"BOTH","power":"HIGH","associated_airport":"UTAV"},{"id":"90202","filename":"Macae_NDB_BR","ident":"LBA","name":"Macae","type":"NDB","frequency_khz":"210","latitude_deg":"-22.109399795532227","longitude_deg":"-39.91640090942383","elevation_ft":null,"iso_country":"BR","dme_frequency_khz":null,"dme_channel":null,"dme_latitude_deg":null,"dme_longitude_deg":null,"dme_elevation_ft":null,"slaved_variation_deg":null,"magnetic_variation_deg":"-22.544","usageType":"TERMINAL","power":"LOW","associated_airport":null},{"id":"90203","filename":"Leeds_Bradford_NDB_GB","ident":"LBA","name":"Leeds Bradford","type":"NDB","frequency_khz":"403","latitude_deg":"53.8650016784668","longitude_deg":"-1.6528899669647217","elevation_ft":null,"iso_country":"GB","dme_frequency_khz":null,"dme_channel":null,"dme_latitude_deg":null,"dme_longitude_deg":null,"dme_elevation_ft":null,"slaved_variation_deg":null,"magnetic_variation_deg":"-3.165","usageType":"LO","power":"HIGH","associated_airport":"EGNM"},{"id":"90204","filename":"Lubbock_VORTAC_US","ident":"LBB","name":"Lubbock","type":"VORTAC","frequency_khz":"109200","latitude_deg":"33.704898834228516","longitude_deg":"-101.91400146484375","elevation_ft":"3310","iso_country":"US","dme_frequency_khz":"109200","dme_channel":"029X","dme_latitude_deg":null,"dme_longitude_deg":null,"dme_elevation_ft":null,"slaved_variation_deg":"11.012","magnetic_variation_deg":"7.32","usageType":"LO","power":"MEDIUM","associated_airport":"KLBB"},{"id":"90205","filename":"Elbe_VOR-DME_DE","ident":"LBE","name":"Elbe","type":"VOR-DME","frequency_khz":"115100","latitude_deg":"53.65420150756836","longitude_deg":"9.595060348510742","elevation_ft":"50","iso_country":"DE","dme_frequency_khz":"115100","dme_channel":"098X","dme_latitude_deg":null,"dme_longitude_deg":null,"dme_elevation_ft":null,"slaved_variation_deg":"1.01","magnetic_variation_deg":"0.573","usageType":"BOTH","power":"HIGH","associated_airport":null},{"id":"90206","filename":"North_Platte_VORTAC_US","ident":"LBF","name":"North Platte","type":"VORTAC","frequency_khz":"117400","latitude_deg":"41.04859924316406","longitude_deg":"-100.74700164794922","elevation_ft":"3050","iso_country":"US","dme_frequency_khz":"117400","dme_channel":"121X","dme_latitude_deg":null,"dme_longitude_deg":null,"dme_elevation_ft":null,"slaved_variation_deg":"11.001","magnetic_variation_deg":"7.13","usageType":"BOTH","power":"MEDIUM","associated_airport":"KLBF"},{"id":"90207","filename":"Lubang_VOR-DME_PH","ident":"LBG","name":"Lubang","type":"VOR-DME","frequency_khz":"117500","latitude_deg":"13.854100227355957","longitude_deg":"120.10700225830078","elevation_ft":"43","iso_country":"PH","dme_frequency_khz":"117500","dme_channel":"122X","dme_latitude_deg":null,"dme_longitude_deg":null,"dme_elevation_ft":null,"slaved_variation_deg":"0.007","magnetic_variation_deg":"-1.085","usageType":"BOTH","power":"HIGH","associated_airport":"RPLU"},{"id":"90208","filename":"Laker_NDB_US","ident":"LBH","name":"Laker","type":"NDB","frequency_khz":"332","latitude_deg":"45.541099548339844","longitude_deg":"-122.46199798583984","elevation_ft":"125","iso_country":"US","dme_frequency_khz":null,"dme_channel":null,"dme_latitude_deg":null,"dme_longitude_deg":null,"dme_elevation_ft":null,"slaved_variation_deg":null,"magnetic_variation_deg":"17.013","usageType":"LO","power":"LOW","associated_airport":null},{"id":"90209","filename":"Liberal_VORTAC_US","ident":"LBL","name":"Liberal","type":"VORTAC","frequency_khz":"112300","latitude_deg":"37.04439926147461","longitude_deg":"-100.97100067138672","elevation_ft":"2890","iso_country":"US","dme_frequency_khz":"112300","dme_channel":"070X","dme_latitude_deg":null,"dme_longitude_deg":null,"dme_elevation_ft":null,"slaved_variation_deg":"11.001","magnetic_variation_deg":"7.083","usageType":"BOTH","power":"HIGH","associated_airport":"KLBL"},{"id":"90210","filename":"Laibin_VOR-DME_CN","ident":"LBN","name":"Laibin","type":"VOR-DME","frequency_khz":"113700","latitude_deg":"23.74329948425293","longitude_deg":"109.21199798583984","elevation_ft":"361","iso_country":"CN","dme_frequency_khz":"113700","dme_channel":"084X","dme_latitude_deg":null,"dme_longitude_deg":null,"dme_elevation_ft":null,"slaved_variation_deg":null,"magnetic_variation_deg":"-1.515","usageType":"BOTH","power":"HIGH","associated_airport":null},{"id":"90211","filename":"Trakshi_VOR-DME_LV","ident":"LBN","name":"Trakshi","type":"VOR-DME","frequency_khz":"112900","latitude_deg":"56.773399353027344","longitude_deg":"26.352100372314453","elevation_ft":"300","iso_country":"LV","dme_frequency_khz":"112900","dme_channel":"076X","dme_latitude_deg":null,"dme_longitude_deg":null,"dme_elevation_ft":null,"slaved_variation_deg":"5.007","magnetic_variation_deg":"6.446","usageType":"BOTH","power":"HIGH","associated_airport":null},{"id":"90212","filename":"Chelyabinsk_VOR-DME_RU","ident":"LBN","name":"Chelyabinsk","type":"VOR-DME","frequency_khz":"113300","latitude_deg":"55.30670166015625","longitude_deg":"61.52000045776367","elevation_ft":"771","iso_country":"RU","dme_frequency_khz":"113300","dme_channel":"080X","dme_latitude_deg":null,"dme_longitude_deg":null,"dme_elevation_ft":null,"slaved_variation_deg":null,"magnetic_variation_deg":"12.549","usageType":"BOTH","power":"HIGH","associated_airport":"USCC"},{"id":"90213","filename":"Lilabari_VOR-DME_IN","ident":"LBR","name":"Lilabari","type":"VOR-DME","frequency_khz":"116500","latitude_deg":"27.291900634765625","longitude_deg":"94.10030364990234","elevation_ft":"330","iso_country":"IN","dme_frequency_khz":"116500","dme_channel":"112X","dme_latitude_deg":null,"dme_longitude_deg":null,"dme_elevation_ft":null,"slaved_variation_deg":"0.011","magnetic_variation_deg":"-0.269","usageType":"BOTH","power":"HIGH","associated_airport":"VELR"},{"id":"90214","filename":"Labrea_NDB_BR","ident":"LBR","name":"Labrea","type":"NDB","frequency_khz":"295","latitude_deg":"-7.250370025634766","longitude_deg":"-64.78389739990234","elevation_ft":null,"iso_country":"BR","dme_frequency_khz":null,"dme_channel":null,"dme_latitude_deg":null,"dme_longitude_deg":null,"dme_elevation_ft":null,"slaved_variation_deg":null,"magnetic_variation_deg":"-10.283","usageType":"LO","power":"MEDIUM","associated_airport":"SWLB"},{"id":"90215","filename":"Lumberton_VOR_US","ident":"LBT","name":"Lumberton","type":"VOR","frequency_khz":"110000","latitude_deg":"34.61069869995117","longitude_deg":"-79.05480194091797","elevation_ft":"126","iso_country":"US","dme_frequency_khz":null,"dme_channel":null,"dme_latitude_deg":null,"dme_longitude_deg":null,"dme_elevation_ft":null,"slaved_variation_deg":"-8.001","magnetic_variation_deg":"-8.098","usageType":"LO","power":"LOW","associated_airport":null},{"id":"90216","filename":"Luburg_VOR-DME_DE","ident":"LBU","name":"Luburg","type":"VOR-DME","frequency_khz":"109200","latitude_deg":"48.91299819946289","longitude_deg":"9.340229988098145","elevation_ft":"1064","iso_country":"DE","dme_frequency_khz":"109200","dme_channel":"029X","dme_latitude_deg":null,"dme_longitude_deg":null,"dme_elevation_ft":null,"slaved_variation_deg":"0.003","magnetic_variation_deg":"1.019","usageType":"LO","power":"MEDIUM","associated_airport":"EDDS"},{"id":"90217","filename":"La_Belle_VORTAC_US","ident":"LBV","name":"La Belle","type":"VORTAC","frequency_khz":"110400","latitude_deg":"26.82819938659668","longitude_deg":"-81.39140319824219","elevation_ft":"30","iso_country":"US","dme_frequency_khz":"110400","dme_channel":"041X","dme_latitude_deg":null,"dme_longitude_deg":null,"dme_elevation_ft":null,"slaved_variation_deg":"1.001","magnetic_variation_deg":"-4.555","usageType":"BOTH","power":"MEDIUM","associated_airport":null},{"id":"90218","filename":"Eaton_VORTAC_US","ident":"LBY","name":"Eaton","type":"VORTAC","frequency_khz":"110600","latitude_deg":"31.418699264526367","longitude_deg":"-89.33760070800781","elevation_ft":"290","iso_country":"US","dme_frequency_khz":"110600","dme_channel":"043X","dme_latitude_deg":null,"dme_longitude_deg":null,"dme_elevation_ft":null,"slaved_variation_deg":"5.001","magnetic_variation_deg":"-0.086","usageType":"LO","power":"MEDIUM","associated_airport":null},{"id":"90219","filename":"Lam_Chau_NDB_HK","ident":"LC","name":"Lam Chau","type":"NDB","frequency_khz":"390","latitude_deg":"22.295299530029297","longitude_deg":"113.8949966430664","elevation_ft":null,"iso_country":"HK","dme_frequency_khz":null,"dme_channel":null,"dme_latitude_deg":null,"dme_longitude_deg":null,"dme_elevation_ft":null,"slaved_variation_deg":null,"magnetic_variation_deg":"-2.131","usageType":"BOTH","power":"HIGH","associated_airport":"VHHH"},{"id":"90220","filename":"Balti_NDB_MD","ident":"LC","name":"Balti","type":"NDB","frequency_khz":"790","latitude_deg":"47.88130187988281","longitude_deg":"27.75","elevation_ft":null,"iso_country":"MD","dme_frequency_khz":null,"dme_channel":null,"dme_latitude_deg":null,"dme_longitude_deg":null,"dme_elevation_ft":null,"slaved_variation_deg":null,"magnetic_variation_deg":"5.093","usageType":"TERMINAL","power":"HIGH","associated_airport":"LUBL"},{"id":"90221","filename":"Lichinga_NDB_MZ","ident":"LC","name":"Lichinga","type":"NDB","frequency_khz":"345","latitude_deg":"-13.284899711608887","longitude_deg":"35.21670150756836","elevation_ft":null,"iso_country":"MZ","dme_frequency_khz":null,"dme_channel":null,"dme_latitude_deg":null,"dme_longitude_deg":null,"dme_elevation_ft":null,"slaved_variation_deg":null,"magnetic_variation_deg":"-5.171","usageType":"BOTH","power":"MEDIUM","associated_airport":"FQLC"},{"id":"90222","filename":"Antonov_NDB_UA","ident":"LC","name":"Antonov","type":"NDB","frequency_khz":"534","latitude_deg":"50.650299072265625","longitude_deg":"30.15399932861328","elevation_ft":null,"iso_country":"UA","dme_frequency_khz":null,"dme_channel":null,"dme_latitude_deg":null,"dme_longitude_deg":null,"dme_elevation_ft":null,"slaved_variation_deg":null,"magnetic_variation_deg":"6.149","usageType":"TERMINAL","power":"LOW","associated_airport":"UKKM"},{"id":"90223","filename":"Keyli_NDB_US","ident":"LC","name":"Keyli","type":"NDB","frequency_khz":"353","latitude_deg":"30.193099975585938","longitude_deg":"-93.26309967041016","elevation_ft":null,"iso_country":"US","dme_frequency_khz":null,"dme_channel":null,"dme_latitude_deg":null,"dme_longitude_deg":null,"dme_elevation_ft":null,"slaved_variation_deg":null,"magnetic_variation_deg":"2.351","usageType":"TERMINAL","power":"LOW","associated_airport":"KLCH"},{"id":"90224","filename":"Pickl_NDB_US","ident":"LC","name":"Pickl","type":"NDB","frequency_khz":"376","latitude_deg":"39.881099700927734","longitude_deg":"-82.83609771728516","elevation_ft":null,"iso_country":"US","dme_frequency_khz":null,"dme_channel":null,"dme_latitude_deg":null,"dme_longitude_deg":null,"dme_elevation_ft":null,"slaved_variation_deg":null,"magnetic_variation_deg":"-6.378","usageType":"TERMINAL","power":"LOW","associated_airport":"KLCK"},{"id":"90225","filename":"Blnap_NDB_US","ident":"LC","name":"Blnap","type":"NDB","frequency_khz":"328","latitude_deg":"43.53670120239258","longitude_deg":"-71.53700256347656","elevation_ft":"740","iso_country":"US","dme_frequency_khz":null,"dme_channel":null,"dme_latitude_deg":null,"dme_longitude_deg":null,"dme_elevation_ft":null,"slaved_variation_deg":null,"magnetic_variation_deg":"-15.337","usageType":"TERMINAL","power":"LOW","associated_airport":null},{"id":"90226","filename":"La_Chatre_VOR_FR","ident":"LCA","name":"La Chatre","type":"VOR","frequency_khz":"112100","latitude_deg":"46.69139862060547","longitude_deg":"2.1495800018310547","elevation_ft":"882","iso_country":"FR","dme_frequency_khz":null,"dme_channel":null,"dme_latitude_deg":null,"dme_longitude_deg":null,"dme_elevation_ft":null,"slaved_variation_deg":"-3.007","magnetic_variation_deg":"-0.563","usageType":"BOTH","power":"HIGH","associated_airport":null},{"id":"90227","filename":"Larnaca_VOR-DME_CY","ident":"LCA","name":"Larnaca","type":"VOR-DME","frequency_khz":"112800","latitude_deg":"34.87329864501953","longitude_deg":"33.62670135498047","elevation_ft":"20","iso_country":"CY","dme_frequency_khz":"112800","dme_channel":"075X","dme_latitude_deg":null,"dme_longitude_deg":null,"dme_elevation_ft":null,"slaved_variation_deg":"3.007","magnetic_variation_deg":"3.56","usageType":"BOTH","power":"HIGH","associated_airport":"LCLK"},{"id":"90228","filename":"Larnaca_NDB_CY","ident":"LCA","name":"Larnaca","type":"NDB","frequency_khz":"432","latitude_deg":"34.82170104980469","longitude_deg":"33.55500030517578","elevation_ft":"8","iso_country":"CY","dme_frequency_khz":null,"dme_channel":null,"dme_latitude_deg":null,"dme_longitude_deg":null,"dme_elevation_ft":null,"slaved_variation_deg":null,"magnetic_variation_deg":"3.554","usageType":"TERMINAL","power":"LOW","associated_airport":"LCLK"},{"id":"90229","filename":"Lecce_VORTAC_IT","ident":"LCC","name":"Lecce","type":"VORTAC","frequency_khz":"112800","latitude_deg":"40.2484016418457","longitude_deg":"18.130699157714844","elevation_ft":"217","iso_country":"IT","dme_frequency_khz":"112800","dme_channel":"075X","dme_latitude_deg":null,"dme_longitude_deg":null,"dme_elevation_ft":null,"slaved_variation_deg":null,"magnetic_variation_deg":"2.405","usageType":"BOTH","power":"HIGH","associated_airport":"LIBN"},{"id":"90230","filename":"Los_Cedros_VOR-DME_CO","ident":"LCE","name":"Los Cedros","type":"VOR-DME","frequency_khz":"112600","latitude_deg":"7.817989826202393","longitude_deg":"-76.7219009399414","elevation_ft":"109","iso_country":"CO","dme_frequency_khz":"112600","dme_channel":"073X","dme_latitude_deg":null,"dme_longitude_deg":null,"dme_elevation_ft":null,"slaved_variation_deg":"-3.007","magnetic_variation_deg":"-4.245","usageType":"BOTH","power":"HIGH","associated_airport":"SKLC"},{"id":"90231","filename":"La_Ceiba_NDB-DME_HN","ident":"LCE","name":"La Ceiba","type":"NDB-DME","frequency_khz":"227","latitude_deg":"15.738200187683105","longitude_deg":"-86.8905029296875","elevation_ft":"49","iso_country":"HN","dme_frequency_khz":"111700","dme_channel":"054X","dme_latitude_deg":null,"dme_longitude_deg":null,"dme_elevation_ft":null,"slaved_variation_deg":null,"magnetic_variation_deg":"0.279","usageType":"BOTH","power":"MEDIUM","associated_airport":"MHLC"},{"id":"90232","filename":"Wayne_NDB_US","ident":"LCG","name":"Wayne","type":"NDB","frequency_khz":"389","latitude_deg":"42.24259948730469","longitude_deg":"-96.98370361328125","elevation_ft":"1424","iso_country":"US","dme_frequency_khz":null,"dme_channel":null,"dme_latitude_deg":null,"dme_longitude_deg":null,"dme_elevation_ft":null,"slaved_variation_deg":null,"magnetic_variation_deg":"4.338","usageType":"TERMINAL","power":"LOW","associated_airport":null},{"id":"90233","filename":"Lake_Charles_VORTAC_US","ident":"LCH","name":"Lake Charles","type":"VORTAC","frequency_khz":"113400","latitude_deg":"30.14150047302246","longitude_deg":"-93.10559844970703","elevation_ft":"20","iso_country":"US","dme_frequency_khz":"113400","dme_channel":"081X","dme_latitude_deg":null,"dme_longitude_deg":null,"dme_elevation_ft":null,"slaved_variation_deg":"7.001","magnetic_variation_deg":"2.293","usageType":"BOTH","power":"HIGH","associated_airport":"KLCH"},{"id":"90234","filename":"Lechfeld_TACAN_DE","ident":"LCH","name":"Lechfeld","type":"TACAN","frequency_khz":"108800","latitude_deg":"48.19049835205078","longitude_deg":"10.859000205993652","elevation_ft":"1838","iso_country":"DE","dme_frequency_khz":"108800","dme_channel":"025X","dme_latitude_deg":null,"dme_longitude_deg":null,"dme_elevation_ft":null,"slaved_variation_deg":"0.007","magnetic_variation_deg":"1.273","usageType":"BOTH","power":"HIGH","associated_airport":"ETSL"},{"id":"90235","filename":"Longchang_VOR-DME_CN","ident":"LCH","name":"Longchang","type":"VOR-DME","frequency_khz":"117600","latitude_deg":"40.861698150634766","longitude_deg":"123.13300323486328","elevation_ft":"213","iso_country":"CN","dme_frequency_khz":"117600","dme_channel":"123X","dme_latitude_deg":null,"dme_longitude_deg":null,"dme_elevation_ft":null,"slaved_variation_deg":null,"magnetic_variation_deg":"-8.129","usageType":"BOTH","power":"HIGH","associated_airport":null},{"id":"90236","filename":"Rickenbacker_TACAN_US","ident":"LCK","name":"Rickenbacker","type":"TACAN","frequency_khz":"134200","latitude_deg":"39.80820083618164","longitude_deg":"-82.92880249023438","elevation_ft":"732","iso_country":"US","dme_frequency_khz":"134200","dme_channel":"069X","dme_latitude_deg":null,"dme_longitude_deg":null,"dme_elevation_ft":null,"slaved_variation_deg":"-5.001","magnetic_variation_deg":"-6.322","usageType":"BOTH","power":"LOW","associated_airport":"KLCK"},{"id":"90237","filename":"Lake_City_NDB_US","ident":"LCQ","name":"Lake City","type":"NDB","frequency_khz":"204","latitude_deg":"30.185300827026367","longitude_deg":"-82.57859802246094","elevation_ft":"200","iso_country":"US","dme_frequency_khz":null,"dme_channel":null,"dme_latitude_deg":null,"dme_longitude_deg":null,"dme_elevation_ft":null,"slaved_variation_deg":null,"magnetic_variation_deg":"-4.442","usageType":"TERMINAL","power":"LOW","associated_airport":"2FD0"},{"id":"90238","filename":"Lucin_VORTAC_US","ident":"LCU","name":"Lucin","type":"VORTAC","frequency_khz":"113600","latitude_deg":"41.362998962402344","longitude_deg":"-113.84100341796875","elevation_ft":"4400","iso_country":"US","dme_frequency_khz":"113600","dme_channel":"083X","dme_latitude_deg":null,"dme_longitude_deg":null,"dme_elevation_ft":null,"slaved_variation_deg":"17.001","magnetic_variation_deg":"13.384","usageType":"BOTH","power":"HIGH","associated_airport":"02UT"},{"id":"90239","filename":"City_NDB_GB","ident":"LCY","name":"City","type":"NDB","frequency_khz":"322","latitude_deg":"51.50429916381836","longitude_deg":"0.06750299781560898","elevation_ft":null,"iso_country":"GB","dme_frequency_khz":null,"dme_channel":null,"dme_latitude_deg":null,"dme_longitude_deg":null,"dme_elevation_ft":null,"slaved_variation_deg":null,"magnetic_variation_deg":"-2.125","usageType":"TERMINAL","power":"LOW","associated_airport":"EGLC"},{"id":"90240","filename":"Logan_County_NDB_US","ident":"LCY","name":"Logan County","type":"NDB","frequency_khz":"326","latitude_deg":"35.84560012817383","longitude_deg":"-97.41580200195312","elevation_ft":"1074","iso_country":"US","dme_frequency_khz":null,"dme_channel":null,"dme_latitude_deg":null,"dme_longitude_deg":null,"dme_elevation_ft":null,"slaved_variation_deg":null,"magnetic_variation_deg":"5.007","usageType":"TERMINAL","power":"LOW","associated_airport":null},{"id":"90241","filename":"Murcia_San_Javier_NDB_ES","ident":"LCZ","name":"Murcia/San Javier","type":"NDB","frequency_khz":"381","latitude_deg":"37.676300048828125","longitude_deg":"-0.9392780065536499","elevation_ft":null,"iso_country":"ES","dme_frequency_khz":null,"dme_channel":null,"dme_latitude_deg":null,"dme_longitude_deg":null,"dme_elevation_ft":null,"slaved_variation_deg":null,"magnetic_variation_deg":"-1.19","usageType":"LO","power":"MEDIUM","associated_airport":"LELC"},{"id":"90242","filename":"Ludhiana_NDB_IN","ident":"LD","name":"Ludhiana","type":"NDB","frequency_khz":"380","latitude_deg":"30.859500885009766","longitude_deg":"75.9646987915039","elevation_ft":null,"iso_country":"IN","dme_frequency_khz":null,"dme_channel":null,"dme_latitude_deg":null,"dme_longitude_deg":null,"dme_elevation_ft":null,"slaved_variation_deg":null,"magnetic_variation_deg":"1.123","usageType":"BOTH","power":"MEDIUM","associated_airport":"VILD"},{"id":"90243","filename":"Krasnodar_NDB_RU","ident":"LD","name":"Krasnodar","type":"NDB","frequency_khz":"493","latitude_deg":"45.064998626708984","longitude_deg":"39.246700286865234","elevation_ft":null,"iso_country":"RU","dme_frequency_khz":null,"dme_channel":null,"dme_latitude_deg":null,"dme_longitude_deg":null,"dme_elevation_ft":null,"slaved_variation_deg":null,"magnetic_variation_deg":"6.149","usageType":"TERMINAL","power":"MEDIUM","associated_airport":"URKK"},{"id":"90244","filename":"Lubbi_NDB_US","ident":"LD","name":"Lubbi","type":"NDB","frequency_khz":"272","latitude_deg":"33.662601470947266","longitude_deg":"-101.7229995727539","elevation_ft":"3197","iso_country":"US","dme_frequency_khz":null,"dme_channel":null,"dme_latitude_deg":null,"dme_longitude_deg":null,"dme_elevation_ft":null,"slaved_variation_deg":null,"magnetic_variation_deg":"7.26","usageType":"TERMINAL","power":"MEDIUM","associated_airport":"KLBB"},{"id":"90245","filename":"Lamidada_NDB_NP","ident":"LDA","name":"Lamidada","type":"NDB","frequency_khz":"236","latitude_deg":"27.253299713134766","longitude_deg":"86.6707992553711","elevation_ft":null,"iso_country":"NP","dme_frequency_khz":null,"dme_channel":null,"dme_latitude_deg":null,"dme_longitude_deg":null,"dme_elevation_ft":null,"slaved_variation_deg":null,"magnetic_variation_deg":"-0.002","usageType":"BOTH","power":"LOW","associated_airport":"VNLD"},{"id":"90246","filename":"Crimson_VORTAC_US","ident":"LDK","name":"Crimson","type":"VORTAC","frequency_khz":"117800","latitude_deg":"33.2588996887207","longitude_deg":"-87.53690338134766","elevation_ft":"370","iso_country":"US","dme_frequency_khz":"117800","dme_channel":"125X","dme_latitude_deg":null,"dme_longitude_deg":null,"dme_elevation_ft":null,"slaved_variation_deg":"3.001","magnetic_variation_deg":"-1.416","usageType":"LO","power":"MEDIUM","associated_airport":"KTCL"},{"id":"90247","filename":"Ludington_NDB_US","ident":"LDM","name":"Ludington","type":"NDB","frequency_khz":"341","latitude_deg":"43.963199615478516","longitude_deg":"-86.40950012207031","elevation_ft":null,"iso_country":"US","dme_frequency_khz":null,"dme_channel":null,"dme_latitude_deg":null,"dme_longitude_deg":null,"dme_elevation_ft":null,"slaved_variation_deg":null,"magnetic_variation_deg":"-4.411","usageType":"TERMINAL","power":"LOW","associated_airport":null},{"id":"90248","filename":"Linden_VORTAC_US","ident":"LDN","name":"Linden","type":"VORTAC","frequency_khz":"114300","latitude_deg":"38.854400634765625","longitude_deg":"-78.20559692382812","elevation_ft":"2440","iso_country":"US","dme_frequency_khz":"114300","dme_channel":"090X","dme_latitude_deg":null,"dme_longitude_deg":null,"dme_elevation_ft":null,"slaved_variation_deg":"-6.001","magnetic_variation_deg":"-9.514","usageType":"BOTH","power":"MEDIUM","associated_airport":null},{"id":"90249","filename":"La_Divina_Pastora_VOR-DME_VE","ident":"LDP","name":"La Divina Pastora","type":"VOR-DME","frequency_khz":"117700","latitude_deg":"4.692780017852783","longitude_deg":"-61.0275993347168","elevation_ft":"618","iso_country":"VE","dme_frequency_khz":"117700","dme_channel":"124X","dme_latitude_deg":null,"dme_longitude_deg":null,"dme_elevation_ft":null,"slaved_variation_deg":"-13.007","magnetic_variation_deg":"-14.078","usageType":"BOTH","power":"HIGH","associated_airport":null},{"id":"90250","filename":"La_Divina_Pastora_NDB_VE","ident":"LDP","name":"La Divina Pastora","type":"NDB","frequency_khz":"245","latitude_deg":"4.697500228881836","longitude_deg":"-61.027801513671875","elevation_ft":null,"iso_country":"VE","dme_frequency_khz":null,"dme_channel":null,"dme_latitude_deg":null,"dme_longitude_deg":null,"dme_elevation_ft":null,"slaved_variation_deg":null,"magnetic_variation_deg":"-14.088","usageType":"LO","power":"MEDIUM","associated_airport":null},{"id":"90251","filename":"Villa_Dolores_NDB_AR","ident":"LDR","name":"Villa Dolores","type":"NDB","frequency_khz":"310","latitude_deg":"-31.952800750732422","longitude_deg":"-65.14250183105469","elevation_ft":"1915","iso_country":"AR","dme_frequency_khz":null,"dme_channel":null,"dme_latitude_deg":null,"dme_longitude_deg":null,"dme_elevation_ft":null,"slaved_variation_deg":null,"magnetic_variation_deg":"-2.18","usageType":"HI","power":"HIGH","associated_airport":"SAOD"},{"id":"90252","filename":"Curbelo_VOR-DME_UY","ident":"LDS","name":"Curbelo","type":"VOR-DME","frequency_khz":"117600","latitude_deg":"-34.858299255371094","longitude_deg":"-55.09170150756836","elevation_ft":"98","iso_country":"UY","dme_frequency_khz":"117600","dme_channel":"123X","dme_latitude_deg":null,"dme_longitude_deg":null,"dme_elevation_ft":null,"slaved_variation_deg":"-7.007","magnetic_variation_deg":"-9.458","usageType":"BOTH","power":"HIGH","associated_airport":"SULS"},{"id":"90253","filename":"Leeds_NDB_US","ident":"LDS","name":"Leeds","type":"NDB","frequency_khz":"389","latitude_deg":"48.5453987121582","longitude_deg":"-109.69000244140625","elevation_ft":"2547","iso_country":"US","dme_frequency_khz":null,"dme_channel":null,"dme_latitude_deg":null,"dme_longitude_deg":null,"dme_elevation_ft":null,"slaved_variation_deg":null,"magnetic_variation_deg":"13.267","usageType":"TERMINAL","power":"LOW","associated_airport":"KHVR"},{"id":"90254","filename":"Landivisiau_TACAN_FR","ident":"LDV","name":"Landivisiau","type":"TACAN","frequency_khz":"115150","latitude_deg":"48.52830123901367","longitude_deg":"-4.156310081481934","elevation_ft":"364","iso_country":"FR","dme_frequency_khz":"115150","dme_channel":"098Y","dme_latitude_deg":null,"dme_longitude_deg":null,"dme_elevation_ft":null,"slaved_variation_deg":"-6.007","magnetic_variation_deg":"-3.189","usageType":"BOTH","power":"HIGH","associated_airport":"LFRJ"},{"id":"90255","filename":"Lydd_DME_GB","ident":"LDY","name":"Lydd","type":"DME","frequency_khz":"108150","latitude_deg":"50.95920181274414","longitude_deg":"0.9374769926071167","elevation_ft":"28","iso_country":"GB","dme_frequency_khz":"108150","dme_channel":"018Y","dme_latitude_deg":null,"dme_longitude_deg":null,"dme_elevation_ft":null,"slaved_variation_deg":null,"magnetic_variation_deg":"-1.488","usageType":"TERMINAL","power":"LOW","associated_airport":null},{"id":"90256","filename":"Lodz_VOR-DME_PL","ident":"LDZ","name":"Lodz","type":"VOR-DME","frequency_khz":"112400","latitude_deg":"51.80009841918945","longitude_deg":"19.656099319458008","elevation_ft":"787","iso_country":"PL","dme_frequency_khz":"112400","dme_channel":"071X","dme_latitude_deg":null,"dme_longitude_deg":null,"dme_elevation_ft":null,"slaved_variation_deg":"2.007","magnetic_variation_deg":"3.547","usageType":"BOTH","power":"HIGH","associated_airport":"EPLL"},{"id":"90257","filename":"Ndele_VOR_CF","ident":"LE","name":"Ndele","type":"VOR","frequency_khz":"113100","latitude_deg":"8.397109985351562","longitude_deg":"20.68589973449707","elevation_ft":"1647","iso_country":"CF","dme_frequency_khz":null,"dme_channel":null,"dme_latitude_deg":null,"dme_longitude_deg":null,"dme_elevation_ft":null,"slaved_variation_deg":null,"magnetic_variation_deg":"0.278","usageType":"BOTH","power":"LOW","associated_airport":"FEFN"},{"id":"90258","filename":"Lubumbashi_NDB_CD","ident":"LE","name":"Lubumbashi","type":"NDB","frequency_khz":"285","latitude_deg":"-11.59469985961914","longitude_deg":"27.54129981994629","elevation_ft":null,"iso_country":"CD","dme_frequency_khz":null,"dme_channel":null,"dme_latitude_deg":null,"dme_longitude_deg":null,"dme_elevation_ft":null,"slaved_variation_deg":null,"magnetic_variation_deg":"-3.239","usageType":"TERMINAL","power":"MEDIUM","associated_airport":"FZQA"},{"id":"90259","filename":"Biysk_NDB_RU","ident":"LE","name":"Biysk","type":"NDB","frequency_khz":"375","latitude_deg":"52.46670150756836","longitude_deg":"85.38330078125","elevation_ft":null,"iso_country":"RU","dme_frequency_khz":null,"dme_channel":null,"dme_latitude_deg":null,"dme_longitude_deg":null,"dme_elevation_ft":null,"slaved_variation_deg":null,"magnetic_variation_deg":"6.278","usageType":"BOTH","power":"HIGH","associated_airport":null},{"id":"90260","filename":"Leicester_NDB_GB","ident":"LE","name":"Leicester","type":"NDB","frequency_khz":"384","latitude_deg":"52.60639953613281","longitude_deg":"-1.034999966621399","elevation_ft":null,"iso_country":"GB","dme_frequency_khz":null,"dme_channel":null,"dme_latitude_deg":null,"dme_longitude_deg":null,"dme_elevation_ft":null,"slaved_variation_deg":null,"magnetic_variation_deg":"-2.482","usageType":"TERMINAL","power":"LOW","associated_airport":"EGBG"},{"id":"90261","filename":"Lesnik_NDB_UA","ident":"LE","name":"Lesnik","type":"NDB","frequency_khz":"395","latitude_deg":"44.833099365234375","longitude_deg":"34.2484016418457","elevation_ft":null,"iso_country":"UA","dme_frequency_khz":null,"dme_channel":null,"dme_latitude_deg":null,"dme_longitude_deg":null,"dme_elevation_ft":null,"slaved_variation_deg":null,"magnetic_variation_deg":"5.366","usageType":"TERMINAL","power":"HIGH","associated_airport":null},{"id":"90262","filename":"Blayd_NDB_US","ident":"LE","name":"Blayd","type":"NDB","frequency_khz":"242","latitude_deg":"37.98699951171875","longitude_deg":"-84.6604995727539","elevation_ft":null,"iso_country":"US","dme_frequency_khz":null,"dme_channel":null,"dme_latitude_deg":null,"dme_longitude_deg":null,"dme_elevation_ft":null,"slaved_variation_deg":null,"magnetic_variation_deg":"-4.437","usageType":"TERMINAL","power":"LOW","associated_airport":"KLEX"},{"id":"90263","filename":"Lewie_NDB_US","ident":"LE","name":"Lewie","type":"NDB","frequency_khz":"240","latitude_deg":"43.96229934692383","longitude_deg":"-70.33799743652344","elevation_ft":"323","iso_country":"US","dme_frequency_khz":null,"dme_channel":null,"dme_latitude_deg":null,"dme_longitude_deg":null,"dme_elevation_ft":null,"slaved_variation_deg":null,"magnetic_variation_deg":"-16.189","usageType":"LO","power":"LOW","associated_airport":null},{"id":"90264","filename":"Leevy_NDB_US","ident":"LE","name":"Leevy","type":"NDB","frequency_khz":"350","latitude_deg":"35.92720031738281","longitude_deg":"-78.7219009399414","elevation_ft":"500","iso_country":"US","dme_frequency_khz":null,"dme_channel":null,"dme_latitude_deg":null,"dme_longitude_deg":null,"dme_elevation_ft":null,"slaved_variation_deg":null,"magnetic_variation_deg":"-8.429","usageType":"TERMINAL","power":"MEDIUM","associated_airport":null},{"id":"90265","filename":"Lusaka_NDB_ZM","ident":"LE","name":"Lusaka","type":"NDB","frequency_khz":"325","latitude_deg":"-15.338000297546387","longitude_deg":"28.533199310302734","elevation_ft":null,"iso_country":"ZM","dme_frequency_khz":null,"dme_channel":null,"dme_latitude_deg":null,"dme_longitude_deg":null,"dme_elevation_ft":null,"slaved_variation_deg":null,"magnetic_variation_deg":"-5.505","usageType":"BOTH","power":"MEDIUM","associated_airport":"FLLS"},{"id":"90266","filename":"Luepa_NDB_VE","ident":"LEA","name":"Luepa","type":"NDB","frequency_khz":"286","latitude_deg":"5.816669940948486","longitude_deg":"-61.483299255371094","elevation_ft":null,"iso_country":"VE","dme_frequency_khz":null,"dme_channel":null,"dme_latitude_deg":null,"dme_longitude_deg":null,"dme_elevation_ft":null,"slaved_variation_deg":null,"magnetic_variation_deg":"-13.561","usageType":"BOTH","power":"MEDIUM","associated_airport":"SVPP"},{"id":"90267","filename":"Lebanon_VOR-DME_US","ident":"LEB","name":"Lebanon","type":"VOR-DME","frequency_khz":"113700","latitude_deg":"43.67890167236328","longitude_deg":"-72.21610260009766","elevation_ft":"1460","iso_country":"US","dme_frequency_khz":"113700","dme_channel":"084X","dme_latitude_deg":"43.6792","dme_longitude_deg":"-72.2151","dme_elevation_ft":"1460","slaved_variation_deg":"-15.001","magnetic_variation_deg":"-15.154","usageType":"LO","power":"MEDIUM","associated_airport":"KLEB"},{"id":"90268","filename":"Leigh_Creek_VOR_AU","ident":"LEC","name":"Leigh Creek","type":"VOR","frequency_khz":"117800","latitude_deg":"-30.596399307250977","longitude_deg":"138.4290008544922","elevation_ft":"856","iso_country":"AU","dme_frequency_khz":null,"dme_channel":null,"dme_latitude_deg":null,"dme_longitude_deg":null,"dme_elevation_ft":null,"slaved_variation_deg":"7.007","magnetic_variation_deg":"7.212","usageType":"BOTH","power":"HIGH","associated_airport":"YLEC"},{"id":"90269","filename":"Leigh_Creek_NDB_AU","ident":"LEC","name":"Leigh Creek","type":"NDB","frequency_khz":"287","latitude_deg":"-30.598600387573242","longitude_deg":"138.44200134277344","elevation_ft":null,"iso_country":"AU","dme_frequency_khz":null,"dme_channel":null,"dme_latitude_deg":null,"dme_longitude_deg":null,"dme_elevation_ft":null,"slaved_variation_deg":null,"magnetic_variation_deg":"7.215","usageType":"BOTH","power":"HIGH","associated_airport":"YLEC"},{"id":"90270","filename":"Leipzig_South_DME_DE","ident":"LED","name":"Leipzig South","type":"DME","frequency_khz":"112150","latitude_deg":"51.41130065917969","longitude_deg":"12.223799705505371","elevation_ft":"502","iso_country":"DE","dme_frequency_khz":"112150","dme_channel":"058Y","dme_latitude_deg":null,"dme_longitude_deg":null,"dme_elevation_ft":null,"slaved_variation_deg":null,"magnetic_variation_deg":"1.493","usageType":"TERMINAL","power":"LOW","associated_airport":"EDDP"},{"id":"90271","filename":"Leeming_TACAN_GB","ident":"LEE","name":"Leeming","type":"TACAN","frequency_khz":"112600","latitude_deg":"54.29710006713867","longitude_deg":"-1.536870002746582","elevation_ft":"92","iso_country":"GB","dme_frequency_khz":"112600","dme_channel":"073X","dme_latitude_deg":null,"dme_longitude_deg":null,"dme_elevation_ft":null,"slaved_variation_deg":null,"magnetic_variation_deg":"-3.185","usageType":"HI","power":"LOW","associated_airport":"EGXE"},{"id":"90272","filename":"Leesburg_NDB_US","ident":"LEE","name":"Leesburg","type":"NDB","frequency_khz":"335","latitude_deg":"28.818199157714844","longitude_deg":"-81.80729675292969","elevation_ft":"125","iso_country":"US","dme_frequency_khz":null,"dme_channel":null,"dme_latitude_deg":null,"dme_longitude_deg":null,"dme_elevation_ft":null,"slaved_variation_deg":null,"magnetic_variation_deg":"-5.024","usageType":"LO","power":"LOW","associated_airport":null},{"id":"90273","filename":"Leipzig_VOR-DME_DE","ident":"LEG","name":"Leipzig","type":"VOR-DME","frequency_khz":"115850","latitude_deg":"51.43600082397461","longitude_deg":"12.473199844360352","elevation_ft":"486","iso_country":"DE","dme_frequency_khz":"115850","dme_channel":"105Y","dme_latitude_deg":null,"dme_longitude_deg":null,"dme_elevation_ft":null,"slaved_variation_deg":"1.001","magnetic_variation_deg":"1.537","usageType":"BOTH","power":"HIGH","associated_airport":"EDDP"},{"id":"90274","filename":"Leh_VOR-DME_IN","ident":"LEH","name":"Leh","type":"VOR-DME","frequency_khz":"115700","latitude_deg":"34.7327995300293","longitude_deg":"77.56639862060547","elevation_ft":"3282","iso_country":"IN","dme_frequency_khz":"115700","dme_channel":"104X","dme_latitude_deg":null,"dme_longitude_deg":null,"dme_elevation_ft":null,"slaved_variation_deg":"2.011","magnetic_variation_deg":"2.001","usageType":"BOTH","power":"MEDIUM","associated_airport":"VILH"},{"id":"90275","filename":"Lemmon_VOR_US","ident":"LEM","name":"Lemmon","type":"VOR","frequency_khz":"111400","latitude_deg":"45.919700622558594","longitude_deg":"-102.10399627685547","elevation_ft":"2570","iso_country":"US","dme_frequency_khz":null,"dme_channel":null,"dme_latitude_deg":null,"dme_longitude_deg":null,"dme_elevation_ft":null,"slaved_variation_deg":"13.001","magnetic_variation_deg":"8.209","usageType":"TERMINAL","power":"LOW","associated_airport":null},{"id":"90276","filename":"Bandar_Lengeh_VOR-DME_IR","ident":"LEN","name":"Bandar Lengeh","type":"VOR-DME","frequency_khz":"114800","latitude_deg":"26.536100387573242","longitude_deg":"54.851200103759766","elevation_ft":"62","iso_country":"IR","dme_frequency_khz":"114800","dme_channel":"095X","dme_latitude_deg":null,"dme_longitude_deg":null,"dme_elevation_ft":null,"slaved_variation_deg":"1.001","magnetic_variation_deg":"1.466","usageType":"BOTH","power":"HIGH","associated_airport":"OIBL"},{"id":"90277","filename":"Lencois_NDB_BR","ident":"LEN","name":"Lencois","type":"NDB","frequency_khz":"235","latitude_deg":"-12.485699653625488","longitude_deg":"-41.27560043334961","elevation_ft":null,"iso_country":"BR","dme_frequency_khz":null,"dme_channel":null,"dme_latitude_deg":null,"dme_longitude_deg":null,"dme_elevation_ft":null,"slaved_variation_deg":null,"magnetic_variation_deg":"-22.344","usageType":"TERMINAL","power":"MEDIUM","associated_airport":"SBLE"},{"id":"90278","filename":"Bandar_Lengeh_NDB_IR","ident":"LEN","name":"Bandar Lengeh","type":"NDB","frequency_khz":"408","latitude_deg":"26.537599563598633","longitude_deg":"54.86119842529297","elevation_ft":"15","iso_country":"IR","dme_frequency_khz":null,"dme_channel":null,"dme_latitude_deg":null,"dme_longitude_deg":null,"dme_elevation_ft":null,"slaved_variation_deg":null,"magnetic_variation_deg":"1.465","usageType":"BOTH","power":"HIGH","associated_airport":"OIBL"},{"id":"90279","filename":"Leon_NDB_ES","ident":"LEN","name":"Leon","type":"NDB","frequency_khz":"330","latitude_deg":"42.58660125732422","longitude_deg":"-5.648059844970703","elevation_ft":null,"iso_country":"ES","dme_frequency_khz":null,"dme_channel":null,"dme_latitude_deg":null,"dme_longitude_deg":null,"dme_elevation_ft":null,"slaved_variation_deg":null,"magnetic_variation_deg":"-3.051","usageType":"BOTH","power":"MEDIUM","associated_airport":"LELN"},