[{"id":"532069","ident":"BR-1898","type":"small_airport","name":"Pastoreio Airport","latitude_deg":"-33.185828","longitude_deg":"-52.999231","elevation_ft":"98","continent":"SA","iso_country":"BR","iso_region":"BR-RS","municipality":"Santa Vitória do Palmar","scheduled_service":"no","icao_code":null,"iata_code":null,"gps_code":"SIQ9","local_code":"RS0207","home_link":null,"wikipedia_link":null,"keywords":null},{"id":"533019","ident":"BR-1899","type":"heliport","name":"MS Maragogi Heliport","latitude_deg":"-9.023025","longitude_deg":"-35.225023","elevation_ft":"30","continent":"SA","iso_country":"BR","iso_region":"BR-AL","municipality":"Maragogi","scheduled_service":"no","icao_code":null,"iata_code":null,"gps_code":"SSEO","local_code":"AL0020","home_link":null,"wikipedia_link":null,"keywords":null},{"id":"533824","ident":"BR-1900","type":"small_airport","name":"PCH Rio Claro Airport","latitude_deg":"-13.788961","longitude_deg":"-56.689408","elevation_ft":"1184","continent":"SA","iso_country":"BR","iso_region":"BR-MT","municipality":"São José do Rio Claro","scheduled_service":"no","icao_code":null,"iata_code":null,"gps_code":"SN8J","local_code":"MT0595","home_link":null,"wikipedia_link":null,"keywords":"Usina Jacutinga"},{"id":"534195","ident":"BR-1901","type":"heliport","name":"Boa Vista Heliport","latitude_deg":"-19.053825","longitude_deg":"-43.421217","elevation_ft":"2992","continent":"SA","iso_country":"BR","iso_region":"BR-GO","municipality":"Conceição do Mato Dentro","scheduled_service":"no","icao_code":null,"iata_code":null,"gps_code":"SJ9O","local_code":"MG0609","home_link":null,"wikipedia_link":null,"keywords":null},{"id":"534764","ident":"BR-1902","type":"small_airport","name":"Gold Bravo Airstrip","latitude_deg":"-5.793699","longitude_deg":"-57.051865","elevation_ft":"722","continent":"SA","iso_country":"BR","iso_region":"BR-PA","municipality":"Itaituba","scheduled_service":"no","icao_code":null,"iata_code":null,"gps_code":"SWXP","local_code":"PA0377","home_link":null,"wikipedia_link":null,"keywords":null},{"id":"534948","ident":"BR-1903","type":"small_airport","name":"Fazenda Sol Nascente Airstrip","latitude_deg":"-5.490195","longitude_deg":"-57.214889","elevation_ft":"652","continent":"SA","iso_country":"BR","iso_region":"BR-PA","municipality":"Itaituba","scheduled_service":"no","icao_code":null,"iata_code":null,"gps_code":"SD04","local_code":"PA0386","home_link":null,"wikipedia_link":null,"keywords":null},{"id":"535290","ident":"BR-1904","type":"small_airport","name":"Fazenda Coperbrás Airport","latitude_deg":"-15.751462","longitude_deg":"-47.545041","elevation_ft":"3304","continent":"SA","iso_country":"BR","iso_region":"BR-DF","municipality":"Brasília","scheduled_service":"no","icao_code":null,"iata_code":null,"gps_code":"SJXU","local_code":"DF0006","home_link":null,"wikipedia_link":null,"keywords":null},{"id":"535298","ident":"BR-1905","type":"small_airport","name":"Fazenda Reunidas Pedreira Airstrip","latitude_deg":"-17.240707","longitude_deg":"-51.494742","elevation_ft":"2867","continent":"SA","iso_country":"BR","iso_region":"BR-GO","municipality":"Caiapônia","scheduled_service":"no","icao_code":null,"iata_code":null,"gps_code":null,"local_code":"GO0080","home_link":null,"wikipedia_link":null,"keywords":"SJLG"},{"id":"541323","ident":"BR-1906","type":"small_airport","name":"Fazenda Santa Felicidade Airport","latitude_deg":"-11.816111","longitude_deg":"-54.875556","elevation_ft":"1194","continent":"SA","iso_country":"BR","iso_region":"BR-MT","municipality":"Santa Carmem","scheduled_service":"no","icao_code":null,"iata_code":null,"gps_code":"SIW9","local_code":"MT1034","home_link":null,"wikipedia_link":null,"keywords":null},{"id":"544156","ident":"BR-1907","type":"small_airport","name":"Fazenda Vale do Marapé Airport","latitude_deg":"-12.901972","longitude_deg":"-56.736653","elevation_ft":"994","continent":"SA","iso_country":"BR","iso_region":"BR-MT","municipality":"Nova Mutum","scheduled_service":"no","icao_code":null,"iata_code":null,"gps_code":"SIX9","local_code":"MT1035","home_link":null,"wikipedia_link":null,"keywords":null},{"id":"544633","ident":"BR-1908","type":"heliport","name":"Itaú - Data Center Mogi Mirim Heliport","latitude_deg":"-22.49094","longitude_deg":"-46.974564","elevation_ft":"2277","continent":"SA","iso_country":"BR","iso_region":"BR-SP","municipality":"Moji-Mirim","scheduled_service":"no","icao_code":null,"iata_code":null,"gps_code":"SWID","local_code":"SP0813","home_link":null,"wikipedia_link":null,"keywords":null},{"id":"544649","ident":"BR-1909","type":"heliport","name":"Igarashi 3 Helipad","latitude_deg":"-15.181389","longitude_deg":"-47.591944","elevation_ft":"4035","continent":"SA","iso_country":"BR","iso_region":"BR-GO","municipality":"Planaltina","scheduled_service":"no","icao_code":null,"iata_code":null,"gps_code":"SWIG","local_code":"GO0176","home_link":null,"wikipedia_link":null,"keywords":null},{"id":"547659","ident":"BR-1910","type":"small_airport","name":"Fazenda Progresso Airstrip","latitude_deg":"-8.892894","longitude_deg":"-49.351772","elevation_ft":"681","continent":"SA","iso_country":"BR","iso_region":"BR-TO","municipality":"Araguacema","scheduled_service":"no","icao_code":null,"iata_code":null,"gps_code":"SIM6","local_code":"TO0135","home_link":null,"wikipedia_link":null,"keywords":null},{"id":"547813","ident":"BR-1911","type":"small_airport","name":"Fazenda Mustang II Airport","latitude_deg":"-9.245278","longitude_deg":"-63.556667","elevation_ft":"315","continent":"SA","iso_country":"BR","iso_region":"BR-RO","municipality":"Candeias do Jamari","scheduled_service":"no","icao_code":null,"iata_code":null,"gps_code":"SWLM","local_code":"RO0031","home_link":null,"wikipedia_link":null,"keywords":null},{"id":"548439","ident":"BR-1912","type":"small_airport","name":"Fazenda Triunfo Airport","latitude_deg":"-17.6382","longitude_deg":"-54.0787","elevation_ft":"1923","continent":"SA","iso_country":"BR","iso_region":"BR-MS","municipality":"Sonora","scheduled_service":"no","icao_code":null,"iata_code":null,"gps_code":"SIMP","local_code":"MS0489","home_link":null,"wikipedia_link":null,"keywords":null},{"id":"552876","ident":"BR-1913","type":"small_airport","name":"Coopersantafé Airstrip","latitude_deg":"-14.664017","longitude_deg":"-45.376125","elevation_ft":"2737","continent":"SA","iso_country":"BR","iso_region":"BR-BA","municipality":"Cocos","scheduled_service":"no","icao_code":null,"iata_code":null,"gps_code":"SN92","local_code":"BA0467","home_link":null,"wikipedia_link":null,"keywords":null},{"id":"552879","ident":"BR-1914","type":"heliport","name":"Fazenda Guararemas Heliport","latitude_deg":"-22.321192","longitude_deg":"-43.281383","elevation_ft":"2772","continent":"SA","iso_country":"BR","iso_region":"BR-RJ","municipality":"Paraíba do Sul","scheduled_service":"no","icao_code":null,"iata_code":null,"gps_code":"SN93","local_code":"RJ0391","home_link":null,"wikipedia_link":null,"keywords":null},{"id":"555394","ident":"BR-1916","type":"small_airport","name":"Aldeia Rio Vermelho (Krénhêdjã) Airstrip","latitude_deg":"-7.661146","longitude_deg":"-51.619498","elevation_ft":"791","continent":"SA","iso_country":"BR","iso_region":"BR-PA","municipality":"Ourilândia do Norte","scheduled_service":"no","icao_code":null,"iata_code":null,"gps_code":"SWKH","local_code":"PA0143","home_link":null,"wikipedia_link":null,"keywords":null},{"id":"552680","ident":"BR-1917","type":"heliport","name":"Fazenda Santa Cruz Heliport","latitude_deg":"-23.1056","longitude_deg":"-46.626881","elevation_ft":"2526","continent":"SA","iso_country":"BR","iso_region":"BR-SP","municipality":"Atibaia","scheduled_service":"no","icao_code":null,"iata_code":null,"gps_code":"SN9R","local_code":"SP1469","home_link":null,"wikipedia_link":null,"keywords":null},{"id":"565803","ident":"BR-1918","type":"heliport","name":"Helicentro CGRANZA Heliport","latitude_deg":"-26.993752","longitude_deg":"-48.663776","elevation_ft":"125","continent":"SA","iso_country":"BR","iso_region":"BR-SC","municipality":"Camboriú","scheduled_service":"no","icao_code":null,"iata_code":null,"gps_code":"SD7V","local_code":"SC0228","home_link":null,"wikipedia_link":null,"keywords":null},{"id":"565806","ident":"BR-1919","type":"heliport","name":"Bon Voyage Heliport","latitude_deg":"-26.760776","longitude_deg":"-49.174032","elevation_ft":"194","continent":"SA","iso_country":"BR","iso_region":"BR-SC","municipality":"Pomerode","scheduled_service":"no","icao_code":null,"iata_code":null,"gps_code":"SD40","local_code":"SC0224","home_link":null,"wikipedia_link":null,"keywords":null},{"id":"568776","ident":"BR-1920","type":"small_airport","name":"Fazenda Campo Alegre Airstrip","latitude_deg":"-18.56111","longitude_deg":"-56.871854","elevation_ft":"344","continent":"SA","iso_country":"BR","iso_region":"BR-MS","municipality":"Corumbá","scheduled_service":"no","icao_code":null,"iata_code":null,"gps_code":"SN63","local_code":"MS0668","home_link":null,"wikipedia_link":null,"keywords":null},{"id":"569669","ident":"BR-1921","type":"small_airport","name":"Fazenda Santa Helena Airport","latitude_deg":"-20.200436","longitude_deg":"-53.336495","elevation_ft":"1734","continent":"SA","iso_country":"BR","iso_region":"BR-MS","municipality":"Ribas do Rio Pardo","scheduled_service":"no","icao_code":null,"iata_code":null,"gps_code":"SWYA","local_code":"MT0434","home_link":null,"wikipedia_link":null,"keywords":null},{"id":"571259","ident":"BR-1922","type":"small_airport","name":"Paraíba Aeroclube","latitude_deg":"-7.246443","longitude_deg":"-35.173947","elevation_ft":"371","continent":"SA","iso_country":"BR","iso_region":"BR-PB","municipality":"São Miguel de Taipu","scheduled_service":"no","icao_code":null,"iata_code":null,"gps_code":null,"local_code":"PB0018","home_link":null,"wikipedia_link":null,"keywords":"José Maranhão"},{"id":"571378","ident":"BR-1923","type":"heliport","name":"Reserva do Toque Heliport","latitude_deg":"-9.255233","longitude_deg":"-35.370968","elevation_ft":"92","continent":"SA","iso_country":"BR","iso_region":"BR-AL","municipality":"São Miguel dos Milagres","scheduled_service":"no","icao_code":null,"iata_code":null,"gps_code":"SWQR","local_code":"AL0019","home_link":null,"wikipedia_link":null,"keywords":null},{"id":"572076","ident":"BR-1924","type":"small_airport","name":"Fazenda Conceição Airport","latitude_deg":"-11.448803","longitude_deg":"-43.865304","elevation_ft":"1398","continent":"SA","iso_country":"BR","iso_region":"BR-BA","municipality":"Wanderle","scheduled_service":"no","icao_code":null,"iata_code":null,"gps_code":"SN37","local_code":"BA0443","home_link":null,"wikipedia_link":null,"keywords":null},{"id":"523029","ident":"BR-1925","type":"small_airport","name":"Fazenda Branca - Xangrilá Airport","latitude_deg":"-14.607462","longitude_deg":"-58.780025","elevation_ft":"2651","continent":"SA","iso_country":"BR","iso_region":"BR-MT","municipality":"Vale de São Domingos","scheduled_service":"no","icao_code":null,"iata_code":null,"gps_code":"SJT4","local_code":"MT0953","home_link":null,"wikipedia_link":null,"keywords":null},{"id":"37343","ident":"BR-1926","type":"small_airport","name":"Fazenda Lagoa das Conchas Airport","latitude_deg":"-9.099247","longitude_deg":"-61.192789","elevation_ft":"348","continent":"SA","iso_country":"BR","iso_region":"BR-MT","municipality":"Colniza","scheduled_service":"no","icao_code":null,"iata_code":null,"gps_code":null,"local_code":null,"home_link":null,"wikipedia_link":null,"keywords":"SNXV"},{"id":"555216","ident":"BR-1927","type":"small_airport","name":"Fazenda Maravilha Airport","latitude_deg":"-12.681798","longitude_deg":"-55.67655","elevation_ft":"1255","continent":"SA","iso_country":"BR","iso_region":"BR-MT","municipality":"Sorriso","scheduled_service":"no","icao_code":null,"iata_code":null,"gps_code":"SNB3","local_code":"MT1071","home_link":null,"wikipedia_link":null,"keywords":null},{"id":"37917","ident":"BR-1928","type":"small_airport","name":"Fazenda Juína Airport","latitude_deg":"-11.642902","longitude_deg":"-59.087344","elevation_ft":"1100","continent":"SA","iso_country":"BR","iso_region":"BR-MT","municipality":"Juína","scheduled_service":"no","icao_code":null,"iata_code":null,"gps_code":null,"local_code":null,"home_link":null,"wikipedia_link":null,"keywords":"SWJA"},{"id":"507197","ident":"BR-1929","type":"small_airport","name":"Fazenda Pau Brasil Airport","latitude_deg":"-4.653611","longitude_deg":"-47.504444","elevation_ft":"1030","continent":"SA","iso_country":"BR","iso_region":"BR-MA","municipality":"Itinga do Maranhão","scheduled_service":"no","icao_code":null,"iata_code":null,"gps_code":"SI8F","local_code":"MA0154","home_link":null,"wikipedia_link":null,"keywords":null},{"id":"575317","ident":"BR-1930","type":"heliport","name":"Helibúzios Heliport","latitude_deg":"-22.755278","longitude_deg":"-41.960833","elevation_ft":"7","continent":"SA","iso_country":"BR","iso_region":"BR-RJ","municipality":"Armação de Búzios","scheduled_service":"no","icao_code":null,"iata_code":null,"gps_code":"SWXH","local_code":"RJ0171","home_link":null,"wikipedia_link":null,"keywords":null},{"id":"575412","ident":"BR-1931","type":"small_airport","name":"Fazenda Taquarussu Airstrip","latitude_deg":"-23.903611","longitude_deg":"-54.981944","elevation_ft":"1089","continent":"SA","iso_country":"BR","iso_region":"BR-MS","municipality":"Sete Quedas","scheduled_service":"no","icao_code":null,"iata_code":null,"gps_code":"SWQQ","local_code":"MS0408","home_link":null,"wikipedia_link":null,"keywords":null},{"id":"575573","ident":"BR-1932","type":"small_airport","name":"Fazenda São Sebastião Airport","latitude_deg":"-20.179167","longitude_deg":"-54.051667","elevation_ft":"1654","continent":"SA","iso_country":"BR","iso_region":"BR-MS","municipality":"Ribas do Rio Pardo","scheduled_service":"no","icao_code":null,"iata_code":null,"gps_code":"SWNL","local_code":"MS0387","home_link":null,"wikipedia_link":null,"keywords":null},{"id":"575598","ident":"BR-1933","type":"heliport","name":"Samarco Mina do Germano Heliport","latitude_deg":"-20.19918","longitude_deg":"-43.489798","elevation_ft":"3333","continent":"SA","iso_country":"BR","iso_region":"BR-MG","municipality":"Mariana","scheduled_service":"no","icao_code":null,"iata_code":null,"gps_code":"SWNG","local_code":"MG0284","home_link":null,"wikipedia_link":null,"keywords":null},{"id":"585091","ident":"BR-1934","type":"small_airport","name":"Fazenda Nebraska Airstrip","latitude_deg":"-8.927417","longitude_deg":"-46.506019","elevation_ft":"1785","continent":"SA","iso_country":"BR","iso_region":"BR-MA","municipality":"Balsas","scheduled_service":"no","icao_code":null,"iata_code":null,"gps_code":"SN99","local_code":"MA0191","home_link":null,"wikipedia_link":null,"keywords":null},{"id":"131","ident":"BR-1935","type":"closed","name":"Fazenda Sao Sebastiao Airport","latitude_deg":"-12.736300468445","longitude_deg":"-61.110198974609","elevation_ft":"919","continent":"SA","iso_country":"BR","iso_region":"BR-RO","municipality":"Sao Jose so Barreiro","scheduled_service":"no","icao_code":null,"iata_code":null,"gps_code":null,"local_code":null,"home_link":null,"wikipedia_link":null,"keywords":"SB03, SB03, SB03"},{"id":"132","ident":"BR-1936","type":"closed","name":"Aurea Airport","latitude_deg":"-19.287399291992","longitude_deg":"-46.511699676514","elevation_ft":"3700","continent":"SA","iso_country":"BR","iso_region":"BR-MG","municipality":"Serra Do Salitre","scheduled_service":"no","icao_code":null,"iata_code":null,"gps_code":null,"local_code":null,"home_link":null,"wikipedia_link":null,"keywords":"SB04, SB04, SB04"},{"id":"147","ident":"BR-1937","type":"closed","name":"Fazenda Alamo Airport","latitude_deg":"-21.815201","longitude_deg":"-47.900678","elevation_ft":"2434","continent":"SA","iso_country":"BR","iso_region":"BR-SP","municipality":"Sao Carlos","scheduled_service":"no","icao_code":null,"iata_code":null,"gps_code":null,"local_code":null,"home_link":null,"wikipedia_link":null,"keywords":"SDAL"},{"id":"165","ident":"BR-1938","type":"closed","name":"Fazenda Itaquere Airport","latitude_deg":"-21.6546","longitude_deg":"-48.2663","elevation_ft":"2257","continent":"SA","iso_country":"BR","iso_region":"BR-SP","municipality":"Araraquara","scheduled_service":"no","icao_code":null,"iata_code":null,"gps_code":null,"local_code":null,"home_link":null,"wikipedia_link":null,"keywords":"SDFI"},{"id":"190","ident":"BR-1939","type":"closed","name":"Aeroclube Airport","latitude_deg":"-22.746482","longitude_deg":"-43.464918","elevation_ft":"164","continent":"SA","iso_country":"BR","iso_region":"BR-RJ","municipality":"Nova Iguaçu","scheduled_service":"no","icao_code":null,"iata_code":null,"gps_code":null,"local_code":null,"home_link":null,"wikipedia_link":"https://pt.wikipedia.org/wiki/Aeroclube_de_Nova_Igua%C3%A7u","keywords":"SDNY"},{"id":"221","ident":"BR-1940","type":"closed","name":"Leda Mello Resende Airport","latitude_deg":"-21.3719","longitude_deg":"-45.4949","elevation_ft":"3050","continent":"SA","iso_country":"BR","iso_region":"BR-MG","municipality":"Três Pontas","scheduled_service":"no","icao_code":null,"iata_code":null,"gps_code":null,"local_code":null,"home_link":null,"wikipedia_link":null,"keywords":"SIAB"},{"id":"255","ident":"BR-1941","type":"small_airport","name":"Porto Primavera Airport","latitude_deg":"-22.525679","longitude_deg":"-52.972172","elevation_ft":"1071","continent":"SA","iso_country":"BR","iso_region":"BR-SP","municipality":"Rosana","scheduled_service":"no","icao_code":null,"iata_code":null,"gps_code":"SD53","local_code":"SP1448","home_link":null,"wikipedia_link":null,"keywords":null},{"id":"271","ident":"BR-1942","type":"closed","name":"Santo Antônio do Amparo Airport","latitude_deg":"-20.9135","longitude_deg":"-44.892899","elevation_ft":"3601","continent":"SA","iso_country":"BR","iso_region":"BR-MG","municipality":"Santo Antônio do Amparo","scheduled_service":"no","icao_code":null,"iata_code":null,"gps_code":null,"local_code":null,"home_link":null,"wikipedia_link":null,"keywords":"SNAM, MG0011"},{"id":"280","ident":"BR-1943","type":"closed","name":"Belo Jardim Airport","latitude_deg":"-8.34527","longitude_deg":"-36.4412","elevation_ft":"2100","continent":"SA","iso_country":"BR","iso_region":"BR-PE","municipality":"Belo Jardim","scheduled_service":"no","icao_code":null,"iata_code":null,"gps_code":null,"local_code":null,"home_link":null,"wikipedia_link":"https://en.wikipedia.org/wiki/Belo_Jardim_Airport","keywords":"SNBJ, PE0011"},{"id":"301","ident":"BR-1944","type":"closed","name":"Divisa Airport","latitude_deg":"-15.519444","longitude_deg":"-40.872501","elevation_ft":"2710","continent":"SA","iso_country":"BR","iso_region":"BR-BA","municipality":"Encruzilhada","scheduled_service":"no","icao_code":null,"iata_code":null,"gps_code":null,"local_code":null,"home_link":null,"wikipedia_link":null,"keywords":"SNDW, BA0043"},{"id":"314","ident":"BR-1945","type":"closed","name":"Guanhães Airport","latitude_deg":"-18.707701","longitude_deg":"-42.838902","elevation_ft":"2618","continent":"SA","iso_country":"BR","iso_region":"BR-MG","municipality":"Guanhães","scheduled_service":"no","icao_code":null,"iata_code":null,"gps_code":null,"local_code":null,"home_link":null,"wikipedia_link":null,"keywords":"SNGH"},{"id":"319","ident":"BR-1946","type":"closed","name":"Herbert Mata Pires Airport","latitude_deg":"-12.402464","longitude_deg":"-40.474655","elevation_ft":"1188","continent":"SA","iso_country":"BR","iso_region":"BR-BA","municipality":"Itaberaba","scheduled_service":"no","icao_code":null,"iata_code":null,"gps_code":null,"local_code":null,"home_link":null,"wikipedia_link":null,"keywords":"SNHP"},{"id":"333","ident":"BR-1947","type":"closed","name":"Aeroclube da Paraíba Airport","latitude_deg":"-7.09199","longitude_deg":"-34.841599","elevation_ft":"16","continent":"SA","iso_country":"BR","iso_region":"BR-PB","municipality":"João Pessoa","scheduled_service":"no","icao_code":null,"iata_code":null,"gps_code":null,"local_code":null,"home_link":null,"wikipedia_link":"https://pt.wikipedia.org/wiki/Aeroclube_da_Para%C3%ADba","keywords":"SNJO"},{"id":"340","ident":"BR-1948","type":"small_airport","name":"Santana do Araguaia Airport","latitude_deg":"-9.319906","longitude_deg":"-50.328536","elevation_ft":"614","continent":"SA","iso_country":"BR","iso_region":"BR-PA","municipality":"Santana do Araguaia","scheduled_service":"no","icao_code":null,"iata_code":"CMP","gps_code":"SD12","local_code":"PA0017","home_link":null,"wikipedia_link":"https://en.wikipedia.org/wiki/Santana_do_Araguaia_Airport","keywords":"SNKE"},{"id":"371","ident":"BR-1949","type":"closed","name":"Fazenda Do Cantagalo Airport","latitude_deg":"-15.395899772644","longitude_deg":"-44.145198822021","elevation_ft":"1576","continent":"SA","iso_country":"BR","iso_region":"BR-MG","municipality":"Piedras do Maria Da Cruz","scheduled_service":"no","icao_code":null,"iata_code":null,"gps_code":null,"local_code":null,"home_link":null,"wikipedia_link":null,"keywords":"SNPH, SNPH, SNPH"},{"id":"392","ident":"BR-1950","type":"closed","name":"São Raimundo Nonato Airport","latitude_deg":"-9.03","longitude_deg":"-42.68","elevation_ft":"1247","continent":"SA","iso_country":"BR","iso_region":"BR-PI","municipality":"São Raimundo Nonato","scheduled_service":"no","icao_code":null,"iata_code":null,"gps_code":null,"local_code":null,"home_link":null,"wikipedia_link":null,"keywords":"SNSN"},{"id":"446","ident":"BR-1951","type":"small_airport","name":"Dionísio Cerqueira Airport","latitude_deg":"-26.288337","longitude_deg":"-53.630779","elevation_ft":"2703","continent":"SA","iso_country":"BR","iso_region":"BR-SC","municipality":"Dionísio Cerqueira","scheduled_service":"no","icao_code":null,"iata_code":null,"gps_code":"SND6","local_code":"SC0012","home_link":null,"wikipedia_link":"https://pt.wikipedia.org/wiki/Aeroporto_de_Dion%C3%ADsio_Cerqueira","keywords":"SSDC"},{"id":"448","ident":"BR-1952","type":"closed","name":"Spessato Aviacao Agricola Airport","latitude_deg":"-22.215900421143","longitude_deg":"-54.741901397705","elevation_ft":"1470","continent":"SA","iso_country":"BR","iso_region":"BR-MS","municipality":"Dourados","scheduled_service":"no","icao_code":null,"iata_code":null,"gps_code":null,"local_code":null,"home_link":null,"wikipedia_link":null,"keywords":"SSEA, SSEA, SSEA"},{"id":"454","ident":"BR-1953","type":"closed","name":"Fazenda Recreio 3 Airport","latitude_deg":"-20.207542","longitude_deg":"-53.778935","elevation_ft":"1509","continent":"SA","iso_country":"BR","iso_region":"BR-MS","municipality":"Ribas do Rio Pardo","scheduled_service":"no","icao_code":null,"iata_code":null,"gps_code":null,"local_code":null,"home_link":null,"wikipedia_link":null,"keywords":"SSFV"},{"id":"505","ident":"BR-1954","type":"closed","name":"Fazenda San Marino Airport","latitude_deg":"-20.102199554443","longitude_deg":"-52.443901062012","elevation_ft":"1476","continent":"SA","iso_country":"BR","iso_region":"BR-MS","municipality":"Tres Lagoas","scheduled_service":"no","icao_code":null,"iata_code":null,"gps_code":null,"local_code":null,"home_link":null,"wikipedia_link":null,"keywords":"SSSF, SSSF, SSSF"},{"id":"513","ident":"BR-1955","type":"closed","name":"Avelino Vieira Airport","latitude_deg":"-24.103901","longitude_deg":"-49.789101","elevation_ft":"2641","continent":"SA","iso_country":"BR","iso_region":"BR-PR","municipality":"Arapoti","scheduled_service":"no","icao_code":null,"iata_code":null,"gps_code":null,"local_code":null,"home_link":null,"wikipedia_link":"https://en.wikipedia.org/wiki/Arapoti_Airport","keywords":"SSYA, AAG, PR0020"},{"id":"533","ident":"BR-1956","type":"closed","name":"Alcimar Leitão Airport","latitude_deg":"-8.16558","longitude_deg":"-70.352997","elevation_ft":"394","continent":"SA","iso_country":"BR","iso_region":"BR-AC","municipality":"Feijó","scheduled_service":"no","icao_code":null,"iata_code":null,"gps_code":null,"local_code":null,"home_link":null,"wikipedia_link":"https://en.wikipedia.org/wiki/Old_Feij%C3%B3_Airport","keywords":"SWFJ, FEJ, Feijó Airport"},{"id":"541","ident":"BR-1957","type":"closed","name":"Santa Helena de Goiás Airport","latitude_deg":"-17.827238","longitude_deg":"-50.588033","elevation_ft":"1591","continent":"SA","iso_country":"BR","iso_region":"BR-GO","municipality":"Santa Helena de Goiás","scheduled_service":"no","icao_code":null,"iata_code":null,"gps_code":null,"local_code":null,"home_link":null,"wikipedia_link":"https://pt.wikipedia.org/wiki/Aeroporto_de_Santa_Helena_de_Goiás","keywords":"Deputado Federal José Alves de Assis, SWHG, GO0032"},{"id":"552","ident":"BR-1958","type":"closed","name":"Old Cacoal Airport","latitude_deg":"-11.43","longitude_deg":"-61.48","elevation_ft":"640","continent":"SA","iso_country":"BR","iso_region":"BR-RO","municipality":"Cacoal","scheduled_service":"no","icao_code":null,"iata_code":null,"gps_code":null,"local_code":null,"home_link":null,"wikipedia_link":null,"keywords":"SWKK"},{"id":"5904","ident":"BR-1959","type":"closed","name":"Furnas Airport","latitude_deg":"-20.702801","longitude_deg":"-46.3353","elevation_ft":"2413","continent":"SA","iso_country":"BR","iso_region":"BR-MG","municipality":"São José da Barra","scheduled_service":"no","icao_code":null,"iata_code":null,"gps_code":null,"local_code":null,"home_link":null,"wikipedia_link":null,"keywords":"SBFU, Alpinopolis"},{"id":"5921","ident":"BR-1960","type":"closed","name":"Belém/Brigadeiro Protásio de Oliveira Airport","latitude_deg":"-1.415051","longitude_deg":"-48.459805","elevation_ft":"52","continent":"SA","iso_country":"BR","iso_region":"BR-PA","municipality":"Belém","scheduled_service":"no","icao_code":null,"iata_code":null,"gps_code":null,"local_code":null,"home_link":null,"wikipedia_link":"https://en.wikipedia.org/wiki/Prot%C3%A1sio_de_Oliveira_Airport","keywords":"Júlio César Airport, SBJC, PA0005"},{"id":"5963","ident":"BR-1961","type":"closed","name":"Pedro Otacílio Figueiredo Airport","latitude_deg":"-14.862567","longitude_deg":"-40.863186","elevation_ft":"3002","continent":"SA","iso_country":"BR","iso_region":"BR-BA","municipality":"Vitória da Conquista","scheduled_service":"no","icao_code":null,"iata_code":null,"gps_code":null,"local_code":null,"home_link":"https://www.dumont-aero.com.br/rotaer/aerodromo.php?codigo=SBQV","wikipedia_link":"https://en.wikipedia.org/wiki/Pedro_Otac%C3%ADlio_Figueiredo_Airport","keywords":"SBQV, BA0003"},{"id":"5994","ident":"BR-1962","type":"closed","name":"Urubupunga Airport","latitude_deg":"-20.7771","longitude_deg":"-51.5648","elevation_ft":"1169","continent":"SA","iso_country":"BR","iso_region":"BR-SP","municipality":"Castilho","scheduled_service":"no","icao_code":null,"iata_code":null,"gps_code":null,"local_code":null,"home_link":null,"wikipedia_link":"https://en.wikipedia.org/wiki/Urubupung%C3%A1_Airport","keywords":"SBUP, URB"},{"id":"29655","ident":"BR-1963","type":"closed","name":"Alto Garças Airport","latitude_deg":"-16.92","longitude_deg":"-53.54","elevation_ft":"2707","continent":"SA","iso_country":"BR","iso_region":"BR-MT","municipality":"Alto Garças","scheduled_service":"no","icao_code":null,"iata_code":null,"gps_code":null,"local_code":null,"home_link":null,"wikipedia_link":"https://web.archive.org/web/20160617181444/https://pt.wikipedia.org/wiki/Aeroporto_de_Alto_Garças","keywords":"SWGR"},{"id":"29725","ident":"BR-1964","type":"closed","name":"Brasileia Airport","latitude_deg":"-11.0169","longitude_deg":"-68.733902","elevation_ft":"489","continent":"SA","iso_country":"BR","iso_region":"BR-AC","municipality":"Brasileila","scheduled_service":"no","icao_code":null,"iata_code":null,"gps_code":null,"local_code":null,"home_link":null,"wikipedia_link":null,"keywords":"SWBS"},{"id":"29742","ident":"BR-1965","type":"closed","name":"Buriti Alegre Airport","latitude_deg":"-18.116373","longitude_deg":"-49.048877","elevation_ft":"2848","continent":"SA","iso_country":"BR","iso_region":"BR-GO","municipality":"Buriti Alegre","scheduled_service":"no","icao_code":null,"iata_code":null,"gps_code":null,"local_code":null,"home_link":null,"wikipedia_link":null,"keywords":"SWBA, GO0022"},{"id":"29828","ident":"BR-1966","type":"closed","name":"Dores Do Indaia Airport","latitude_deg":"-19.457199","longitude_deg":"-45.5844","elevation_ft":"2490","continent":"SA","iso_country":"BR","iso_region":"BR-MG","municipality":"Dores Do Indiaia","scheduled_service":"no","icao_code":null,"iata_code":null,"gps_code":null,"local_code":null,"home_link":null,"wikipedia_link":null,"keywords":"SNDY, SNDY"},{"id":"29861","ident":"BR-1967","type":"closed","name":"Eunápolis Airport","latitude_deg":"-16.329201","longitude_deg":"-39.5769","elevation_ft":"610","continent":"SA","iso_country":"BR","iso_region":"BR-BA","municipality":"Eunápolis","scheduled_service":"no","icao_code":null,"iata_code":null,"gps_code":null,"local_code":null,"home_link":null,"wikipedia_link":null,"keywords":"SNEP"},{"id":"29978","ident":"BR-1968","type":"closed","name":"Ipua Faz Alianca Airport","latitude_deg":"-20.504999160767","longitude_deg":"-48.044200897217","elevation_ft":"2375","continent":"SA","iso_country":"BR","iso_region":"BR-SP","municipality":"Ipua","scheduled_service":"no","icao_code":null,"iata_code":null,"gps_code":null,"local_code":null,"home_link":null,"wikipedia_link":null,"keywords":"SDLM, SDLM"},{"id":"29979","ident":"BR-1969","type":"closed","name":"Irai - Vicente Dutra Airport","latitude_deg":"-27.193945","longitude_deg":"-53.236384","elevation_ft":"1152","continent":"SA","iso_country":"BR","iso_region":"BR-RS","municipality":"Irai","scheduled_service":"no","icao_code":null,"iata_code":null,"gps_code":null,"local_code":null,"home_link":null,"wikipedia_link":null,"keywords":"SSWD"},{"id":"30058","ident":"BR-1970","type":"closed","name":"Laguna-Anita Garibaldi Airport","latitude_deg":"-28.389","longitude_deg":"-48.754051","elevation_ft":"20","continent":"SA","iso_country":"BR","iso_region":"BR-SC","municipality":"Laguna","scheduled_service":"no","icao_code":null,"iata_code":null,"gps_code":null,"local_code":null,"home_link":null,"wikipedia_link":null,"keywords":"SSLA, SC0008"},{"id":"30190","ident":"BR-1971","type":"closed","name":"Nonoaí Airport","latitude_deg":"-27.369023","longitude_deg":"-52.763246","elevation_ft":"1969","continent":"SA","iso_country":"BR","iso_region":"BR-RS","municipality":"Nonoaí","scheduled_service":"no","icao_code":null,"iata_code":null,"gps_code":null,"local_code":null,"home_link":null,"wikipedia_link":null,"keywords":"SSNO, Armando Reginatto, RS0038"},{"id":"30282","ident":"BR-1972","type":"closed","name":"Portoferreir Han Airport","latitude_deg":"-21.874200820923","longitude_deg":"-47.473899841309","elevation_ft":"1870","continent":"SA","iso_country":"BR","iso_region":"BR-SP","municipality":"Porto Ferreira","scheduled_service":"no","icao_code":null,"iata_code":null,"gps_code":null,"local_code":null,"home_link":null,"wikipedia_link":null,"keywords":"SDPF, SDPF"},{"id":"30390","ident":"BR-1973","type":"closed","name":"São Domingos Airport","latitude_deg":"-5.573609828949","longitude_deg":"-44.431701660156","elevation_ft":"787","continent":"SA","iso_country":"BR","iso_region":"BR-MA","municipality":"São Domingos Do Maranhão","scheduled_service":"no","icao_code":null,"iata_code":null,"gps_code":null,"local_code":null,"home_link":null,"wikipedia_link":null,"keywords":"SNDG, SNDG"},{"id":"30511","ident":"BR-1974","type":"closed","name":"Usina Sao Geraldo Airport","latitude_deg":"-21.130800247192","longitude_deg":"-48.066398620605","elevation_ft":"1804","continent":"SA","iso_country":"BR","iso_region":"BR-SP","municipality":"Ribeiro Preto","scheduled_service":"no","icao_code":null,"iata_code":null,"gps_code":null,"local_code":null,"home_link":null,"wikipedia_link":null,"keywords":"SDUG, SDUG"},{"id":"30526","ident":"BR-1975","type":"closed","name":"Venâncio Aires Airport","latitude_deg":"-29.6131","longitude_deg":"-52.217201","elevation_ft":"226","continent":"SA","iso_country":"BR","iso_region":"BR-RS","municipality":"Venâncio Aires","scheduled_service":"no","icao_code":null,"iata_code":null,"gps_code":null,"local_code":null,"home_link":null,"wikipedia_link":null,"keywords":"SSWA"},{"id":"32333","ident":"BR-1976","type":"closed","name":"Encanta Moça Airport","latitude_deg":"-8.094491","longitude_deg":"-34.891645","elevation_ft":"10","continent":"SA","iso_country":"BR","iso_region":"BR-PE","municipality":"Recife","scheduled_service":"no","icao_code":null,"iata_code":null,"gps_code":null,"local_code":null,"home_link":null,"wikipedia_link":null,"keywords":"SNEM"},{"id":"32337","ident":"BR-1977","type":"closed","name":"Magalhaes de Almeida Airport","latitude_deg":"-4.476961","longitude_deg":"-43.889902","elevation_ft":"203","continent":"SA","iso_country":"BR","iso_region":"BR-MA","municipality":"Codo","scheduled_service":"no","icao_code":null,"iata_code":null,"gps_code":null,"local_code":null,"home_link":null,"wikipedia_link":null,"keywords":"SNMH"},{"id":"32402","ident":"BR-1978","type":"closed","name":"Suia-Missu Airport","latitude_deg":"-11.671699523926","longitude_deg":"-51.434700012207","elevation_ft":null,"continent":"SA","iso_country":"BR","iso_region":"BR-MT","municipality":"Alto Boa Vista","scheduled_service":"no","icao_code":null,"iata_code":null,"gps_code":null,"local_code":null,"home_link":null,"wikipedia_link":null,"keywords":"SWM, SWM, BR-SWM"},{"id":"32403","ident":"BR-1979","type":"closed","name":"Novo Paraiso Airport","latitude_deg":"1.2381900548935","longitude_deg":"-60.486301422119","elevation_ft":"213","continent":"SA","iso_country":"BR","iso_region":"BR-RR","municipality":"Novo Paraiso","scheduled_service":"no","icao_code":null,"iata_code":null,"gps_code":null,"local_code":null,"home_link":null,"wikipedia_link":null,"keywords":"SWNP, SWNP"},{"id":"35154","ident":"BR-1980","type":"closed","name":"Tucuma Airport","latitude_deg":"-3.9670000076294","longitude_deg":"-66.432998657227","elevation_ft":"59","continent":"SA","iso_country":"BR","iso_region":"BR-AM","municipality":"Tucuma","scheduled_service":"no","icao_code":null,"iata_code":null,"gps_code":null,"local_code":null,"home_link":null,"wikipedia_link":null,"keywords":"TUZ, TUZ, BR-"},{"id":"35415","ident":"BR-1981","type":"closed","name":"Petrobras P-15 Platform Helideck","latitude_deg":"-22.6775","longitude_deg":"-40.606098","elevation_ft":null,"continent":"SA","iso_country":"BR","iso_region":"BR-RJ","municipality":"Macaé","scheduled_service":"no","icao_code":null,"iata_code":null,"gps_code":null,"local_code":null,"home_link":null,"wikipedia_link":null,"keywords":"HELIOPS, Oil & Gas, Offshore, Platform, Semisub, FPU, IMO 8754073, Pirauna field, REMOVED, SBEC"},{"id":"35419","ident":"BR-1982","type":"closed","name":"Sao Roque Airport","latitude_deg":"-23.517000198364","longitude_deg":"-47.117000579834","elevation_ft":"853","continent":"SA","iso_country":"BR","iso_region":"BR-SP","municipality":"Sao Roque","scheduled_service":"no","icao_code":null,"iata_code":null,"gps_code":null,"local_code":null,"home_link":null,"wikipedia_link":null,"keywords":"SBRQ, SBRQ"},{"id":"35420","ident":"BR-1983","type":"closed","name":"Maju Heliport","latitude_deg":"-21.093179","longitude_deg":"-50.47971","elevation_ft":"1247","continent":"SA","iso_country":"BR","iso_region":"BR-SP","municipality":"Araçatuba","scheduled_service":"no","icao_code":null,"iata_code":null,"gps_code":null,"local_code":null,"home_link":null,"wikipedia_link":null,"keywords":"SDAB"},{"id":"35429","ident":"BR-1984","type":"closed","name":"Auxiliar I Heliport","latitude_deg":"-23.631945","longitude_deg":"-46.713614","elevation_ft":"2539","continent":"SA","iso_country":"BR","iso_region":"BR-SP","municipality":"São Paulo","scheduled_service":"no","icao_code":null,"iata_code":null,"gps_code":null,"local_code":null,"home_link":null,"wikipedia_link":null,"keywords":"SDAV"},{"id":"35439","ident":"BR-1985","type":"closed","name":"Jimenez Heliport","latitude_deg":"-23.709443","longitude_deg":"-47.425556","elevation_ft":"2658","continent":"SA","iso_country":"BR","iso_region":"BR-SP","municipality":"Piedade","scheduled_service":"no","icao_code":null,"iata_code":null,"gps_code":null,"local_code":null,"home_link":null,"wikipedia_link":null,"keywords":"SDBJ"},{"id":"35444","ident":"BR-1986","type":"closed","name":"Os Bandeirantes Helipad","latitude_deg":"-23.576097","longitude_deg":"-46.687217","elevation_ft":"2579","continent":"SA","iso_country":"BR","iso_region":"BR-SP","municipality":"São Paulo","scheduled_service":"no","icao_code":null,"iata_code":null,"gps_code":null,"local_code":null,"home_link":null,"wikipedia_link":null,"keywords":"SDBS, SP0300"},{"id":"35445","ident":"BR-1987","type":"closed","name":"Banco de Boston Heliport","latitude_deg":"-23.544701","longitude_deg":"-46.635557","elevation_ft":"2565","continent":"SA","iso_country":"BR","iso_region":"BR-SP","municipality":"São Paulo","scheduled_service":"no","icao_code":null,"iata_code":null,"gps_code":null,"local_code":null,"home_link":null,"wikipedia_link":null,"keywords":"SDBT"},{"id":"35448","ident":"BR-1988","type":"closed","name":"KMS Heliport","latitude_deg":"-23.505276","longitude_deg":"-46.844723","elevation_ft":"2521","continent":"SA","iso_country":"BR","iso_region":"BR-SP","municipality":"Barueri","scheduled_service":"no","icao_code":null,"iata_code":null,"gps_code":null,"local_code":null,"home_link":null,"wikipedia_link":null,"keywords":"SDBZ"},{"id":"35449","ident":"BR-1989","type":"closed","name":"Refinaria Presidente Bernardes Heliport","latitude_deg":"-23.887777","longitude_deg":"-46.427776","elevation_ft":"23","continent":"SA","iso_country":"BR","iso_region":"BR-SP","municipality":"Cubatão","scheduled_service":"no","icao_code":null,"iata_code":null,"gps_code":null,"local_code":null,"home_link":null,"wikipedia_link":null,"keywords":"SDCB"},{"id":"35450","ident":"BR-1990","type":"closed","name":"Country Club Orgabil Airport","latitude_deg":"-21.218741","longitude_deg":"-50.40596","elevation_ft":"1253","continent":"SA","iso_country":"BR","iso_region":"BR-SP","municipality":"Araçatuba","scheduled_service":"no","icao_code":null,"iata_code":null,"gps_code":null,"local_code":null,"home_link":null,"wikipedia_link":null,"keywords":"SDCC"},{"id":"35452","ident":"BR-1991","type":"closed","name":"CBS Heliport","latitude_deg":"-23.584708","longitude_deg":"-46.671238","elevation_ft":"2653","continent":"SA","iso_country":"BR","iso_region":"BR-SP","municipality":"São Paulo","scheduled_service":"no","icao_code":null,"iata_code":null,"gps_code":null,"local_code":null,"home_link":null,"wikipedia_link":null,"keywords":"SDCF"},{"id":"35453","ident":"BR-1992","type":"closed","name":"Band Heliport","latitude_deg":"-23.642735","longitude_deg":"-46.735668","elevation_ft":"2589","continent":"SA","iso_country":"BR","iso_region":"BR-SP","municipality":"São Paulo","scheduled_service":"no","icao_code":null,"iata_code":null,"gps_code":null,"local_code":null,"home_link":null,"wikipedia_link":null,"keywords":"SDCH"},{"id":"35454","ident":"BR-1993","type":"closed","name":"Cabiúnas Heliport","latitude_deg":"-22.284475","longitude_deg":"-41.71748","elevation_ft":"66","continent":"SA","iso_country":"BR","iso_region":"BR-RJ","municipality":"Macaé","scheduled_service":"no","icao_code":null,"iata_code":null,"gps_code":null,"local_code":null,"home_link":null,"wikipedia_link":null,"keywords":"SDCI"},{"id":"35455","ident":"BR-1994","type":"closed","name":"Condomínio Edifício Itaquere Heliport","latitude_deg":"-23.582104","longitude_deg":"-46.681976","elevation_ft":"2621","continent":"SA","iso_country":"BR","iso_region":"BR-SP","municipality":"São Paulo","scheduled_service":"no","icao_code":null,"iata_code":null,"gps_code":null,"local_code":null,"home_link":null,"wikipedia_link":null,"keywords":"SDCK"},{"id":"35472","ident":"BR-1995","type":"closed","name":"Panco 10 Heliport","latitude_deg":"-22.6667","longitude_deg":"-43.296101","elevation_ft":"58","continent":"SA","iso_country":"BR","iso_region":"BR-RJ","municipality":"Duque de Caxias","scheduled_service":"no","icao_code":null,"iata_code":null,"gps_code":null,"local_code":null,"home_link":null,"wikipedia_link":null,"keywords":"SDDC"},{"id":"35473","ident":"BR-1996","type":"closed","name":"Sul América Seguros Heliport","latitude_deg":"-23.607779","longitude_deg":"-46.700558","elevation_ft":"2555","continent":"SA","iso_country":"BR","iso_region":"BR-SP","municipality":"São Paulo","scheduled_service":"no","icao_code":null,"iata_code":null,"gps_code":null,"local_code":null,"home_link":null,"wikipedia_link":null,"keywords":"SDDF"},{"id":"35478","ident":"BR-1997","type":"closed","name":"Dona Marta Heliport","latitude_deg":"-22.946767","longitude_deg":"-43.198348","elevation_ft":"1145","continent":"SA","iso_country":"BR","iso_region":"BR-RJ","municipality":"Rio de Janeiro","scheduled_service":"no","icao_code":null,"iata_code":null,"gps_code":null,"local_code":null,"home_link":null,"wikipedia_link":null,"keywords":"SDDM, RJ0031"},{"id":"35480","ident":"BR-1998","type":"closed","name":"Delta Plaza Helipad","latitude_deg":"-23.567953","longitude_deg":"-46.64603","elevation_ft":"2918","continent":"SA","iso_country":"BR","iso_region":"BR-SP","municipality":"São Paulo","scheduled_service":"no","icao_code":null,"iata_code":null,"gps_code":null,"local_code":null,"home_link":null,"wikipedia_link":null,"keywords":"SDDP, SP0310"},{"id":"35482","ident":"BR-1999","type":"closed","name":"Delmar Heliport","latitude_deg":"-23.921702","longitude_deg":"-46.213271","elevation_ft":"7","continent":"SA","iso_country":"BR","iso_region":"BR-SP","municipality":"Guarujá","scheduled_service":"no","icao_code":null,"iata_code":null,"gps_code":null,"local_code":null,"home_link":null,"wikipedia_link":null,"keywords":"SDDW"},{"id":"35485","ident":"BR-2000","type":"closed","name":"Ericson do Brasil Heliport","latitude_deg":"-23.061943","longitude_deg":"-45.782501","elevation_ft":"1875","continent":"SA","iso_country":"BR","iso_region":"BR-SP","municipality":"São José Dos Campos","scheduled_service":"no","icao_code":null,"iata_code":null,"gps_code":null,"local_code":null,"home_link":null,"wikipedia_link":null,"keywords":"SDEB"},{"id":"35487","ident":"BR-2001","type":"closed","name":"Rancho Villela Airport","latitude_deg":"-23.570278","longitude_deg":"-48.863335","elevation_ft":"1801","continent":"SA","iso_country":"BR","iso_region":"BR-SP","municipality":"Itaí","scheduled_service":"no","icao_code":null,"iata_code":null,"gps_code":null,"local_code":null,"home_link":null,"wikipedia_link":null,"keywords":"SDEE"},{"id":"35518","ident":"BR-2002","type":"closed","name":"Fazenda Ipameri Airport","latitude_deg":"-21.63139","longitude_deg":"-50.808887","elevation_ft":"1280","continent":"SA","iso_country":"BR","iso_region":"BR-SP","municipality":"Osvaldo Cruz","scheduled_service":"no","icao_code":null,"iata_code":null,"gps_code":null,"local_code":null,"home_link":null,"wikipedia_link":null,"keywords":"SDFY"},{"id":"35519","ident":"BR-2003","type":"closed","name":"Vivo Barra Funda Heliport","latitude_deg":"-23.509166","longitude_deg":"-46.68111","elevation_ft":"2441","continent":"SA","iso_country":"BR","iso_region":"BR-SP","municipality":"São Paulo","scheduled_service":"no","icao_code":null,"iata_code":null,"gps_code":null,"local_code":null,"home_link":null,"wikipedia_link":null,"keywords":"SDFZ"},{"id":"35524","ident":"BR-2004","type":"closed","name":"Fazenda Fartura Airport","latitude_deg":"-22.367222","longitude_deg":"-49.946945","elevation_ft":"1647","continent":"SA","iso_country":"BR","iso_region":"BR-SP","municipality":"Ocauçu","scheduled_service":"no","icao_code":null,"iata_code":null,"gps_code":null,"local_code":null,"home_link":null,"wikipedia_link":null,"keywords":"SDGF"},{"id":"35533","ident":"BR-2005","type":"closed","name":"Guararapes Airport","latitude_deg":"-21.263056","longitude_deg":"-50.652579","elevation_ft":"1312","continent":"SA","iso_country":"BR","iso_region":"BR-SP","municipality":"Guararapes","scheduled_service":"no","icao_code":null,"iata_code":null,"gps_code":null,"local_code":null,"home_link":"https://pergamum.anac.gov.br/arquivos/PA2020-3242.pdf","wikipedia_link":null,"keywords":"SDGR, SP0074"},{"id":"35567","ident":"BR-2006","type":"closed","name":"Panco 13 Heliport","latitude_deg":"-22.756399","longitude_deg":"-42.890301","elevation_ft":"112","continent":"SA","iso_country":"BR","iso_region":"BR-RJ","municipality":"Itaboraí","scheduled_service":"no","icao_code":null,"iata_code":null,"gps_code":null,"local_code":null,"home_link":null,"wikipedia_link":null,"keywords":"SDIJ"},{"id":"35569","ident":"BR-2007","type":"closed","name":"Clube do Céu Airport","latitude_deg":"-22.997497","longitude_deg":"-43.40139","elevation_ft":"3","continent":"SA","iso_country":"BR","iso_region":"BR-RJ","municipality":"Rio de Janeiro","scheduled_service":"no","icao_code":null,"iata_code":null,"gps_code":null,"local_code":null,"home_link":null,"wikipedia_link":null,"keywords":"SDIN"},{"id":"35579","ident":"BR-2008","type":"closed","name":"Avibrás II Heliport","latitude_deg":"-23.3458328247","longitude_deg":"-45.8250007629","elevation_ft":"2133","continent":"SA","iso_country":"BR","iso_region":"BR-SP","municipality":"Jacareí","scheduled_service":"no","icao_code":null,"iata_code":null,"gps_code":null,"local_code":null,"home_link":null,"wikipedia_link":null,"keywords":"SDJE, SDJE"},{"id":"35591","ident":"BR-2009","type":"closed","name":"Paulista Capital Plaza - The Flat Heliport","latitude_deg":"-23.571698","longitude_deg":"-46.646428","elevation_ft":"2953","continent":"SA","iso_country":"BR","iso_region":"BR-SP","municipality":"São Paulo","scheduled_service":"no","icao_code":null,"iata_code":null,"gps_code":null,"local_code":null,"home_link":null,"wikipedia_link":null,"keywords":"SDJY, SP0369"},{"id":"35593","ident":"BR-2010","type":"closed","name":"Fazenda São Lucas Airport","latitude_deg":"-22.303612","longitude_deg":"-49.462223","elevation_ft":"1771","continent":"SA","iso_country":"BR","iso_region":"BR-SP","municipality":"Gália","scheduled_service":"no","icao_code":null,"iata_code":null,"gps_code":null,"local_code":null,"home_link":null,"wikipedia_link":null,"keywords":"Eldorado, SDKC, SP0116"},{"id":"35604","ident":"BR-2011","type":"closed","name":"Torre da Glória Helipad","latitude_deg":"-22.918623","longitude_deg":"-43.177289","elevation_ft":"197","continent":"SA","iso_country":"BR","iso_region":"BR-RJ","municipality":"Rio de Janeiro","scheduled_service":"no","icao_code":null,"iata_code":null,"gps_code":null,"local_code":null,"home_link":null,"wikipedia_link":null,"keywords":"SDKS"},{"id":"35617","ident":"BR-2012","type":"closed","name":"Fazenda Perobal Airport","latitude_deg":"-21.503611","longitude_deg":"-50.778057","elevation_ft":"1339","continent":"SA","iso_country":"BR","iso_region":"BR-SP","municipality":"Guararapes","scheduled_service":"no","icao_code":null,"iata_code":null,"gps_code":null,"local_code":null,"home_link":null,"wikipedia_link":null,"keywords":"SDLQ, SDLT"},{"id":"35620","ident":"BR-2013","type":"closed","name":"Fazenda Santa Rita Airport","latitude_deg":"-22.1994","longitude_deg":"-50.3736","elevation_ft":"1437","continent":"SA","iso_country":"BR","iso_region":"BR-SP","municipality":"Lutecia","scheduled_service":"no","icao_code":null,"iata_code":null,"gps_code":null,"local_code":null,"home_link":null,"wikipedia_link":null,"keywords":"SDLT"},{"id":"35637","ident":"BR-2014","type":"closed","name":"Panco V Heliport","latitude_deg":"-23.034401","longitude_deg":"-45.5881","elevation_ft":"1945","continent":"SA","iso_country":"BR","iso_region":"BR-SP","municipality":"Taubaté","scheduled_service":"no","icao_code":null,"iata_code":null,"gps_code":null,"local_code":null,"home_link":null,"wikipedia_link":null,"keywords":"SDNC"},{"id":"35662","ident":"BR-2015","type":"closed","name":"Issac Heliport","latitude_deg":"-23.90891","longitude_deg":"-46.166462","elevation_ft":"39","continent":"SA","iso_country":"BR","iso_region":"BR-SP","municipality":"Guarujá","scheduled_service":"no","icao_code":null,"iata_code":null,"gps_code":null,"local_code":null,"home_link":null,"wikipedia_link":null,"keywords":"SDOS"},{"id":"35672","ident":"BR-2016","type":"closed","name":"Panco VII Heliport","latitude_deg":"-23.53","longitude_deg":"-46.49","elevation_ft":"2579","continent":"SA","iso_country":"BR","iso_region":"BR-SP","municipality":"São Paulo","scheduled_service":"no","icao_code":null,"iata_code":null,"gps_code":null,"local_code":null,"home_link":null,"wikipedia_link":null,"keywords":"SDPJ"},{"id":"35682","ident":"BR-2017","type":"closed","name":"Centro Empresarial Nações Unidas - Torre Oeste Heliport","latitude_deg":"-23.609722","longitude_deg":"-46.697224","elevation_ft":"2736","continent":"SA","iso_country":"BR","iso_region":"BR-SP","municipality":"São Paulo","scheduled_service":"no","icao_code":null,"iata_code":null,"gps_code":null,"local_code":null,"home_link":null,"wikipedia_link":null,"keywords":"SDQA"},{"id":"35683","ident":"BR-2018","type":"closed","name":"Edifício Berrini 500 Heliport","latitude_deg":"-23.601099","longitude_deg":"-46.692229","elevation_ft":"2648","continent":"SA","iso_country":"BR","iso_region":"BR-SP","municipality":"São Paulo","scheduled_service":"no","icao_code":null,"iata_code":null,"gps_code":null,"local_code":null,"home_link":null,"wikipedia_link":null,"keywords":"SDQB, SSBH, SP0744"},{"id":"35718","ident":"BR-2019","type":"closed","name":"Fazenda São Sebastião Airport","latitude_deg":"-19.99644","longitude_deg":"-47.515923","elevation_ft":"1706","continent":"SA","iso_country":"BR","iso_region":"BR-SP","municipality":"Rifaina","scheduled_service":"no","icao_code":null,"iata_code":null,"gps_code":null,"local_code":null,"home_link":null,"wikipedia_link":null,"keywords":"SDSB, SP0140"},{"id":"35724","ident":"BR-2020","type":"closed","name":"Saquarema Airport","latitude_deg":"-22.928773","longitude_deg":"-42.50571","elevation_ft":"26","continent":"SA","iso_country":"BR","iso_region":"BR-RJ","municipality":"Saquarema","scheduled_service":"no","icao_code":null,"iata_code":null,"gps_code":null,"local_code":null,"home_link":null,"wikipedia_link":null,"keywords":"SDSK"},{"id":"35725","ident":"BR-2021","type":"closed","name":"Hospital Sírio Libanês Heliport","latitude_deg":"-23.557173","longitude_deg":"-46.654258","elevation_ft":"2799","continent":"SA","iso_country":"BR","iso_region":"BR-SP","municipality":"São Paulo","scheduled_service":"no","icao_code":null,"iata_code":null,"gps_code":null,"local_code":null,"home_link":null,"wikipedia_link":null,"keywords":"SDSL, SP0416"},{"id":"35734","ident":"BR-2022","type":"closed","name":"Panco III Heliport","latitude_deg":"-22.713301","longitude_deg":"-43.692501","elevation_ft":"126","continent":"SA","iso_country":"BR","iso_region":"BR-RJ","municipality":"Seropédica","scheduled_service":"no","icao_code":null,"iata_code":null,"gps_code":null,"local_code":null,"home_link":null,"wikipedia_link":null,"keywords":"SDSY"},{"id":"35743","ident":"BR-2023","type":"closed","name":"Telesp Heliport","latitude_deg":"-23.520832","longitude_deg":"-46.678055","elevation_ft":"2366","continent":"SA","iso_country":"BR","iso_region":"BR-SP","municipality":"São Paulo","scheduled_service":"no","icao_code":null,"iata_code":null,"gps_code":null,"local_code":null,"home_link":null,"wikipedia_link":null,"keywords":"SDTL"},{"id":"35771","ident":"BR-2024","type":"closed","name":"Viação Cometa Móoca Heliport","latitude_deg":"-23.560833","longitude_deg":"-46.605","elevation_ft":"2441","continent":"SA","iso_country":"BR","iso_region":"BR-SP","municipality":"São Paulo","scheduled_service":"no","icao_code":null,"iata_code":null,"gps_code":null,"local_code":null,"home_link":null,"wikipedia_link":null,"keywords":"SDVK"},{"id":"35774","ident":"BR-2025","type":"closed","name":"Varam Heliport","latitude_deg":"-23.567499","longitude_deg":"-46.655556","elevation_ft":"2926","continent":"SA","iso_country":"BR","iso_region":"BR-SP","municipality":"São Paulo","scheduled_service":"no","icao_code":null,"iata_code":null,"gps_code":null,"local_code":null,"home_link":null,"wikipedia_link":null,"keywords":"SDVO, SDVO"},{"id":"35796","ident":"BR-2026","type":"closed","name":"Tropical Ponta Negra Flat Heliport","latitude_deg":"-3.063889","longitude_deg":"-60.106945","elevation_ft":"263","continent":"SA","iso_country":"BR","iso_region":"BR-AM","municipality":"Manaus","scheduled_service":"no","icao_code":null,"iata_code":null,"gps_code":null,"local_code":null,"home_link":null,"wikipedia_link":null,"keywords":"SDXG"},{"id":"35799","ident":"BR-2027","type":"closed","name":"Fazenda Santa Clara Heliport","latitude_deg":"-22.037634","longitude_deg":"-42.337114","elevation_ft":"1411","continent":"SA","iso_country":"BR","iso_region":"BR-RJ","municipality":"Cordeiro","scheduled_service":"no","icao_code":null,"iata_code":null,"gps_code":null,"local_code":null,"home_link":null,"wikipedia_link":null,"keywords":"SDXL, RJ0062"},{"id":"35838","ident":"BR-2028","type":"closed","name":"Aeroandres Heliport","latitude_deg":"-23.395278","longitude_deg":"-46.638889","elevation_ft":"3330","continent":"SA","iso_country":"BR","iso_region":"BR-SP","municipality":"Mairiporã","scheduled_service":"no","icao_code":null,"iata_code":null,"gps_code":null,"local_code":null,"home_link":null,"wikipedia_link":null,"keywords":"SIAA, SP0462"},{"id":"35839","ident":"BR-2029","type":"closed","name":"Hospital de Guaruz Heliport","latitude_deg":"-21.740833","longitude_deg":"-41.311943","elevation_ft":"33","continent":"SA","iso_country":"BR","iso_region":"BR-RJ","municipality":"Campos Dos Goytacazes","scheduled_service":"no","icao_code":null,"iata_code":null,"gps_code":null,"local_code":null,"home_link":null,"wikipedia_link":null,"keywords":"SIAC"},{"id":"35847","ident":"BR-2030","type":"closed","name":"Summerville Heliport","latitude_deg":"-8.434359","longitude_deg":"-34.982083","elevation_ft":"39","continent":"SA","iso_country":"BR","iso_region":"BR-PE","municipality":"Ipojuca","scheduled_service":"no","icao_code":null,"iata_code":null,"gps_code":null,"local_code":null,"home_link":null,"wikipedia_link":null,"keywords":"SIAL, PE0026"},{"id":"35849","ident":"BR-2031","type":"closed","name":"Fazenda Araras Airport","latitude_deg":"-19.62966","longitude_deg":"-55.254687","elevation_ft":"1493","continent":"SA","iso_country":"BR","iso_region":"BR-MS","municipality":"Corguinho","scheduled_service":"no","icao_code":null,"iata_code":null,"gps_code":null,"local_code":null,"home_link":null,"wikipedia_link":null,"keywords":"SIAO, MS0065"},{"id":"35934","ident":"BR-2032","type":"closed","name":"8º Batalhão da Polícia Militar Heliport","latitude_deg":"-26.306389","longitude_deg":"-48.860001","elevation_ft":"98","continent":"SA","iso_country":"BR","iso_region":"BR-SC","municipality":"Joinville","scheduled_service":"no","icao_code":null,"iata_code":null,"gps_code":null,"local_code":null,"home_link":null,"wikipedia_link":null,"keywords":"SIEI"},{"id":"35978","ident":"BR-2033","type":"closed","name":"Fazenda Boa Sorte Airport","latitude_deg":"-21.907733","longitude_deg":"-53.513975","elevation_ft":"1099","continent":"SA","iso_country":"BR","iso_region":"BR-MS","municipality":"Nova Andradina","scheduled_service":"no","icao_code":null,"iata_code":null,"gps_code":null,"local_code":null,"home_link":null,"wikipedia_link":null,"keywords":"SIGL"},{"id":"36100","ident":"BR-2034","type":"closed","name":"Fazenda Três Marias Airport","latitude_deg":"-23.494126","longitude_deg":"-53.802495","elevation_ft":"1210","continent":"SA","iso_country":"BR","iso_region":"BR-PR","municipality":"Alto Paraíso","scheduled_service":"no","icao_code":null,"iata_code":null,"gps_code":null,"local_code":null,"home_link":null,"wikipedia_link":null,"keywords":"SILY, Vila Alta"},{"id":"36155","ident":"BR-2035","type":"closed","name":"Fazenda Santa Helena Airport","latitude_deg":"-21.997223","longitude_deg":"-53.424721","elevation_ft":"952","continent":"SA","iso_country":"BR","iso_region":"BR-MS","municipality":"Nova Andradina","scheduled_service":"no","icao_code":null,"iata_code":null,"gps_code":null,"local_code":null,"home_link":null,"wikipedia_link":null,"keywords":"SIOD, SSHF"},{"id":"36164","ident":"BR-2036","type":"closed","name":"Rio Negro Airport","latitude_deg":"-11.644444","longitude_deg":"-54.071388","elevation_ft":"3445","continent":"SA","iso_country":"BR","iso_region":"BR-MT","municipality":"Feliz Natal","scheduled_service":"no","icao_code":null,"iata_code":null,"gps_code":null,"local_code":null,"home_link":null,"wikipedia_link":null,"keywords":"SION"},{"id":"36211","ident":"BR-2037","type":"closed","name":"Aero Resende Airport","latitude_deg":"-18.131918","longitude_deg":"-49.796308","elevation_ft":"6825","continent":"SA","iso_country":"BR","iso_region":"BR-GO","municipality":"Bom Jesus","scheduled_service":"no","icao_code":null,"iata_code":null,"gps_code":null,"local_code":null,"home_link":null,"wikipedia_link":null,"keywords":"SIQQ"},{"id":"36255","ident":"BR-2038","type":"closed","name":"Brigadeiro Heliport","latitude_deg":"-23.584018","longitude_deg":"-46.669241","elevation_ft":"2523","continent":"SA","iso_country":"BR","iso_region":"BR-SP","municipality":"São Paulo","scheduled_service":"no","icao_code":null,"iata_code":null,"gps_code":null,"local_code":null,"home_link":null,"wikipedia_link":null,"keywords":"SISR"},{"id":"36268","ident":"BR-2039","type":"closed","name":"Madenorte Airport","latitude_deg":"-2.318889","longitude_deg":"-52.914444","elevation_ft":"132","continent":"SA","iso_country":"BR","iso_region":"BR-PA","municipality":"Porto de Moz","scheduled_service":"no","icao_code":null,"iata_code":null,"gps_code":null,"local_code":null,"home_link":null,"wikipedia_link":null,"keywords":"SITI"},{"id":"36328","ident":"BR-2040","type":"closed","name":"Fazenda Santa Rita Airport","latitude_deg":"-14.131665","longitude_deg":"-57.362838","elevation_ft":"2054","continent":"SA","iso_country":"BR","iso_region":"BR-MT","municipality":"Diamantino","scheduled_service":"no","icao_code":null,"iata_code":null,"gps_code":null,"local_code":null,"home_link":null,"wikipedia_link":null,"keywords":"SIWC"},{"id":"36329","ident":"BR-2041","type":"closed","name":"Fazenda Cinco Estrelas Airport","latitude_deg":"-8.363611","longitude_deg":"-58.105","elevation_ft":"493","continent":"SA","iso_country":"BR","iso_region":"BR-MT","municipality":"Apiacás","scheduled_service":"no","icao_code":null,"iata_code":null,"gps_code":null,"local_code":null,"home_link":null,"wikipedia_link":null,"keywords":"SIWD"},{"id":"36332","ident":"BR-2042","type":"closed","name":"Fazenda Frigorífico Atlas Airport","latitude_deg":"-9.4125","longitude_deg":"-50.425556","elevation_ft":"2533","continent":"SA","iso_country":"BR","iso_region":"BR-PA","municipality":"Santana Do Araguaia","scheduled_service":"no","icao_code":null,"iata_code":null,"gps_code":null,"local_code":null,"home_link":null,"wikipedia_link":null,"keywords":"SIWH"},{"id":"36363","ident":"BR-2043","type":"closed","name":"Fazenda Santa Maria Heliport","latitude_deg":"-23.552608","longitude_deg":"-47.361921","elevation_ft":"2598","continent":"SA","iso_country":"BR","iso_region":"BR-SP","municipality":"Votorantim","scheduled_service":"no","icao_code":null,"iata_code":null,"gps_code":null,"local_code":null,"home_link":"https://pergamum.anac.gov.br/arquivos/PA2019-3896.pdf","wikipedia_link":null,"keywords":"SIXR, Sorocaba, SP0573"},{"id":"36364","ident":"BR-2044","type":"closed","name":"Girassol Heliport","latitude_deg":"-23.878900527954","longitude_deg":"-45.447200775146","elevation_ft":"14","continent":"SA","iso_country":"BR","iso_region":"BR-SP","municipality":"Ilhabela","scheduled_service":"no","icao_code":null,"iata_code":null,"gps_code":null,"local_code":null,"home_link":null,"wikipedia_link":null,"keywords":"SIXT, SIXT"},{"id":"36367","ident":"BR-2045","type":"closed","name":"Cimento Poty Airport","latitude_deg":"-7.531886","longitude_deg":"-34.864426","elevation_ft":"1","continent":"SA","iso_country":"BR","iso_region":"BR-PB","municipality":"Caaporá","scheduled_service":"no","icao_code":null,"iata_code":null,"gps_code":null,"local_code":null,"home_link":null,"wikipedia_link":null,"keywords":"SIXW"},{"id":"36370","ident":"BR-2046","type":"closed","name":"Fazenda Spartacus Airport","latitude_deg":"-24.004866","longitude_deg":"-48.614643","elevation_ft":"2346","continent":"SA","iso_country":"BR","iso_region":"BR-SP","municipality":"Taquarivaí","scheduled_service":"no","icao_code":null,"iata_code":null,"gps_code":null,"local_code":null,"home_link":null,"wikipedia_link":null,"keywords":"SIXZ"},{"id":"36380","ident":"BR-2047","type":"closed","name":"Banco do Brasil Andaraí Helipad","latitude_deg":"-22.921199","longitude_deg":"-43.251231","elevation_ft":"99","continent":"SA","iso_country":"BR","iso_region":"BR-RJ","municipality":"Rio de Janeiro","scheduled_service":"no","icao_code":null,"iata_code":null,"gps_code":null,"local_code":null,"home_link":null,"wikipedia_link":null,"keywords":"SIYM"},{"id":"36385","ident":"BR-2048","type":"closed","name":"Santa Terezinha Airport","latitude_deg":"-28.052062","longitude_deg":"-51.958949","elevation_ft":"2199","continent":"SA","iso_country":"BR","iso_region":"BR-RS","municipality":"Tapajara","scheduled_service":"no","icao_code":null,"iata_code":null,"gps_code":null,"local_code":null,"home_link":null,"wikipedia_link":null,"keywords":"SIYR, SWQJ, RS0102"},{"id":"36461","ident":"BR-2049","type":"closed","name":"Forum Trabalhista de 1ª Instância de São Paulo I Helipad","latitude_deg":"-23.522697","longitude_deg":"-46.661671","elevation_ft":"2619","continent":"SA","iso_country":"BR","iso_region":"BR-SP","municipality":"São Paulo","scheduled_service":"no","icao_code":null,"iata_code":null,"gps_code":null,"local_code":null,"home_link":null,"wikipedia_link":null,"keywords":"SJCJ"},{"id":"36468","ident":"BR-2050","type":"closed","name":"Forum Trabalhista de 1ª Instância de São Paulo II Helipad","latitude_deg":"-23.522623","longitude_deg":"-46.662143","elevation_ft":"2619","continent":"SA","iso_country":"BR","iso_region":"BR-SP","municipality":"São Paulo","scheduled_service":"no","icao_code":null,"iata_code":null,"gps_code":null,"local_code":null,"home_link":null,"wikipedia_link":null,"keywords":"SJCR"},{"id":"36494","ident":"BR-2051","type":"closed","name":"Fazenda Redenção Airstrip","latitude_deg":"-19.610632","longitude_deg":"-56.734021","elevation_ft":"325","continent":"SA","iso_country":"BR","iso_region":"BR-MS","municipality":"Aquidauana","scheduled_service":"no","icao_code":null,"iata_code":null,"gps_code":null,"local_code":null,"home_link":null,"wikipedia_link":null,"keywords":"SJDV, MS0154"},{"id":"36502","ident":"BR-2052","type":"closed","name":"Fazenda Ourissanga Airport","latitude_deg":"-20.42027778","longitude_deg":"-51.4452781677","elevation_ft":"1182","continent":"SA","iso_country":"BR","iso_region":"BR-MS","municipality":"Selvíria","scheduled_service":"no","icao_code":null,"iata_code":null,"gps_code":null,"local_code":null,"home_link":null,"wikipedia_link":null,"keywords":"SJEE, SJEE"},{"id":"36512","ident":"BR-2053","type":"closed","name":"Sylvio Quadros Mercês Heliport","latitude_deg":"-12.979164","longitude_deg":"-38.473628","elevation_ft":"168","continent":"SA","iso_country":"BR","iso_region":"BR-BA","municipality":"Salvador","scheduled_service":"no","icao_code":null,"iata_code":null,"gps_code":null,"local_code":null,"home_link":null,"wikipedia_link":null,"keywords":"SJEO"},{"id":"36591","ident":"BR-2054","type":"closed","name":"Frisama Açailândia Airport","latitude_deg":"-4.940974","longitude_deg":"-47.461796","elevation_ft":"926","continent":"SA","iso_country":"BR","iso_region":"BR-MA","municipality":"Açailândia","scheduled_service":"no","icao_code":null,"iata_code":null,"gps_code":null,"local_code":null,"home_link":null,"wikipedia_link":null,"keywords":"SJHX"},{"id":"36610","ident":"BR-2055","type":"closed","name":"Fazenda Futuro Airport","latitude_deg":"-20.347615","longitude_deg":"-53.456944","elevation_ft":"1598","continent":"SA","iso_country":"BR","iso_region":"BR-MS","municipality":"Ribas Do Rio Pardo","scheduled_service":"no","icao_code":null,"iata_code":null,"gps_code":null,"local_code":null,"home_link":null,"wikipedia_link":null,"keywords":"SJIS"},{"id":"36620","ident":"BR-2056","type":"closed","name":"Jijoca de Jericoacoara Airport","latitude_deg":"-2.888889","longitude_deg":"-40.474167","elevation_ft":"66","continent":"SA","iso_country":"BR","iso_region":"BR-CE","municipality":"Jijoca de Jericoacoara","scheduled_service":"no","icao_code":null,"iata_code":null,"gps_code":null,"local_code":null,"home_link":null,"wikipedia_link":null,"keywords":"SJJD"},{"id":"36625","ident":"BR-2057","type":"closed","name":"Novo Horizonte Airport","latitude_deg":"-26.2491664886","longitude_deg":"-51.9033317566","elevation_ft":"3720","continent":"SA","iso_country":"BR","iso_region":"BR-PR","municipality":"Coronel Domingos Soares","scheduled_service":"no","icao_code":null,"iata_code":null,"gps_code":null,"local_code":null,"home_link":null,"wikipedia_link":null,"keywords":"SJJI, SJJI"},{"id":"36652","ident":"BR-2058","type":"closed","name":"Coca-Cola Heliport","latitude_deg":"-18.896666","longitude_deg":"-48.242222","elevation_ft":"3084","continent":"SA","iso_country":"BR","iso_region":"BR-MG","municipality":"Uberlândia","scheduled_service":"no","icao_code":null,"iata_code":null,"gps_code":null,"local_code":null,"home_link":null,"wikipedia_link":null,"keywords":"SJKK"},{"id":"36742","ident":"BR-2059","type":"closed","name":"Estáncia Parque Atibaia Heliport","latitude_deg":"-23.080299","longitude_deg":"-46.581902","elevation_ft":"2874","continent":"SA","iso_country":"BR","iso_region":"BR-SP","municipality":"Atibaia","scheduled_service":"no","icao_code":null,"iata_code":null,"gps_code":null,"local_code":null,"home_link":null,"wikipedia_link":null,"keywords":"SJOB"},{"id":"36744","ident":"BR-2060","type":"closed","name":"Alô Brasil Heliport","latitude_deg":"-22.970556","longitude_deg":"-47.298889","elevation_ft":"1863","continent":"SA","iso_country":"BR","iso_region":"BR-SP","municipality":"Monte Mor","scheduled_service":"no","icao_code":null,"iata_code":null,"gps_code":null,"local_code":null,"home_link":null,"wikipedia_link":null,"keywords":"SJOD"},{"id":"36751","ident":"BR-2061","type":"closed","name":"Fazenda Modelo Airport","latitude_deg":"-19.31431","longitude_deg":"-52.976446","elevation_ft":"2041","continent":"SA","iso_country":"BR","iso_region":"BR-MS","municipality":"Água Clara","scheduled_service":"no","icao_code":null,"iata_code":null,"gps_code":null,"local_code":null,"home_link":null,"wikipedia_link":null,"keywords":"SJOK, MS0178"},{"id":"36783","ident":"BR-2062","type":"closed","name":"Andrieli Base Operacional Airport","latitude_deg":"-15.579879","longitude_deg":"-54.412113","elevation_ft":"2188","continent":"SA","iso_country":"BR","iso_region":"BR-MT","municipality":"Primavera do Leste","scheduled_service":"no","icao_code":null,"iata_code":null,"gps_code":null,"local_code":null,"home_link":null,"wikipedia_link":null,"keywords":"SJPR"},{"id":"36785","ident":"BR-2063","type":"closed","name":"Petrobrás - Refinaria de Capuava Heliport","latitude_deg":"-23.6527786255","longitude_deg":"-46.4799995422","elevation_ft":"2480","continent":"SA","iso_country":"BR","iso_region":"BR-SP","municipality":"Mauá","scheduled_service":"no","icao_code":null,"iata_code":null,"gps_code":null,"local_code":null,"home_link":null,"wikipedia_link":null,"keywords":"SJPT, SJPT"},{"id":"36790","ident":"BR-2064","type":"closed","name":"Coqueiral Heliport","latitude_deg":"-16.485421","longitude_deg":"-39.068166","elevation_ft":"6","continent":"SA","iso_country":"BR","iso_region":"BR-BA","municipality":"Porto Seguro","scheduled_service":"no","icao_code":null,"iata_code":null,"gps_code":null,"local_code":null,"home_link":null,"wikipedia_link":null,"keywords":"SJPY"},{"id":"36898","ident":"BR-2065","type":"closed","name":"Umuarama Heliport","latitude_deg":"-9.742737","longitude_deg":"-35.819442","elevation_ft":"16","continent":"SA","iso_country":"BR","iso_region":"BR-AL","municipality":"Marechal Deodoro","scheduled_service":"no","icao_code":null,"iata_code":null,"gps_code":null,"local_code":null,"home_link":null,"wikipedia_link":null,"keywords":"SJYZ, SJUM"},{"id":"36976","ident":"BR-2066","type":"closed","name":"Alphaville Gramado Heliport","latitude_deg":"-29.383612","longitude_deg":"-50.888332","elevation_ft":"2684","continent":"SA","iso_country":"BR","iso_region":"BR-RS","municipality":"Gramado","scheduled_service":"no","icao_code":null,"iata_code":null,"gps_code":null,"local_code":null,"home_link":null,"wikipedia_link":null,"keywords":"SJXU"},{"id":"36984","ident":"BR-2067","type":"closed","name":"AHE Peixe Angical Airport","latitude_deg":"-12.203100204468","longitude_deg":"-48.469699859619","elevation_ft":"808","continent":"SA","iso_country":"BR","iso_region":"BR-TO","municipality":"Peixe","scheduled_service":"no","icao_code":null,"iata_code":null,"gps_code":null,"local_code":null,"home_link":null,"wikipedia_link":null,"keywords":"SJYC"},{"id":"37004","ident":"BR-2068","type":"closed","name":"Capão Alto Airport","latitude_deg":"-30.67639","longitude_deg":"-51.525276","elevation_ft":"107","continent":"SA","iso_country":"BR","iso_region":"BR-RS","municipality":"Tapes","scheduled_service":"no","icao_code":null,"iata_code":null,"gps_code":null,"local_code":null,"home_link":null,"wikipedia_link":null,"keywords":"SJZA"},{"id":"37040","ident":"BR-2069","type":"closed","name":"Bocaíuva Airport","latitude_deg":"-17.1331","longitude_deg":"-43.815605","elevation_ft":"2395","continent":"SA","iso_country":"BR","iso_region":"BR-MG","municipality":"Bocaíuva","scheduled_service":"no","icao_code":null,"iata_code":null,"gps_code":null,"local_code":null,"home_link":null,"wikipedia_link":null,"keywords":"SNBK"},{"id":"37045","ident":"BR-2070","type":"closed","name":"Calçoene Airport","latitude_deg":"2.497004","longitude_deg":"-50.963176","elevation_ft":"59","continent":"SA","iso_country":"BR","iso_region":"BR-AP","municipality":"Calçoene","scheduled_service":"no","icao_code":null,"iata_code":null,"gps_code":null,"local_code":null,"home_link":null,"wikipedia_link":null,"keywords":"SNCC"},{"id":"37066","ident":"BR-2071","type":"closed","name":"Via Brasil Heliport","latitude_deg":"-19.8419437408","longitude_deg":"-43.9661102295","elevation_ft":"2676","continent":"SA","iso_country":"BR","iso_region":"BR-MG","municipality":"Belo Horizonte","scheduled_service":"no","icao_code":null,"iata_code":null,"gps_code":null,"local_code":null,"home_link":null,"wikipedia_link":null,"keywords":"SNDZ, SNDZ"},{"id":"37078","ident":"BR-2072","type":"closed","name":"Fazenda Forquilha Airport","latitude_deg":"-19.851667","longitude_deg":"-46.709999","elevation_ft":"4370","continent":"SA","iso_country":"BR","iso_region":"BR-MG","municipality":"Tapira","scheduled_service":"no","icao_code":null,"iata_code":null,"gps_code":null,"local_code":null,"home_link":null,"wikipedia_link":null,"keywords":"SNFC"},{"id":"37083","ident":"BR-2073","type":"closed","name":"Francisco Sá Airport","latitude_deg":"-16.437573","longitude_deg":"-43.469187","elevation_ft":"2484","continent":"SA","iso_country":"BR","iso_region":"BR-MG","municipality":"Francisco Sá","scheduled_service":"no","icao_code":null,"iata_code":null,"gps_code":null,"local_code":null,"home_link":null,"wikipedia_link":null,"keywords":"SNFK"},{"id":"37093","ident":"BR-2074","type":"closed","name":"Guimarães Airport","latitude_deg":"-2.118784","longitude_deg":"-44.609563","elevation_ft":"155","continent":"SA","iso_country":"BR","iso_region":"BR-MA","municipality":"Guimarães","scheduled_service":"no","icao_code":null,"iata_code":null,"gps_code":null,"local_code":null,"home_link":null,"wikipedia_link":null,"keywords":"SNGM"},{"id":"37099","ident":"BR-2075","type":"closed","name":"Gurupá Airport","latitude_deg":"-1.416944","longitude_deg":"-51.633888","elevation_ft":"66","continent":"SA","iso_country":"BR","iso_region":"BR-PA","municipality":"Gurupá","scheduled_service":"no","icao_code":null,"iata_code":null,"gps_code":null,"local_code":null,"home_link":null,"wikipedia_link":null,"keywords":"SNGU"},{"id":"37184","ident":"BR-2076","type":"closed","name":"Praia do Forte Airport","latitude_deg":"-12.565371","longitude_deg":"-38.015812","elevation_ft":"49","continent":"SA","iso_country":"BR","iso_region":"BR-BA","municipality":"Mata De São João","scheduled_service":"no","icao_code":null,"iata_code":null,"gps_code":null,"local_code":null,"home_link":null,"wikipedia_link":null,"keywords":"SNNI, SNNI"},{"id":"37198","ident":"BR-2077","type":"closed","name":"Coroatá Airport","latitude_deg":"-4.139998","longitude_deg":"-44.114656","elevation_ft":"157","continent":"SA","iso_country":"BR","iso_region":"BR-MA","municipality":"Coroatá","scheduled_service":"no","icao_code":null,"iata_code":null,"gps_code":null,"local_code":null,"home_link":null,"wikipedia_link":null,"keywords":"SNOA"},{"id":"37212","ident":"BR-2078","type":"closed","name":"Porto Grande Airport","latitude_deg":"0.866388976574","longitude_deg":"-51.4006004333","elevation_ft":"197","continent":"SA","iso_country":"BR","iso_region":"BR-AP","municipality":"Porto Grande","scheduled_service":"no","icao_code":null,"iata_code":null,"gps_code":null,"local_code":null,"home_link":null,"wikipedia_link":null,"keywords":"SNPG, SNPG"},{"id":"37230","ident":"BR-2079","type":"closed","name":"Fazenda Campanário Airport","latitude_deg":"-20.410992","longitude_deg":"-56.530562","elevation_ft":"558","continent":"SA","iso_country":"BR","iso_region":"BR-MS","municipality":"Bodoquena","scheduled_service":"no","icao_code":null,"iata_code":null,"gps_code":null,"local_code":null,"home_link":null,"wikipedia_link":null,"keywords":"SNQO, SSNK, MS0310"},{"id":"37310","ident":"BR-2080","type":"closed","name":"Fazenda São Lucas Airport","latitude_deg":"-20.932222","longitude_deg":"-50.956944","elevation_ft":"1099","continent":"SA","iso_country":"BR","iso_region":"BR-SP","municipality":"Mirandópolis","scheduled_service":"no","icao_code":null,"iata_code":null,"gps_code":null,"local_code":null,"home_link":null,"wikipedia_link":null,"keywords":"SNWB"},{"id":"37319","ident":"BR-2081","type":"closed","name":"Fazenda Ranchinho Airport","latitude_deg":"-18.833332","longitude_deg":"-51.791111","elevation_ft":"1788","continent":"SA","iso_country":"BR","iso_region":"BR-GO","municipality":"Aporé","scheduled_service":"no","icao_code":null,"iata_code":null,"gps_code":null,"local_code":null,"home_link":null,"wikipedia_link":null,"keywords":"SNWL"},{"id":"37328","ident":"BR-2082","type":"closed","name":"Newton Heliport","latitude_deg":"-22.5388889313","longitude_deg":"-47.4194450378","elevation_ft":"2001","continent":"SA","iso_country":"BR","iso_region":"BR-SP","municipality":"Limeira","scheduled_service":"no","icao_code":null,"iata_code":null,"gps_code":null,"local_code":null,"home_link":null,"wikipedia_link":null,"keywords":"SNWX, SNWX"},{"id":"37386","ident":"BR-2083","type":"closed","name":"Fazenda Santana Airport","latitude_deg":"-19.708055","longitude_deg":"-55.421112","elevation_ft":"426","continent":"SA","iso_country":"BR","iso_region":"BR-MS","municipality":"Aquidauana","scheduled_service":"no","icao_code":null,"iata_code":null,"gps_code":null,"local_code":null,"home_link":null,"wikipedia_link":null,"keywords":"SSAC"},{"id":"37403","ident":"BR-2084","type":"closed","name":"Bom Jesus Airport","latitude_deg":"-28.605654","longitude_deg":"-50.451363","elevation_ft":"3514","continent":"SA","iso_country":"BR","iso_region":"BR-RS","municipality":"Bom Jesus","scheduled_service":"no","icao_code":null,"iata_code":null,"gps_code":null,"local_code":null,"home_link":null,"wikipedia_link":null,"keywords":"SSBJ, RS0016"},{"id":"37405","ident":"BR-2085","type":"closed","name":"Fazenda Lageado Airport","latitude_deg":"-20.291135","longitude_deg":"-55.44717","elevation_ft":"650","continent":"SA","iso_country":"BR","iso_region":"BR-MS","municipality":"Dois Irmãos do Buriti","scheduled_service":"no","icao_code":null,"iata_code":null,"gps_code":null,"local_code":null,"home_link":null,"wikipedia_link":null,"keywords":"SSBM, MS0249"},{"id":"37413","ident":"BR-2086","type":"closed","name":"Aeroclube Airport","latitude_deg":"-29.676111","longitude_deg":"-50.981388","elevation_ft":"56","continent":"SA","iso_country":"BR","iso_region":"BR-RS","municipality":"Sapiranga","scheduled_service":"no","icao_code":null,"iata_code":null,"gps_code":null,"local_code":null,"home_link":null,"wikipedia_link":null,"keywords":"SSBZ, SSBE"},{"id":"37429","ident":"BR-2087","type":"closed","name":"Tenoar Airport","latitude_deg":"-18.811943","longitude_deg":"-52.639168","elevation_ft":"2664","continent":"SA","iso_country":"BR","iso_region":"BR-MS","municipality":"Chapadão Do Sul","scheduled_service":"no","icao_code":null,"iata_code":null,"gps_code":null,"local_code":null,"home_link":null,"wikipedia_link":null,"keywords":"SSCZ"},{"id":"37430","ident":"BR-2088","type":"closed","name":"Fazenda Kurupay Airport","latitude_deg":"-22.036142","longitude_deg":"-53.735837","elevation_ft":"1280","continent":"SA","iso_country":"BR","iso_region":"BR-MS","municipality":"Angélica","scheduled_service":"no","icao_code":null,"iata_code":null,"gps_code":null,"local_code":null,"home_link":null,"wikipedia_link":null,"keywords":"SSDB, SWFK, MS0374"},{"id":"37434","ident":"BR-2089","type":"closed","name":"Fazenda Caranday Airport","latitude_deg":"-20.205557","longitude_deg":"-57.063332","elevation_ft":"541","continent":"SA","iso_country":"BR","iso_region":"BR-MS","municipality":"Corumbá","scheduled_service":"no","icao_code":null,"iata_code":null,"gps_code":null,"local_code":null,"home_link":null,"wikipedia_link":null,"keywords":"SSDH"},{"id":"37442","ident":"BR-2090","type":"closed","name":"Fazenda Divisão Airport","latitude_deg":"-23.133888","longitude_deg":"-54.633888","elevation_ft":"1312","continent":"SA","iso_country":"BR","iso_region":"BR-MS","municipality":"Amambaí","scheduled_service":"no","icao_code":null,"iata_code":null,"gps_code":null,"local_code":null,"home_link":null,"wikipedia_link":null,"keywords":"SSDZ"},{"id":"37470","ident":"BR-2091","type":"closed","name":"Fazenda Thoma Airport","latitude_deg":"-21.659200668335","longitude_deg":"-53.511100769043","elevation_ft":"1111","continent":"SA","iso_country":"BR","iso_region":"BR-MS","municipality":"Nova Andradina","scheduled_service":"no","icao_code":null,"iata_code":null,"gps_code":null,"local_code":null,"home_link":null,"wikipedia_link":null,"keywords":"SSFT, SSFT"},{"id":"37484","ident":"BR-2092","type":"closed","name":"Fazenda São Francisco Airport","latitude_deg":"-19.3808326721","longitude_deg":"-53.0416679382","elevation_ft":"1099","continent":"SA","iso_country":"BR","iso_region":"BR-MS","municipality":"Água Clara","scheduled_service":"no","icao_code":null,"iata_code":null,"gps_code":null,"local_code":null,"home_link":null,"wikipedia_link":null,"keywords":"SSGQ, SSGQ"},{"id":"37510","ident":"BR-2093","type":"small_airport","name":"Fazenda Orion Airport","latitude_deg":"-22.021104","longitude_deg":"-56.329251","elevation_ft":"849","continent":"SA","iso_country":"BR","iso_region":"BR-MS","municipality":"Bela Vista","scheduled_service":"no","icao_code":null,"iata_code":null,"gps_code":"SS8C","local_code":"MS0629","home_link":null,"wikipedia_link":null,"keywords":"SSII"},{"id":"37567","ident":"BR-2094","type":"closed","name":"Marrecão Airport","latitude_deg":"-27.065844","longitude_deg":"-48.889318","elevation_ft":"68","continent":"SA","iso_country":"BR","iso_region":"BR-SC","municipality":"Brusque","scheduled_service":"no","icao_code":null,"iata_code":null,"gps_code":null,"local_code":null,"home_link":null,"wikipedia_link":null,"keywords":"SSMA"},{"id":"37579","ident":"BR-2095","type":"closed","name":"Fazenda São Benedito Airport","latitude_deg":"-18.42","longitude_deg":"-56.46","elevation_ft":"394","continent":"SA","iso_country":"BR","iso_region":"BR-MS","municipality":"Corumbá","scheduled_service":"no","icao_code":null,"iata_code":null,"gps_code":null,"local_code":null,"home_link":null,"wikipedia_link":null,"keywords":"SSNE, SSNE"},{"id":"37609","ident":"BR-2096","type":"closed","name":"Fazenda Reserva Airport","latitude_deg":"-25.849569","longitude_deg":"-52.014685","elevation_ft":"3438","continent":"SA","iso_country":"BR","iso_region":"BR-PR","municipality":"Reserva do Iguaçu","scheduled_service":"no","icao_code":null,"iata_code":null,"gps_code":null,"local_code":null,"home_link":null,"wikipedia_link":null,"keywords":"SSPJ"},{"id":"37611","ident":"BR-2097","type":"closed","name":"Fazenda Palma Airport","latitude_deg":"-31.654005","longitude_deg":"-52.206622","elevation_ft":"39","continent":"SA","iso_country":"BR","iso_region":"BR-RS","municipality":"Pelotas","scheduled_service":"no","icao_code":null,"iata_code":null,"gps_code":null,"local_code":null,"home_link":null,"wikipedia_link":null,"keywords":"SSPP"},{"id":"37613","ident":"BR-2098","type":"closed","name":"Fazenda Princesa do Sul Airport","latitude_deg":"-23.771099090576","longitude_deg":"-54.677799224854","elevation_ft":"1053","continent":"SA","iso_country":"BR","iso_region":"BR-MS","municipality":"Japoré","scheduled_service":"no","icao_code":null,"iata_code":null,"gps_code":null,"local_code":null,"home_link":null,"wikipedia_link":null,"keywords":"SSPZ, SSPZ"},{"id":"37620","ident":"BR-2099","type":"closed","name":"Viaoeste - Castelo III Heliport","latitude_deg":"-23.506069","longitude_deg":"-46.855314","elevation_ft":"2467","continent":"SA","iso_country":"BR","iso_region":"BR-SP","municipality":"Barueri","scheduled_service":"no","icao_code":null,"iata_code":null,"gps_code":null,"local_code":null,"home_link":null,"wikipedia_link":null,"keywords":"SSQK"},{"id":"37624","ident":"BR-2100","type":"closed","name":"Pedra do Sino Heliport","latitude_deg":"-20.899445","longitude_deg":"-43.818611","elevation_ft":"3596","continent":"SA","iso_country":"BR","iso_region":"BR-MG","municipality":"Carandaí","scheduled_service":"no","icao_code":null,"iata_code":null,"gps_code":null,"local_code":null,"home_link":null,"wikipedia_link":null,"keywords":"SSQQ"},{"id":"37636","ident":"BR-2101","type":"closed","name":"Fazenda dos Sonhos Airport","latitude_deg":"-20.762013","longitude_deg":"-56.032548","elevation_ft":"551","continent":"SA","iso_country":"BR","iso_region":"BR-MS","municipality":"Anastácio","scheduled_service":"no","icao_code":null,"iata_code":null,"gps_code":null,"local_code":null,"home_link":null,"wikipedia_link":null,"keywords":"SSRI, SIFS, MS0083"},{"id":"37705","ident":"BR-2102","type":"closed","name":"Fazenda Sorte Grande Airport","latitude_deg":"-24.61","longitude_deg":"-52.36","elevation_ft":"2339","continent":"SA","iso_country":"BR","iso_region":"BR-PR","municipality":"Roncador","scheduled_service":"no","icao_code":null,"iata_code":null,"gps_code":null,"local_code":null,"home_link":null,"wikipedia_link":null,"keywords":"SSWB, SSWB"},{"id":"37725","ident":"BR-2103","type":"closed","name":"Fazenda Alvorada do Marape Airport","latitude_deg":"-12.887366","longitude_deg":"-56.736478","elevation_ft":"1001","continent":"SA","iso_country":"BR","iso_region":"BR-MT","municipality":"Tapurá","scheduled_service":"no","icao_code":null,"iata_code":null,"gps_code":null,"local_code":null,"home_link":null,"wikipedia_link":null,"keywords":"SSXK"},{"id":"37733","ident":"BR-2104","type":"closed","name":"Fazenda Fartura Airport","latitude_deg":"-3.159407","longitude_deg":"-48.543434","elevation_ft":"276","continent":"SA","iso_country":"BR","iso_region":"BR-PA","municipality":"Tomé Açu","scheduled_service":"no","icao_code":null,"iata_code":null,"gps_code":null,"local_code":null,"home_link":null,"wikipedia_link":null,"keywords":"SSXU"},{"id":"37781","ident":"BR-2105","type":"closed","name":"Agroer Aviação Agrícola Airport","latitude_deg":"-16.483887","longitude_deg":"-54.667221","elevation_ft":"827","continent":"SA","iso_country":"BR","iso_region":"BR-MT","municipality":"Rondonópolis","scheduled_service":"no","icao_code":null,"iata_code":null,"gps_code":null,"local_code":null,"home_link":null,"wikipedia_link":null,"keywords":"SWAF"},{"id":"37784","ident":"BR-2106","type":"closed","name":"Arenápolis Airport","latitude_deg":"-14.500278","longitude_deg":"-57.017223","elevation_ft":"1329","continent":"SA","iso_country":"BR","iso_region":"BR-MT","municipality":"Arenápolis","scheduled_service":"no","icao_code":null,"iata_code":null,"gps_code":null,"local_code":null,"home_link":null,"wikipedia_link":null,"keywords":"SWAN"},{"id":"37786","ident":"BR-2107","type":"closed","name":"Fazenda Apemag Airport","latitude_deg":"-15.333611","longitude_deg":"-57.317223","elevation_ft":"951","continent":"SA","iso_country":"BR","iso_region":"BR-MT","municipality":"Barra do Bugres","scheduled_service":"no","icao_code":null,"iata_code":null,"gps_code":null,"local_code":null,"home_link":null,"wikipedia_link":null,"keywords":"SWAP"},{"id":"37791","ident":"BR-2108","type":"closed","name":"Fazenda Água Verde Airport","latitude_deg":"-14.072778","longitude_deg":"-57.454723","elevation_ft":"2037","continent":"SA","iso_country":"BR","iso_region":"BR-MT","municipality":"Diamantino","scheduled_service":"no","icao_code":null,"iata_code":null,"gps_code":null,"local_code":null,"home_link":null,"wikipedia_link":null,"keywords":"SWAV"},{"id":"37847","ident":"BR-2109","type":"closed","name":"Fazenda Marazul Airport","latitude_deg":"-16.541854","longitude_deg":"-55.91845","elevation_ft":"479","continent":"SA","iso_country":"BR","iso_region":"BR-MT","municipality":"Barão de Melgaço","scheduled_service":"no","icao_code":null,"iata_code":null,"gps_code":null,"local_code":null,"home_link":null,"wikipedia_link":null,"keywords":"SWEJ"},{"id":"37854","ident":"BR-2110","type":"closed","name":"Fazenda Marazul III Airport","latitude_deg":"-16.591400146484","longitude_deg":"-55.986698150635","elevation_ft":"505","continent":"SA","iso_country":"BR","iso_region":"BR-MT","municipality":"Barão De Melgaço","scheduled_service":"no","icao_code":null,"iata_code":null,"gps_code":null,"local_code":null,"home_link":null,"wikipedia_link":null,"keywords":"SWEQ"},{"id":"37856","ident":"BR-2111","type":"closed","name":"ESAT Aerotáxi Heliport","latitude_deg":"-15.791","longitude_deg":"-47.8948","elevation_ft":"3678","continent":"SA","iso_country":"BR","iso_region":"BR-DF","municipality":"Brasília","scheduled_service":"no","icao_code":null,"iata_code":null,"gps_code":null,"local_code":null,"home_link":null,"wikipedia_link":null,"keywords":"SWES"},{"id":"37859","ident":"BR-2112","type":"closed","name":"Fazenda Piraim Airport","latitude_deg":"-16.251699447632","longitude_deg":"-56.087501525879","elevation_ft":"446","continent":"SA","iso_country":"BR","iso_region":"BR-MT","municipality":"Nossa Senhora Do Livramento","scheduled_service":"no","icao_code":null,"iata_code":null,"gps_code":null,"local_code":null,"home_link":null,"wikipedia_link":null,"keywords":"SWEV, SWEV"},{"id":"37929","ident":"BR-2113","type":"closed","name":"Fazenda São Paulo - Retiro Santa Maria Airport","latitude_deg":"-15.14","longitude_deg":"-51.254444","elevation_ft":"984","continent":"SA","iso_country":"BR","iso_region":"BR-GO","municipality":"Britânia","scheduled_service":"no","icao_code":null,"iata_code":null,"gps_code":null,"local_code":null,"home_link":null,"wikipedia_link":null,"keywords":"SWJO"},{"id":"37948","ident":"BR-2114","type":"closed","name":"Pontes e Lacerda Airport","latitude_deg":"-15.231111","longitude_deg":"-59.34111","elevation_ft":"1148","continent":"SA","iso_country":"BR","iso_region":"BR-MT","municipality":"Pontes E Lacerda","scheduled_service":"no","icao_code":null,"iata_code":null,"gps_code":null,"local_code":null,"home_link":null,"wikipedia_link":null,"keywords":"SWLE"},{"id":"37977","ident":"BR-2115","type":"closed","name":"Tamboré  Heliport","latitude_deg":"-23.509953","longitude_deg":"-46.825332","elevation_ft":"2444","continent":"SA","iso_country":"BR","iso_region":"BR-SP","municipality":"Barueri","scheduled_service":"no","icao_code":null,"iata_code":null,"gps_code":null,"local_code":null,"home_link":null,"wikipedia_link":null,"keywords":"SWND, SP0818"},{"id":"37986","ident":"BR-2116","type":"closed","name":"Nortelândia Airport","latitude_deg":"-14.473833","longitude_deg":"-56.766895","elevation_ft":"1460","continent":"SA","iso_country":"BR","iso_region":"BR-MT","municipality":"Nortelândia","scheduled_service":"no","icao_code":null,"iata_code":null,"gps_code":null,"local_code":null,"home_link":null,"wikipedia_link":null,"keywords":"SWNR, MT0019"},{"id":"38005","ident":"BR-2117","type":"closed","name":"Fazenda Surucucu Airport","latitude_deg":"-16.743335","longitude_deg":"-47.991669","elevation_ft":"3148","continent":"SA","iso_country":"BR","iso_region":"BR-GO","municipality":"Luziânia","scheduled_service":"no","icao_code":null,"iata_code":null,"gps_code":null,"local_code":null,"home_link":null,"wikipedia_link":null,"keywords":"SWOQ"},{"id":"38015","ident":"BR-2118","type":"closed","name":"Pedro Afonso Airport","latitude_deg":"-8.997572","longitude_deg":"-48.155372","elevation_ft":"630","continent":"SA","iso_country":"BR","iso_region":"BR-TO","municipality":"Pedro Afonso","scheduled_service":"no","icao_code":null,"iata_code":null,"gps_code":null,"local_code":null,"home_link":null,"wikipedia_link":null,"keywords":"SWPA"},{"id":"38020","ident":"BR-2119","type":"closed","name":"Porto dos Gaúchos Airport","latitude_deg":"-11.5404","longitude_deg":"-57.3782","elevation_ft":"1312","continent":"SA","iso_country":"BR","iso_region":"BR-MT","municipality":"Porto dos Gaúchos","scheduled_service":"no","icao_code":null,"iata_code":null,"gps_code":null,"local_code":null,"home_link":null,"wikipedia_link":"https://pt.wikipedia.org/wiki/Aeroporto_de_Porto_dos_Ga%C3%BAchos","keywords":"SWPG, SWPG, PBV, MT0010"},{"id":"38029","ident":"BR-2120","type":"closed","name":"Porto São Sebastião Airport","latitude_deg":"-12.966944","longitude_deg":"-56.183887","elevation_ft":"1106","continent":"SA","iso_country":"BR","iso_region":"BR-MT","municipality":"Diamantino","scheduled_service":"no","icao_code":null,"iata_code":null,"gps_code":null,"local_code":null,"home_link":null,"wikipedia_link":null,"keywords":"SWPS"},{"id":"38031","ident":"BR-2121","type":"closed","name":"Planaltina Airport","latitude_deg":"-15.680044","longitude_deg":"-47.540225","elevation_ft":"3822","continent":"SA","iso_country":"BR","iso_region":"BR-DF","municipality":"Brasília","scheduled_service":"no","icao_code":null,"iata_code":null,"gps_code":null,"local_code":null,"home_link":null,"wikipedia_link":null,"keywords":"SWPV, DF0002"},{"id":"38072","ident":"BR-2122","type":"closed","name":"Fazenda Silmar Airport","latitude_deg":"-16.165","longitude_deg":"-60.114445","elevation_ft":"863","continent":"SA","iso_country":"BR","iso_region":"BR-MT","municipality":"Vila Bela Da Santíssima Trindade","scheduled_service":"no","icao_code":null,"iata_code":null,"gps_code":null,"local_code":null,"home_link":null,"wikipedia_link":null,"keywords":"SWSS"},{"id":"38077","ident":"BR-2123","type":"closed","name":"Seringal Nova Olinda Airport","latitude_deg":"-10.100445","longitude_deg":"-69.21258","elevation_ft":"673","continent":"SA","iso_country":"BR","iso_region":"BR-AC","municipality":"Sena Madureira","scheduled_service":"no","icao_code":null,"iata_code":null,"gps_code":null,"local_code":null,"home_link":null,"wikipedia_link":null,"keywords":"SWSX"},{"id":"38082","ident":"BR-2124","type":"closed","name":"Tocantínia Airport","latitude_deg":"-9.545695","longitude_deg":"-48.399067","elevation_ft":"656","continent":"SA","iso_country":"BR","iso_region":"BR-TO","municipality":"Tocantínia","scheduled_service":"no","icao_code":null,"iata_code":null,"gps_code":null,"local_code":null,"home_link":null,"wikipedia_link":null,"keywords":"NTM, SWTC, Miracema do Norte"},{"id":"38089","ident":"BR-2125","type":"closed","name":"Fazenda Santos Reis Airport","latitude_deg":"-16.266666","longitude_deg":"-59.150002","elevation_ft":"879","continent":"SA","iso_country":"BR","iso_region":"BR-MT","municipality":"Porto Esperidião","scheduled_service":"no","icao_code":null,"iata_code":null,"gps_code":null,"local_code":null,"home_link":null,"wikipedia_link":null,"keywords":"SWTM"},{"id":"38098","ident":"BR-2126","type":"closed","name":"Luciára Airport","latitude_deg":"-11.231673","longitude_deg":"-50.672544","elevation_ft":"689","continent":"SA","iso_country":"BR","iso_region":"BR-MT","municipality":"Luciára","scheduled_service":"no","icao_code":null,"iata_code":null,"gps_code":null,"local_code":null,"home_link":null,"wikipedia_link":null,"keywords":"SWUC, MT0028"},{"id":"38106","ident":"BR-2127","type":"closed","name":"Fazenda Santo André Airport","latitude_deg":"-13.6863889694","longitude_deg":"-55.9872207642","elevation_ft":"1529","continent":"SA","iso_country":"BR","iso_region":"BR-MT","municipality":"Nova Mutum","scheduled_service":"no","icao_code":null,"iata_code":null,"gps_code":null,"local_code":null,"home_link":null,"wikipedia_link":null,"keywords":"SWUO, SWUO"},{"id":"38116","ident":"BR-2128","type":"closed","name":"Fazenda Vista Alegre Airport","latitude_deg":"-9.788611","longitude_deg":"-68.007225","elevation_ft":"666","continent":"SA","iso_country":"BR","iso_region":"BR-AC","municipality":"Bujari","scheduled_service":"no","icao_code":null,"iata_code":null,"gps_code":null,"local_code":null,"home_link":null,"wikipedia_link":null,"keywords":"SWVE"},{"id":"38119","ident":"BR-2129","type":"closed","name":"Fazenda Pirassununga Airport","latitude_deg":"-11.517778","longitude_deg":"-48.31111","elevation_ft":"787","continent":"SA","iso_country":"BR","iso_region":"BR-TO","municipality":"São Valério","scheduled_service":"no","icao_code":null,"iata_code":null,"gps_code":null,"local_code":null,"home_link":null,"wikipedia_link":null,"keywords":"SWVI"},{"id":"38148","ident":"BR-2130","type":"closed","name":"Chácara Córrego Fundo Airport","latitude_deg":"-15.59","longitude_deg":"-56.05","elevation_ft":"630","continent":"SA","iso_country":"BR","iso_region":"BR-MT","municipality":"Cuiabá","scheduled_service":"no","icao_code":null,"iata_code":null,"gps_code":null,"local_code":null,"home_link":null,"wikipedia_link":null,"keywords":"SWXF, SWXF"},{"id":"38162","ident":"BR-2131","type":"closed","name":"Cotia Foods S/A Heliport","latitude_deg":"-23.6191673279","longitude_deg":"-46.881942749","elevation_ft":"2707","continent":"SA","iso_country":"BR","iso_region":"BR-SP","municipality":"Cotia","scheduled_service":"no","icao_code":null,"iata_code":null,"gps_code":null,"local_code":null,"home_link":null,"wikipedia_link":null,"keywords":"SWYD, SWYD"},{"id":"38163","ident":"BR-2132","type":"closed","name":"Minas Empreendimentos Heliport","latitude_deg":"-19.901388","longitude_deg":"-44.06472","elevation_ft":"2979","continent":"SA","iso_country":"BR","iso_region":"BR-MG","municipality":"Contagem","scheduled_service":"no","icao_code":null,"iata_code":null,"gps_code":null,"local_code":null,"home_link":null,"wikipedia_link":null,"keywords":"SWYF"},{"id":"38168","ident":"BR-2133","type":"closed","name":"Autódromo José Carlos Pace Heliport","latitude_deg":"-23.7033","longitude_deg":"-46.6995","elevation_ft":"2595","continent":"SA","iso_country":"BR","iso_region":"BR-SP","municipality":"São Paulo","scheduled_service":"no","icao_code":null,"iata_code":null,"gps_code":null,"local_code":null,"home_link":null,"wikipedia_link":null,"keywords":"SWYL, Interlagos Raceway"},{"id":"38192","ident":"BR-2134","type":"closed","name":"Fazenda Ponto de Apoio Airport","latitude_deg":"-20.463225","longitude_deg":"-52.686535","elevation_ft":"1319","continent":"SA","iso_country":"BR","iso_region":"BR-MS","municipality":"Água Clara","scheduled_service":"no","icao_code":null,"iata_code":null,"gps_code":null,"local_code":null,"home_link":null,"wikipedia_link":null,"keywords":"SWZR, SJJN, MS0403"},{"id":"38194","ident":"BR-2135","type":"closed","name":"Fazenda Rodoserv I Airport","latitude_deg":"-22.472779","longitude_deg":"-52.595833","elevation_ft":"1001","continent":"SA","iso_country":"BR","iso_region":"BR-MS","municipality":"Ivinhema","scheduled_service":"no","icao_code":null,"iata_code":null,"gps_code":null,"local_code":null,"home_link":null,"wikipedia_link":null,"keywords":"SWZU"},{"id":"38195","ident":"BR-2136","type":"closed","name":"Fazenda Rodoserv III Airport","latitude_deg":"-21.868957","longitude_deg":"-56.771121","elevation_ft":"1001","continent":"SA","iso_country":"BR","iso_region":"BR-MS","municipality":"Bela Vista","scheduled_service":"no","icao_code":null,"iata_code":null,"gps_code":null,"local_code":null,"home_link":null,"wikipedia_link":null,"keywords":"SWZV, MS0404"},{"id":"41684","ident":"BR-2137","type":"closed","name":"Fazenda Eldorado - Agropecuária Paleana S/A Airport","latitude_deg":"-12.154167","longitude_deg":"-51.686943","elevation_ft":"1108","continent":"SA","iso_country":"BR","iso_region":"BR-MT","municipality":"Bom Jesus Do Araguaia","scheduled_service":"no","icao_code":null,"iata_code":null,"gps_code":null,"local_code":null,"home_link":null,"wikipedia_link":null,"keywords":"SISB"},{"id":"42794","ident":"BR-2138","type":"closed","name":"Fazenda Santa Carolina","latitude_deg":"-22.131001","longitude_deg":"-48.319302","elevation_ft":"2302","continent":"SA","iso_country":"BR","iso_region":"BR-SP","municipality":"Dourado","scheduled_service":"no","icao_code":null,"iata_code":null,"gps_code":null,"local_code":null,"home_link":null,"wikipedia_link":null,"keywords":"SDDU"},{"id":"45566","ident":"BR-2139","type":"closed","name":"São Paulo do Piauí Airport","latitude_deg":"-17.012805","longitude_deg":"-39.181545","elevation_ft":"82","continent":"SA","iso_country":"BR","iso_region":"BR-BA","municipality":"Prado","scheduled_service":"no","icao_code":null,"iata_code":null,"gps_code":null,"local_code":null,"home_link":null,"wikipedia_link":null,"keywords":"SIUT"},{"id":"45598","ident":"BR-2140","type":"closed","name":"Recanto Airport","latitude_deg":"-12.99667","longitude_deg":"-51.906681","elevation_ft":"1335","continent":"SA","iso_country":"BR","iso_region":"BR-MT","municipality":"Ribeirão Cascalheira","scheduled_service":"no","icao_code":null,"iata_code":null,"gps_code":null,"local_code":null,"home_link":null,"wikipedia_link":null,"keywords":"SWLG"},{"id":"46101","ident":"BR-2141","type":"closed","name":"Fazenda Quebracho Brasil Airport","latitude_deg":"-21.848368","longitude_deg":"-57.899913","elevation_ft":"266","continent":"SA","iso_country":"BR","iso_region":"BR-MS","municipality":"Porto Murtinho","scheduled_service":"no","icao_code":null,"iata_code":null,"gps_code":null,"local_code":null,"home_link":null,"wikipedia_link":null,"keywords":"SDMQ, MS0039"},{"id":"46212","ident":"BR-2142","type":"closed","name":"Viana III Heliport","latitude_deg":"-27.007644","longitude_deg":"-48.610543","elevation_ft":"13","continent":"SA","iso_country":"BR","iso_region":"BR-SC","municipality":"Balneário Camboriú","scheduled_service":"no","icao_code":null,"iata_code":null,"gps_code":null,"local_code":null,"home_link":null,"wikipedia_link":null,"keywords":"SSJD, SC0094"},{"id":"46214","ident":"BR-2143","type":"closed","name":"Jirau Hydroelectric Plant Airport","latitude_deg":"-9.288032","longitude_deg":"-64.625487","elevation_ft":"295","continent":"SA","iso_country":"BR","iso_region":"BR-RO","municipality":"Jaci Paraná","scheduled_service":"no","icao_code":null,"iata_code":null,"gps_code":null,"local_code":null,"home_link":null,"wikipedia_link":null,"keywords":"SWGF"},