[{"id":"321065","ident":"ES-0117","type":"small_airport","name":"Alcolea Airstrip","latitude_deg":"37.945619","longitude_deg":"-4.615416","elevation_ft":"463","continent":"EU","iso_country":"ES","iso_region":"ES-AN","municipality":"Alcolea","scheduled_service":"no","icao_code":null,"iata_code":null,"gps_code":"LEAE","local_code":null,"home_link":null,"wikipedia_link":null,"keywords":null},{"id":"321066","ident":"ES-0118","type":"small_airport","name":"Alcolea de Cinca","latitude_deg":"41.734222","longitude_deg":"0.10758333","elevation_ft":"722","continent":"EU","iso_country":"ES","iso_region":"ES-AR","municipality":"Alcolea de la Cinca","scheduled_service":"no","icao_code":null,"iata_code":null,"gps_code":null,"local_code":null,"home_link":"http://www.aerocinca.com/index.html","wikipedia_link":null,"keywords":null},{"id":"321067","ident":"ES-0119","type":"small_airport","name":"Campo de vuelo de Villanueva del Trabuco","latitude_deg":"37.0634284","longitude_deg":"-4.3303351","elevation_ft":"2123","continent":"EU","iso_country":"ES","iso_region":"ES-AN","municipality":"Villanueva del Trabuco","scheduled_service":"no","icao_code":null,"iata_code":null,"gps_code":null,"local_code":null,"home_link":null,"wikipedia_link":null,"keywords":null},{"id":"321068","ident":"ES-0120","type":"small_airport","name":"Villafranca de Cordoba","latitude_deg":"37.936706","longitude_deg":"-4.532632","elevation_ft":"656","continent":"EU","iso_country":"ES","iso_region":"ES-AN","municipality":null,"scheduled_service":"no","icao_code":null,"iata_code":null,"gps_code":"LEVJ","local_code":null,"home_link":null,"wikipedia_link":null,"keywords":null},{"id":"321082","ident":"ES-0121","type":"small_airport","name":"Beteta Airfield","latitude_deg":"40.540575","longitude_deg":"-2.076845","elevation_ft":"4265","continent":"EU","iso_country":"ES","iso_region":"ES-CM","municipality":"Beteta","scheduled_service":"no","icao_code":null,"iata_code":null,"gps_code":null,"local_code":null,"home_link":null,"wikipedia_link":null,"keywords":null},{"id":"321083","ident":"ES-0122","type":"closed","name":"Huevar 2","latitude_deg":"37.386693","longitude_deg":"-6.250106","elevation_ft":"69","continent":"EU","iso_country":"ES","iso_region":"ES-AN","municipality":"Huevar","scheduled_service":"no","icao_code":null,"iata_code":null,"gps_code":null,"local_code":null,"home_link":null,"wikipedia_link":null,"keywords":null},{"id":"321093","ident":"ES-0123","type":"small_airport","name":"Aerodrom Tapioles","latitude_deg":"42.225478","longitude_deg":"2.615891","elevation_ft":"787","continent":"EU","iso_country":"ES","iso_region":"ES-CT","municipality":"Tortellà","scheduled_service":"no","icao_code":null,"iata_code":null,"gps_code":null,"local_code":null,"home_link":null,"wikipedia_link":null,"keywords":null},{"id":"321094","ident":"ES-0124","type":"small_airport","name":"Les Planes UL","latitude_deg":"40.620435","longitude_deg":"0.479976","elevation_ft":"425","continent":"EU","iso_country":"ES","iso_region":"ES-CT","municipality":"Ulldecona","scheduled_service":"no","icao_code":null,"iata_code":null,"gps_code":null,"local_code":null,"home_link":null,"wikipedia_link":null,"keywords":null},{"id":"321111","ident":"ES-0125","type":"small_airport","name":"Aeródromo de Villa María","latitude_deg":"37.9273008","longitude_deg":"-1.7751475","elevation_ft":"2740","continent":"EU","iso_country":"ES","iso_region":"ES-MC","municipality":"Coy (Lorca)","scheduled_service":"no","icao_code":null,"iata_code":null,"gps_code":null,"local_code":null,"home_link":null,"wikipedia_link":null,"keywords":null},{"id":"321112","ident":"ES-0126","type":"small_airport","name":"Aires de Doñana","latitude_deg":"37.25689","longitude_deg":"-6.562895","elevation_ft":"213","continent":"EU","iso_country":"ES","iso_region":"ES-AN","municipality":"Almonte","scheduled_service":"no","icao_code":null,"iata_code":null,"gps_code":null,"local_code":null,"home_link":"http://www.aeroclubdehuelva.es/","wikipedia_link":null,"keywords":null},{"id":"321113","ident":"ES-0127","type":"small_airport","name":"Aeroclub L’Estartit","latitude_deg":"42.0310336","longitude_deg":"3.1793314","elevation_ft":"10","continent":"EU","iso_country":"ES","iso_region":"ES-CT","municipality":"Estartit","scheduled_service":"no","icao_code":null,"iata_code":null,"gps_code":null,"local_code":null,"home_link":null,"wikipedia_link":null,"keywords":null},{"id":"321131","ident":"ES-0128","type":"small_airport","name":"Aeròdrom de Llabiá","latitude_deg":"42.011798","longitude_deg":"3.089483","elevation_ft":null,"continent":"EU","iso_country":"ES","iso_region":"ES-CT","municipality":"Llabiá","scheduled_service":"no","icao_code":null,"iata_code":null,"gps_code":null,"local_code":null,"home_link":null,"wikipedia_link":null,"keywords":null},{"id":"321132","ident":"ES-0129","type":"small_airport","name":"Aeródromo Juan Espadafor","latitude_deg":"37.089503","longitude_deg":"-3.788322","elevation_ft":null,"continent":"EU","iso_country":"ES","iso_region":"ES-AN","municipality":"Escúzar","scheduled_service":"no","icao_code":null,"iata_code":null,"gps_code":"LEJE","local_code":null,"home_link":"https://web.archive.org/web/20190502151940/http://aerodromojuanespadafor.com:80/wp/","wikipedia_link":null,"keywords":null},{"id":"321164","ident":"ES-0130","type":"small_airport","name":"Alcocer de Planes Airfield","latitude_deg":"38.791395","longitude_deg":"-0.398591","elevation_ft":null,"continent":"EU","iso_country":"ES","iso_region":"ES-VC","municipality":"Alcocer de Planes","scheduled_service":"no","icao_code":null,"iata_code":null,"gps_code":null,"local_code":null,"home_link":null,"wikipedia_link":null,"keywords":"Escuela de Pilotos La Montaña"},{"id":"321165","ident":"ES-0131","type":"small_airport","name":"Aeroclub de Barbastro","latitude_deg":"41.994251","longitude_deg":"0.092153","elevation_ft":null,"continent":"EU","iso_country":"ES","iso_region":"ES-AR","municipality":"Barbastro","scheduled_service":"no","icao_code":null,"iata_code":null,"gps_code":null,"local_code":null,"home_link":null,"wikipedia_link":null,"keywords":null},{"id":"321166","ident":"ES-0132","type":"small_airport","name":"Alats Club Bellvei","latitude_deg":"41.2443358","longitude_deg":"1.5632892","elevation_ft":"302","continent":"EU","iso_country":"ES","iso_region":"ES-CT","municipality":"Bellvei","scheduled_service":"no","icao_code":null,"iata_code":null,"gps_code":null,"local_code":null,"home_link":null,"wikipedia_link":null,"keywords":null},{"id":"321178","ident":"ES-0133","type":"closed","name":"Valdecebro Forestry Airstrip","latitude_deg":"40.353799","longitude_deg":"-1.013488","elevation_ft":"3822","continent":"EU","iso_country":"ES","iso_region":"ES-AR","municipality":"Valdecebro","scheduled_service":"no","icao_code":null,"iata_code":null,"gps_code":null,"local_code":null,"home_link":null,"wikipedia_link":null,"keywords":null},{"id":"321179","ident":"ES-0134","type":"small_airport","name":"Aeródromo de Valdelaguna","latitude_deg":"40.15787","longitude_deg":"-3.38066","elevation_ft":"2549","continent":"EU","iso_country":"ES","iso_region":"ES-MD","municipality":"Valdelaguna","scheduled_service":"no","icao_code":null,"iata_code":null,"gps_code":null,"local_code":null,"home_link":null,"wikipedia_link":null,"keywords":null},{"id":"321180","ident":"ES-0135","type":"small_airport","name":"Valdepeñas Airfield","latitude_deg":"38.792309","longitude_deg":"-3.371537","elevation_ft":"2395","continent":"EU","iso_country":"ES","iso_region":"ES-CM","municipality":"Valdepeñas","scheduled_service":"no","icao_code":null,"iata_code":null,"gps_code":"LEVP","local_code":null,"home_link":null,"wikipedia_link":null,"keywords":"Manuel Sanchez"},{"id":"321218","ident":"ES-0136","type":"small_airport","name":"Aeródromo de Sigüenza","latitude_deg":"41.044793","longitude_deg":"-2.629209","elevation_ft":"3445","continent":"EU","iso_country":"ES","iso_region":"ES-CM","municipality":"Sigüenza","scheduled_service":"no","icao_code":null,"iata_code":null,"gps_code":"LESZ","local_code":null,"home_link":"http://www.aeroclubseguntino.com/","wikipedia_link":null,"keywords":null},{"id":"321221","ident":"ES-0137","type":"closed","name":"Urda Agricultural Airstrip","latitude_deg":"39.405432","longitude_deg":"-3.829932","elevation_ft":null,"continent":"EU","iso_country":"ES","iso_region":"ES-CM","municipality":"Urda","scheduled_service":"no","icao_code":null,"iata_code":null,"gps_code":null,"local_code":null,"home_link":null,"wikipedia_link":null,"keywords":null},{"id":"321222","ident":"ES-0138","type":"small_airport","name":"Isla Cristina Agricultural Airstrip","latitude_deg":"37.242111","longitude_deg":"-7.317649","elevation_ft":"144","continent":"EU","iso_country":"ES","iso_region":"ES-AN","municipality":"Isla Cristina","scheduled_service":"no","icao_code":null,"iata_code":null,"gps_code":null,"local_code":null,"home_link":null,"wikipedia_link":null,"keywords":null},{"id":"321292","ident":"ES-0139","type":"small_airport","name":"Aeroclub Gregal","latitude_deg":"39.220457","longitude_deg":"-0.36825","elevation_ft":"30","continent":"EU","iso_country":"ES","iso_region":"ES-VC","municipality":"Albalat de la Ribera","scheduled_service":"no","icao_code":null,"iata_code":null,"gps_code":null,"local_code":null,"home_link":"http://volarenvalencia.es","wikipedia_link":null,"keywords":null},{"id":"321293","ident":"ES-0140","type":"small_airport","name":"Albalat de la Ribera Airstrip","latitude_deg":"39.226157","longitude_deg":"-0.366584","elevation_ft":"26","continent":"EU","iso_country":"ES","iso_region":"ES-VC","municipality":"Albalat de la Ribera","scheduled_service":"no","icao_code":null,"iata_code":null,"gps_code":null,"local_code":null,"home_link":null,"wikipedia_link":null,"keywords":null},{"id":"321328","ident":"ES-0141","type":"small_airport","name":"Aeródromo de Valdeazores","latitude_deg":"39.490575","longitude_deg":"-4.661292","elevation_ft":"763","continent":"EU","iso_country":"ES","iso_region":"ES-CM","municipality":"Valdeazores","scheduled_service":"no","icao_code":null,"iata_code":null,"gps_code":null,"local_code":null,"home_link":null,"wikipedia_link":null,"keywords":null},{"id":"321329","ident":"ES-0142","type":"closed","name":"San Jeronimo Airfield","latitude_deg":"37.884932","longitude_deg":"-4.85157","elevation_ft":"525","continent":"EU","iso_country":"ES","iso_region":"ES-AN","municipality":"San Jeronimo","scheduled_service":"no","icao_code":null,"iata_code":null,"gps_code":null,"local_code":null,"home_link":null,"wikipedia_link":null,"keywords":null},{"id":"321338","ident":"ES-0143","type":"small_airport","name":"Martinamatos Airfield","latitude_deg":"40.099412","longitude_deg":"-4.295084","elevation_ft":"1978","continent":"EU","iso_country":"ES","iso_region":"ES-CM","municipality":"Santa Cruz del Retamar","scheduled_service":"no","icao_code":null,"iata_code":null,"gps_code":null,"local_code":null,"home_link":"http://www.martinamatos.com/","wikipedia_link":null,"keywords":null},{"id":"321339","ident":"ES-0144","type":"small_airport","name":"Aeródromo de Tardienta - Monegros","latitude_deg":"41.9599129","longitude_deg":"-0.5434853","elevation_ft":"1296","continent":"EU","iso_country":"ES","iso_region":"ES-AR","municipality":null,"scheduled_service":"no","icao_code":null,"iata_code":null,"gps_code":null,"local_code":null,"home_link":null,"wikipedia_link":null,"keywords":null},{"id":"321361","ident":"ES-0145","type":"small_airport","name":"Aeródromo Coscojuela de Sobrarbe","latitude_deg":"42.3487","longitude_deg":"0.18613","elevation_ft":"1788","continent":"EU","iso_country":"ES","iso_region":"ES-AR","municipality":"Ainsa","scheduled_service":"no","icao_code":null,"iata_code":null,"gps_code":null,"local_code":null,"home_link":null,"wikipedia_link":null,"keywords":null},{"id":"321362","ident":"ES-0146","type":"small_airport","name":"Aeródromo de San Torcuato","latitude_deg":"42.474227","longitude_deg":"-2.872739","elevation_ft":"2133","continent":"EU","iso_country":"ES","iso_region":"ES-RI","municipality":"San Torcuato","scheduled_service":"no","icao_code":null,"iata_code":null,"gps_code":"LESN","local_code":null,"home_link":"http://escueladevuelo.com","wikipedia_link":null,"keywords":null},{"id":"321380","ident":"ES-0147","type":"small_airport","name":"Villaumbrales UL","latitude_deg":"42.095282","longitude_deg":"-4.595404","elevation_ft":"2658","continent":"EU","iso_country":"ES","iso_region":"ES-CL","municipality":"Villaumbrales","scheduled_service":"no","icao_code":null,"iata_code":null,"gps_code":null,"local_code":null,"home_link":null,"wikipedia_link":null,"keywords":"Liberty Air"},{"id":"321381","ident":"ES-0148","type":"small_airport","name":"Villanueva de la Cañada Airfield","latitude_deg":"40.436582","longitude_deg":"-4.024985","elevation_ft":"1985","continent":"EU","iso_country":"ES","iso_region":"ES-MD","municipality":"Villanueva de la Cañada","scheduled_service":"no","icao_code":null,"iata_code":null,"gps_code":null,"local_code":null,"home_link":null,"wikipedia_link":null,"keywords":null},{"id":"321382","ident":"ES-0149","type":"small_airport","name":"Aeródromo de Velada","latitude_deg":"40.01051","longitude_deg":"-4.946316","elevation_ft":"1427","continent":"EU","iso_country":"ES","iso_region":"ES-CM","municipality":"Velada","scheduled_service":"no","icao_code":null,"iata_code":null,"gps_code":null,"local_code":null,"home_link":null,"wikipedia_link":null,"keywords":"El Baldío, Mejorada"},{"id":"321383","ident":"ES-0150","type":"small_airport","name":"Aeródromo Valdetorres","latitude_deg":"38.942651","longitude_deg":"-6.127169","elevation_ft":null,"continent":"EU","iso_country":"ES","iso_region":"ES-EX","municipality":"Valdetorres","scheduled_service":"no","icao_code":null,"iata_code":null,"gps_code":null,"local_code":null,"home_link":null,"wikipedia_link":null,"keywords":null},{"id":"321390","ident":"ES-0151","type":"small_airport","name":"Aeródromo de Treviño","latitude_deg":"42.7212725","longitude_deg":"-2.6783924","elevation_ft":"1969","continent":"EU","iso_country":"ES","iso_region":"ES-CL","municipality":"Treviño","scheduled_service":"no","icao_code":null,"iata_code":null,"gps_code":null,"local_code":null,"home_link":null,"wikipedia_link":null,"keywords":null},{"id":"321391","ident":"ES-0152","type":"small_airport","name":"Campo de Aviación de Peralveche","latitude_deg":"40.6025245","longitude_deg":"-2.4293518","elevation_ft":"3937","continent":"EU","iso_country":"ES","iso_region":"ES-CM","municipality":"Peralveche","scheduled_service":"no","icao_code":null,"iata_code":null,"gps_code":null,"local_code":null,"home_link":null,"wikipedia_link":null,"keywords":null},{"id":"321392","ident":"ES-0153","type":"small_airport","name":"Ororbia Airfield","latitude_deg":"42.822214","longitude_deg":"-1.735109","elevation_ft":"1345","continent":"EU","iso_country":"ES","iso_region":"ES-NC","municipality":"Ororbia","scheduled_service":"no","icao_code":null,"iata_code":null,"gps_code":null,"local_code":null,"home_link":null,"wikipedia_link":null,"keywords":null},{"id":"321393","ident":"ES-0154","type":"small_airport","name":"Aeródromo de Piedrahita","latitude_deg":"40.479855","longitude_deg":"-5.360676","elevation_ft":"3297","continent":"EU","iso_country":"ES","iso_region":"ES-CL","municipality":"Piedrahita","scheduled_service":"no","icao_code":null,"iata_code":null,"gps_code":null,"local_code":null,"home_link":null,"wikipedia_link":null,"keywords":null},{"id":"321397","ident":"ES-0155","type":"small_airport","name":"Aeródromo Tarancón","latitude_deg":"40.01248","longitude_deg":"-2.977939","elevation_ft":"2379","continent":"EU","iso_country":"ES","iso_region":"ES-CM","municipality":"Tarancón","scheduled_service":"no","icao_code":null,"iata_code":null,"gps_code":null,"local_code":null,"home_link":null,"wikipedia_link":null,"keywords":null},{"id":"321398","ident":"ES-0156","type":"small_airport","name":"Ruidera","latitude_deg":"39.0369546","longitude_deg":"-2.8946489","elevation_ft":null,"continent":"EU","iso_country":"ES","iso_region":"ES-CM","municipality":"Ruidera","scheduled_service":"no","icao_code":null,"iata_code":null,"gps_code":null,"local_code":null,"home_link":null,"wikipedia_link":null,"keywords":null},{"id":"321413","ident":"ES-0157","type":"small_airport","name":"Aeródromo de Ordis","latitude_deg":"42.2325","longitude_deg":"2.8869444","elevation_ft":"2231","continent":"EU","iso_country":"ES","iso_region":"ES-CT","municipality":"Ordis","scheduled_service":"no","icao_code":null,"iata_code":null,"gps_code":null,"local_code":null,"home_link":null,"wikipedia_link":null,"keywords":null},{"id":"321416","ident":"ES-0158","type":"small_airport","name":"Olocau Airfield","latitude_deg":"39.675517","longitude_deg":"-0.548855","elevation_ft":"680","continent":"EU","iso_country":"ES","iso_region":"ES-VC","municipality":"Olocau","scheduled_service":"no","icao_code":null,"iata_code":null,"gps_code":null,"local_code":null,"home_link":"http://www.escuelaultraligero.es/","wikipedia_link":null,"keywords":"Campo de Vuelo de Olocau, Escuela de Vuelo Olocau"},{"id":"321418","ident":"ES-0159","type":"small_airport","name":"Campo de Vuelo Moixent-Mogente","latitude_deg":"38.817024","longitude_deg":"-0.833138","elevation_ft":"1837","continent":"EU","iso_country":"ES","iso_region":"ES-VC","municipality":"Mogente / Moixent","scheduled_service":"no","icao_code":null,"iata_code":null,"gps_code":null,"local_code":null,"home_link":null,"wikipedia_link":null,"keywords":null},{"id":"321419","ident":"ES-0160","type":"small_airport","name":"Campo de Vuelo Yecla","latitude_deg":"38.58759","longitude_deg":"-1.105","elevation_ft":null,"continent":"EU","iso_country":"ES","iso_region":"ES-MC","municipality":"Yecla","scheduled_service":"no","icao_code":null,"iata_code":null,"gps_code":null,"local_code":null,"home_link":null,"wikipedia_link":null,"keywords":null},{"id":"321425","ident":"ES-0161","type":"small_airport","name":"Campo de Vuelo Avial","latitude_deg":"42.077377","longitude_deg":"1.840227","elevation_ft":"2074","continent":"EU","iso_country":"ES","iso_region":"ES-CT","municipality":"Berga","scheduled_service":"no","icao_code":null,"iata_code":null,"gps_code":null,"local_code":null,"home_link":null,"wikipedia_link":null,"keywords":null},{"id":"321427","ident":"ES-0162","type":"small_airport","name":"Aeródromo Loring","latitude_deg":"40.6602","longitude_deg":"-3.59489","elevation_ft":"1903","continent":"EU","iso_country":"ES","iso_region":"ES-MD","municipality":"El Molar","scheduled_service":"no","icao_code":null,"iata_code":null,"gps_code":null,"local_code":null,"home_link":"http://aerodromo-loring.blogspot.be/","wikipedia_link":null,"keywords":null},{"id":"321430","ident":"ES-0163","type":"small_airport","name":"Aeroguillena","latitude_deg":"37.561238","longitude_deg":"-6.0308241","elevation_ft":"197","continent":"EU","iso_country":"ES","iso_region":"ES-AN","municipality":"Guillena","scheduled_service":"no","icao_code":null,"iata_code":null,"gps_code":null,"local_code":null,"home_link":"http://www.aeroguillena.com","wikipedia_link":null,"keywords":null},{"id":"321431","ident":"ES-0164","type":"small_airport","name":"Camp de vol La Puieda","latitude_deg":"41.9882928","longitude_deg":"2.2561665","elevation_ft":"1726","continent":"EU","iso_country":"ES","iso_region":"ES-CT","municipality":"Gurb","scheduled_service":"no","icao_code":null,"iata_code":null,"gps_code":null,"local_code":null,"home_link":null,"wikipedia_link":null,"keywords":null},{"id":"321432","ident":"ES-0165","type":"small_airport","name":"Aeródromo Gurrea de Gállego","latitude_deg":"42.035333","longitude_deg":"-0.746295","elevation_ft":"1116","continent":"EU","iso_country":"ES","iso_region":"ES-AR","municipality":"Gurrea de Gállego","scheduled_service":"no","icao_code":null,"iata_code":null,"gps_code":null,"local_code":null,"home_link":null,"wikipedia_link":null,"keywords":null},{"id":"321438","ident":"ES-0166","type":"small_airport","name":"Aeródromo de Loja","latitude_deg":"37.1377455","longitude_deg":"-4.2698489","elevation_ft":null,"continent":"EU","iso_country":"ES","iso_region":"ES-AN","municipality":"Loja","scheduled_service":"no","icao_code":null,"iata_code":null,"gps_code":null,"local_code":null,"home_link":null,"wikipedia_link":null,"keywords":null},{"id":"321439","ident":"ES-0167","type":"small_airport","name":"La Llosa Airfield","latitude_deg":"39.74979","longitude_deg":"-0.181346","elevation_ft":"7","continent":"EU","iso_country":"ES","iso_region":"ES-VC","municipality":"La Llosa","scheduled_service":"no","icao_code":null,"iata_code":null,"gps_code":null,"local_code":null,"home_link":"https://lallosaaerodromo.com","wikipedia_link":null,"keywords":null},{"id":"321440","ident":"ES-0168","type":"small_airport","name":"Lebrija UL","latitude_deg":"36.896138","longitude_deg":"-6.0393716","elevation_ft":"131","continent":"EU","iso_country":"ES","iso_region":"ES-AN","municipality":"Lebrija","scheduled_service":"no","icao_code":null,"iata_code":null,"gps_code":null,"local_code":null,"home_link":null,"wikipedia_link":null,"keywords":null},{"id":"321441","ident":"ES-0169","type":"small_airport","name":"Aeródromo Fontioso","latitude_deg":"41.933305","longitude_deg":"-3.784808","elevation_ft":"3068","continent":"EU","iso_country":"ES","iso_region":"ES-CL","municipality":"Fontioso","scheduled_service":"no","icao_code":null,"iata_code":null,"gps_code":null,"local_code":null,"home_link":null,"wikipedia_link":null,"keywords":null},{"id":"321442","ident":"ES-0170","type":"small_airport","name":"Aeròdrom de Foixà","latitude_deg":"42.029933","longitude_deg":"2.990761","elevation_ft":"443","continent":"EU","iso_country":"ES","iso_region":"ES-CT","municipality":"Foixà","scheduled_service":"no","icao_code":null,"iata_code":null,"gps_code":null,"local_code":null,"home_link":null,"wikipedia_link":null,"keywords":null},{"id":"321460","ident":"ES-0171","type":"small_airport","name":"Ecija 2 private airfield","latitude_deg":"37.5142575","longitude_deg":"-5.1213502","elevation_ft":"574","continent":"EU","iso_country":"ES","iso_region":"ES-AN","municipality":"Ecija","scheduled_service":"no","icao_code":null,"iata_code":null,"gps_code":null,"local_code":null,"home_link":null,"wikipedia_link":null,"keywords":null},{"id":"321461","ident":"ES-0172","type":"small_airport","name":"Aeródromo de Écija","latitude_deg":"37.5802316","longitude_deg":"-5.171264","elevation_ft":"591","continent":"EU","iso_country":"ES","iso_region":"ES-AN","municipality":"Écija","scheduled_service":"no","icao_code":null,"iata_code":null,"gps_code":null,"local_code":null,"home_link":null,"wikipedia_link":null,"keywords":null},{"id":"321462","ident":"ES-0173","type":"small_airport","name":"Aeròdrom Municipal El Pla de Santa María","latitude_deg":"41.371467","longitude_deg":"1.30375","elevation_ft":"1345","continent":"EU","iso_country":"ES","iso_region":"ES-CT","municipality":"El Pla de Santa María","scheduled_service":"no","icao_code":null,"iata_code":null,"gps_code":null,"local_code":null,"home_link":null,"wikipedia_link":null,"keywords":"Les Escarbones"},{"id":"321463","ident":"ES-0174","type":"small_airport","name":"Aeródromo de Cillamayor","latitude_deg":"42.851348","longitude_deg":"-4.279289","elevation_ft":"3215","continent":"EU","iso_country":"ES","iso_region":"ES-CL","municipality":"Cillamayor","scheduled_service":"no","icao_code":null,"iata_code":null,"gps_code":"LEUC","local_code":null,"home_link":null,"wikipedia_link":null,"keywords":null},{"id":"321475","ident":"ES-0175","type":"small_airport","name":"Aeródromo Mazaricos","latitude_deg":"42.982329","longitude_deg":"-9.005002","elevation_ft":"960","continent":"EU","iso_country":"ES","iso_region":"ES-GA","municipality":"Fervenza","scheduled_service":"no","icao_code":null,"iata_code":null,"gps_code":"LEMZ","local_code":null,"home_link":"https://naturmaz.com/aerodromo/","wikipedia_link":null,"keywords":null},{"id":"321476","ident":"ES-0176","type":"small_airport","name":"Aeródromo de Guadalix de la SIerra","latitude_deg":"40.7848296","longitude_deg":"-3.6397313","elevation_ft":"2756","continent":"EU","iso_country":"ES","iso_region":"ES-MD","municipality":"El Vellón","scheduled_service":"no","icao_code":null,"iata_code":null,"gps_code":null,"local_code":null,"home_link":null,"wikipedia_link":null,"keywords":null},{"id":"321477","ident":"ES-0177","type":"small_airport","name":"Aeródromo Coria","latitude_deg":"39.984617","longitude_deg":"-6.554554","elevation_ft":"735","continent":"EU","iso_country":"ES","iso_region":"ES-EX","municipality":"Coria","scheduled_service":"no","icao_code":null,"iata_code":null,"gps_code":null,"local_code":null,"home_link":null,"wikipedia_link":null,"keywords":null},{"id":"321478","ident":"ES-0178","type":"small_airport","name":"Aeródromo de Brunete","latitude_deg":"40.396556","longitude_deg":"-4.023712","elevation_ft":"1975","continent":"EU","iso_country":"ES","iso_region":"ES-MD","municipality":"Brunete","scheduled_service":"no","icao_code":null,"iata_code":null,"gps_code":null,"local_code":null,"home_link":null,"wikipedia_link":null,"keywords":null},{"id":"321479","ident":"ES-0179","type":"small_airport","name":"Benicolet Airfield","latitude_deg":"38.918703","longitude_deg":"-0.355677","elevation_ft":"807","continent":"EU","iso_country":"ES","iso_region":"ES-VC","municipality":"Benicolet","scheduled_service":"no","icao_code":null,"iata_code":null,"gps_code":null,"local_code":null,"home_link":null,"wikipedia_link":null,"keywords":"Aeroclub Balica"},{"id":"321497","ident":"ES-0180","type":"closed","name":"Aeródromo de Zalla - Forestal","latitude_deg":"43.186232","longitude_deg":"-3.120631","elevation_ft":"1641","continent":"EU","iso_country":"ES","iso_region":"ES-PV","municipality":"Zalla","scheduled_service":"no","icao_code":null,"iata_code":null,"gps_code":null,"local_code":null,"home_link":null,"wikipedia_link":null,"keywords":null},{"id":"321508","ident":"ES-0181","type":"small_airport","name":"Aeródromo de Fuente Obejuna","latitude_deg":"38.281802","longitude_deg":"-5.40184","elevation_ft":"1742","continent":"EU","iso_country":"ES","iso_region":"ES-AN","municipality":"Fuente Obejuna","scheduled_service":"no","icao_code":null,"iata_code":null,"gps_code":"LEFU","local_code":null,"home_link":null,"wikipedia_link":null,"keywords":"Ela Aviación"},{"id":"321509","ident":"ES-0182","type":"small_airport","name":"Aeródromo de Jaen - Las Infantas","latitude_deg":"37.908577","longitude_deg":"-3.800161","elevation_ft":"1034","continent":"EU","iso_country":"ES","iso_region":"ES-AN","municipality":"Jaen","scheduled_service":"no","icao_code":null,"iata_code":null,"gps_code":null,"local_code":null,"home_link":null,"wikipedia_link":null,"keywords":null},{"id":"321510","ident":"ES-0183","type":"small_airport","name":"Aeródromo Belvis de Monroy","latitude_deg":"39.8513634","longitude_deg":"-5.6015255","elevation_ft":"1017","continent":"EU","iso_country":"ES","iso_region":"ES-EX","municipality":"Belvis de Monroy","scheduled_service":"no","icao_code":null,"iata_code":null,"gps_code":null,"local_code":null,"home_link":null,"wikipedia_link":null,"keywords":null},{"id":"321511","ident":"ES-0184","type":"small_airport","name":"Aeródromo Navalmoral de la Mata","latitude_deg":"39.91613","longitude_deg":"-5.53976","elevation_ft":"951","continent":"EU","iso_country":"ES","iso_region":"ES-EX","municipality":"Navalmoral de la Mata","scheduled_service":"no","icao_code":null,"iata_code":null,"gps_code":null,"local_code":null,"home_link":null,"wikipedia_link":null,"keywords":null},{"id":"321513","ident":"ES-0185","type":"small_airport","name":"Aeródromo Pelayos de la Presa","latitude_deg":"40.3720107","longitude_deg":"-4.3826756","elevation_ft":"2215","continent":"EU","iso_country":"ES","iso_region":"ES-MD","municipality":"Pelayos de la Presa","scheduled_service":"no","icao_code":null,"iata_code":null,"gps_code":null,"local_code":null,"home_link":null,"wikipedia_link":null,"keywords":null},{"id":"321514","ident":"ES-0186","type":"small_airport","name":"Aeródromo de Almorox","latitude_deg":"40.2116282","longitude_deg":"-4.386763","elevation_ft":"1575","continent":"EU","iso_country":"ES","iso_region":"ES-CM","municipality":"Almorox","scheduled_service":"no","icao_code":null,"iata_code":null,"gps_code":null,"local_code":null,"home_link":null,"wikipedia_link":null,"keywords":null},{"id":"321517","ident":"ES-0187","type":"small_airport","name":"Fuentealamo Airfield","latitude_deg":"38.715499","longitude_deg":"-1.545093","elevation_ft":"2690","continent":"EU","iso_country":"ES","iso_region":"ES-CM","municipality":"Chinchilla de Montearagón","scheduled_service":"no","icao_code":null,"iata_code":null,"gps_code":null,"local_code":null,"home_link":null,"wikipedia_link":null,"keywords":null},{"id":"321518","ident":"ES-0188","type":"small_airport","name":"El Ejido UL","latitude_deg":"36.7441167","longitude_deg":"-2.7674833","elevation_ft":"157","continent":"EU","iso_country":"ES","iso_region":"ES-AN","municipality":"El Ejido","scheduled_service":"no","icao_code":null,"iata_code":null,"gps_code":null,"local_code":null,"home_link":null,"wikipedia_link":null,"keywords":null},{"id":"321526","ident":"ES-0189","type":"small_airport","name":"La Gineta ULM","latitude_deg":"39.105766","longitude_deg":"-2.016283","elevation_ft":"2270","continent":"EU","iso_country":"ES","iso_region":"ES-CM","municipality":"La Gineta","scheduled_service":"no","icao_code":null,"iata_code":null,"gps_code":null,"local_code":null,"home_link":null,"wikipedia_link":null,"keywords":null},{"id":"321529","ident":"ES-0190","type":"small_airport","name":"El Molinillo Airfield","latitude_deg":"38.739954","longitude_deg":"-6.391888","elevation_ft":"1034","continent":"EU","iso_country":"ES","iso_region":"ES-EX","municipality":"Almendralejo","scheduled_service":"no","icao_code":"LELI","iata_code":null,"gps_code":"LELI","local_code":null,"home_link":"https://aeroclubalavi.es/","wikipedia_link":null,"keywords":null},{"id":"321555","ident":"ES-0191","type":"small_airport","name":"El Bonillo Airfield","latitude_deg":"38.8727","longitude_deg":"-2.6733","elevation_ft":"3183","continent":"EU","iso_country":"ES","iso_region":"ES-CM","municipality":"El Bonillo","scheduled_service":"no","icao_code":null,"iata_code":null,"gps_code":null,"local_code":null,"home_link":null,"wikipedia_link":null,"keywords":null},{"id":"321557","ident":"ES-0192","type":"small_airport","name":"Aeródromo Tiurana","latitude_deg":"41.97416","longitude_deg":"1.257531","elevation_ft":"2133","continent":"EU","iso_country":"ES","iso_region":"ES-CT","municipality":null,"scheduled_service":"no","icao_code":null,"iata_code":null,"gps_code":null,"local_code":null,"home_link":null,"wikipedia_link":null,"keywords":null},{"id":"321564","ident":"ES-0193","type":"small_airport","name":"Aeroclub Arnao UL","latitude_deg":"43.5531667","longitude_deg":"-7.0168","elevation_ft":"69","continent":"EU","iso_country":"ES","iso_region":"ES-AS","municipality":"Arnao","scheduled_service":"no","icao_code":null,"iata_code":null,"gps_code":null,"local_code":null,"home_link":null,"wikipedia_link":null,"keywords":null},{"id":"321571","ident":"ES-0194","type":"small_airport","name":"Aeródrome de Arcones","latitude_deg":"41.11453","longitude_deg":"-3.73378","elevation_ft":null,"continent":"EU","iso_country":"ES","iso_region":"ES-CL","municipality":"Arcones","scheduled_service":"no","icao_code":null,"iata_code":null,"gps_code":null,"local_code":null,"home_link":null,"wikipedia_link":null,"keywords":null},{"id":"321572","ident":"ES-0195","type":"small_airport","name":"Pista Forestal Valdelamusa","latitude_deg":"37.7763167","longitude_deg":"-6.8826667","elevation_ft":"1135","continent":"EU","iso_country":"ES","iso_region":"ES-AN","municipality":"Valdelamusa","scheduled_service":"no","icao_code":null,"iata_code":null,"gps_code":null,"local_code":null,"home_link":null,"wikipedia_link":null,"keywords":null},{"id":"321574","ident":"ES-0196","type":"small_airport","name":"Tinajeros Airfield","latitude_deg":"39.09825","longitude_deg":"-1.72071","elevation_ft":"2822","continent":"EU","iso_country":"ES","iso_region":"ES-CM","municipality":"Tinajeros","scheduled_service":"no","icao_code":null,"iata_code":null,"gps_code":"LETY","local_code":null,"home_link":null,"wikipedia_link":null,"keywords":"Aeroclub Albacete"},{"id":"321576","ident":"ES-0197","type":"small_airport","name":"Aeródromo de Espiel","latitude_deg":"38.2628667","longitude_deg":"-5.0442","elevation_ft":"2362","continent":"EU","iso_country":"ES","iso_region":"ES-AN","municipality":"Espiel","scheduled_service":"no","icao_code":null,"iata_code":null,"gps_code":null,"local_code":null,"home_link":null,"wikipedia_link":null,"keywords":null},{"id":"321577","ident":"ES-0198","type":"small_airport","name":"Aeródromo de La Vid de Bureba","latitude_deg":"42.632037","longitude_deg":"-3.311456","elevation_ft":"2297","continent":"EU","iso_country":"ES","iso_region":"ES-CL","municipality":"La Vid de Bureba","scheduled_service":"no","icao_code":null,"iata_code":null,"gps_code":"LEDB","local_code":null,"home_link":null,"wikipedia_link":null,"keywords":"AeroLaVid"},{"id":"321580","ident":"ES-0199","type":"small_airport","name":"Aeródromo de Aldeacentenara","latitude_deg":"39.5609167","longitude_deg":"-5.6637222","elevation_ft":"1772","continent":"EU","iso_country":"ES","iso_region":"ES-EX","municipality":"Aldeacentenara","scheduled_service":"no","icao_code":null,"iata_code":null,"gps_code":null,"local_code":null,"home_link":null,"wikipedia_link":null,"keywords":null},{"id":"321581","ident":"ES-0200","type":"small_airport","name":"Xeraco Airfield","latitude_deg":"39.025781","longitude_deg":"-0.207753","elevation_ft":"23","continent":"EU","iso_country":"ES","iso_region":"ES-VC","municipality":"Xeraco","scheduled_service":"no","icao_code":null,"iata_code":null,"gps_code":null,"local_code":null,"home_link":null,"wikipedia_link":null,"keywords":null},{"id":"321582","ident":"ES-0201","type":"heliport","name":"Cogullada Heliport","latitude_deg":"41.690459","longitude_deg":"-0.848887","elevation_ft":"673","continent":"EU","iso_country":"ES","iso_region":"ES-AR","municipality":"Zaragoza","scheduled_service":"no","icao_code":null,"iata_code":null,"gps_code":null,"local_code":null,"home_link":null,"wikipedia_link":null,"keywords":null},{"id":"321583","ident":"ES-0202","type":"small_airport","name":"Aeródromo de Garrucha","latitude_deg":"37.197959","longitude_deg":"-1.830627","elevation_ft":"52","continent":"EU","iso_country":"ES","iso_region":"ES-AN","municipality":null,"scheduled_service":"no","icao_code":null,"iata_code":null,"gps_code":null,"local_code":null,"home_link":null,"wikipedia_link":null,"keywords":null},{"id":"321584","ident":"ES-0203","type":"small_airport","name":"Aeródromo Lanzahita UL","latitude_deg":"40.186112","longitude_deg":"-4.946256","elevation_ft":"1329","continent":"EU","iso_country":"ES","iso_region":"ES-CL","municipality":"Lanzahita","scheduled_service":"no","icao_code":null,"iata_code":null,"gps_code":null,"local_code":null,"home_link":null,"wikipedia_link":null,"keywords":null},{"id":"321601","ident":"ES-0204","type":"small_airport","name":"Mollerussa UL","latitude_deg":"41.6122017","longitude_deg":"0.8541227","elevation_ft":"984","continent":"EU","iso_country":"ES","iso_region":"ES-CT","municipality":"Mollerussa","scheduled_service":"no","icao_code":null,"iata_code":null,"gps_code":null,"local_code":null,"home_link":"http://www.clubaeri.net/","wikipedia_link":null,"keywords":null},{"id":"321603","ident":"ES-0205","type":"small_airport","name":"Castejón de Sos Airfield","latitude_deg":"42.522468","longitude_deg":"0.481114","elevation_ft":"2959","continent":"EU","iso_country":"ES","iso_region":"ES-AR","municipality":"Castejón de Sos","scheduled_service":"no","icao_code":null,"iata_code":null,"gps_code":null,"local_code":null,"home_link":"http://www.aviador.net","wikipedia_link":null,"keywords":null},{"id":"321607","ident":"ES-0206","type":"small_airport","name":"Aeródromo privado \"Villamartin2\"","latitude_deg":"36.827132","longitude_deg":"-5.603212","elevation_ft":"476","continent":"EU","iso_country":"ES","iso_region":"ES-AN","municipality":"Villamartin","scheduled_service":"no","icao_code":null,"iata_code":null,"gps_code":null,"local_code":null,"home_link":null,"wikipedia_link":null,"keywords":null},{"id":"321608","ident":"ES-0207","type":"small_airport","name":"Aeródromo Calzada de Valdunciel","latitude_deg":"41.07545","longitude_deg":"-5.728036","elevation_ft":"2625","continent":"EU","iso_country":"ES","iso_region":"ES-CL","municipality":"Calzada de Valdunciel","scheduled_service":"no","icao_code":null,"iata_code":null,"gps_code":"LEUN","local_code":null,"home_link":null,"wikipedia_link":null,"keywords":null},{"id":"321609","ident":"ES-0208","type":"small_airport","name":"Aeródromo forestal \"Requena 2\"","latitude_deg":"39.4422585","longitude_deg":"-1.0493454","elevation_ft":"2740","continent":"EU","iso_country":"ES","iso_region":"ES-VC","municipality":"Requena","scheduled_service":"no","icao_code":null,"iata_code":null,"gps_code":null,"local_code":null,"home_link":null,"wikipedia_link":null,"keywords":null},{"id":"321610","ident":"ES-0209","type":"small_airport","name":"Aeródromo de Griñón","latitude_deg":"40.2237809995","longitude_deg":"-3.866911","elevation_ft":"2198","continent":"EU","iso_country":"ES","iso_region":"ES-MD","municipality":"Griñón","scheduled_service":"no","icao_code":null,"iata_code":null,"gps_code":null,"local_code":null,"home_link":null,"wikipedia_link":null,"keywords":"Aeroclub Dhaguera"},{"id":"321624","ident":"ES-0210","type":"small_airport","name":"Palma del Rio 2 UL","latitude_deg":"37.668501","longitude_deg":"-5.262086","elevation_ft":"449","continent":"EU","iso_country":"ES","iso_region":"ES-AN","municipality":"Palma del Rio","scheduled_service":"no","icao_code":null,"iata_code":null,"gps_code":null,"local_code":null,"home_link":null,"wikipedia_link":null,"keywords":null},{"id":"321633","ident":"ES-0211","type":"small_airport","name":"Campo de Vuelo de Oteo","latitude_deg":"43.0168667","longitude_deg":"-3.3120333","elevation_ft":"2307","continent":"EU","iso_country":"ES","iso_region":"ES-CL","municipality":"Oteo","scheduled_service":"no","icao_code":null,"iata_code":null,"gps_code":null,"local_code":null,"home_link":null,"wikipedia_link":null,"keywords":null},{"id":"321660","ident":"ES-0212","type":"small_airport","name":"Hacienda de Orán","latitude_deg":"37.2000414","longitude_deg":"-5.8808531","elevation_ft":"72","continent":"EU","iso_country":"ES","iso_region":"ES-AN","municipality":"Utrero","scheduled_service":"no","icao_code":null,"iata_code":null,"gps_code":null,"local_code":null,"home_link":null,"wikipedia_link":null,"keywords":null},{"id":"321661","ident":"ES-0213","type":"small_airport","name":"Campo de Vuelo de Astorga","latitude_deg":"42.503996","longitude_deg":"-6.026695","elevation_ft":"3123","continent":"EU","iso_country":"ES","iso_region":"ES-CL","municipality":"Astorga","scheduled_service":"no","icao_code":null,"iata_code":null,"gps_code":"LEAT","local_code":null,"home_link":"https://www.astorgadigital.com/aerodromo-de-astorga-realidad-aficionados-volar/","wikipedia_link":null,"keywords":null},{"id":"321689","ident":"ES-0214","type":"small_airport","name":"Campo de Vuelo de Caspe","latitude_deg":"41.2287652","longitude_deg":"-0.085876","elevation_ft":"656","continent":"EU","iso_country":"ES","iso_region":"ES-AR","municipality":"Caspe","scheduled_service":"no","icao_code":null,"iata_code":null,"gps_code":null,"local_code":null,"home_link":null,"wikipedia_link":null,"keywords":null},{"id":"321702","ident":"ES-0215","type":"small_airport","name":"Alhama de Granada Airfield","latitude_deg":"36.996999","longitude_deg":"-4.103608","elevation_ft":"3215","continent":"EU","iso_country":"ES","iso_region":"ES-AN","municipality":"Alhama de Granada","scheduled_service":"no","icao_code":null,"iata_code":null,"gps_code":null,"local_code":null,"home_link":null,"wikipedia_link":null,"keywords":null},{"id":"321703","ident":"ES-0216","type":"small_airport","name":"Aeròdrom de Cervera","latitude_deg":"41.687597","longitude_deg":"1.250494","elevation_ft":null,"continent":"EU","iso_country":"ES","iso_region":"ES-CT","municipality":"Cervera","scheduled_service":"no","icao_code":null,"iata_code":null,"gps_code":null,"local_code":null,"home_link":null,"wikipedia_link":null,"keywords":null},{"id":"321704","ident":"ES-0217","type":"small_airport","name":"Benejama UL","latitude_deg":"38.696193","longitude_deg":"-0.744936","elevation_ft":"1985","continent":"EU","iso_country":"ES","iso_region":"ES-VC","municipality":"Beneixama","scheduled_service":"no","icao_code":null,"iata_code":null,"gps_code":null,"local_code":null,"home_link":null,"wikipedia_link":null,"keywords":null},{"id":"321706","ident":"ES-0218","type":"small_airport","name":"Alto Vinalopó Biar Benejama","latitude_deg":"38.684431","longitude_deg":"-0.760295","elevation_ft":"1936","continent":"EU","iso_country":"ES","iso_region":"ES-VC","municipality":"Beneixama","scheduled_service":"no","icao_code":null,"iata_code":null,"gps_code":null,"local_code":null,"home_link":null,"wikipedia_link":null,"keywords":null},{"id":"321718","ident":"ES-0219","type":"small_airport","name":"Aeródromo de Camarenilla","latitude_deg":"40.024702","longitude_deg":"-4.071202","elevation_ft":"1742","continent":"EU","iso_country":"ES","iso_region":"ES-CM","municipality":"Camarenilla","scheduled_service":"no","icao_code":null,"iata_code":null,"gps_code":"LERN","local_code":null,"home_link":"http://www.volarenavioneta.es","wikipedia_link":null,"keywords":null},{"id":"321719","ident":"ES-0220","type":"small_airport","name":"Campo de Vuelo Bañeres de Mariola","latitude_deg":"38.671077","longitude_deg":"-0.631257","elevation_ft":"3117","continent":"EU","iso_country":"ES","iso_region":"ES-VC","municipality":"Banyeres de Mariola","scheduled_service":"no","icao_code":null,"iata_code":null,"gps_code":null,"local_code":null,"home_link":null,"wikipedia_link":null,"keywords":null},{"id":"321727","ident":"ES-0221","type":"small_airport","name":"Ruidera2","latitude_deg":"39.02495","longitude_deg":"-2.911927","elevation_ft":"2871","continent":"EU","iso_country":"ES","iso_region":"ES-CM","municipality":"Ruidera","scheduled_service":"no","icao_code":null,"iata_code":null,"gps_code":null,"local_code":null,"home_link":null,"wikipedia_link":null,"keywords":null},{"id":"321728","ident":"ES-0222","type":"small_airport","name":"Pista forestal de Fuencaliente","latitude_deg":"38.5264323","longitude_deg":"-4.389622","elevation_ft":"2674","continent":"EU","iso_country":"ES","iso_region":"ES-CM","municipality":"Fuencaliente","scheduled_service":"no","icao_code":null,"iata_code":null,"gps_code":null,"local_code":null,"home_link":null,"wikipedia_link":null,"keywords":null},{"id":"321741","ident":"ES-0223","type":"heliport","name":"Almagro Helicopter Airbase","latitude_deg":"38.952096","longitude_deg":"-3.741126","elevation_ft":"2067","continent":"EU","iso_country":"ES","iso_region":"ES-CM","municipality":"Almagro","scheduled_service":"no","icao_code":"LEAO","iata_code":null,"gps_code":"LEAO","local_code":null,"home_link":null,"wikipedia_link":"https://en.wikipedia.org/wiki/Spanish_Army_Airmobile_Force","keywords":null},{"id":"321742","ident":"ES-0224","type":"small_airport","name":"Pozorrubio Airfield","latitude_deg":"39.826221","longitude_deg":"-2.953085","elevation_ft":"2575","continent":"EU","iso_country":"ES","iso_region":"ES-CM","municipality":"Pozorrubio","scheduled_service":"no","icao_code":null,"iata_code":null,"gps_code":"LEPC","local_code":null,"home_link":null,"wikipedia_link":null,"keywords":null},{"id":"321759","ident":"ES-0225","type":"small_airport","name":"Aeródromo Forestal \"Puebla de Don Rodrigo\"","latitude_deg":"39.066067","longitude_deg":"-4.488502","elevation_ft":"2067","continent":"EU","iso_country":"ES","iso_region":"ES-CM","municipality":"Puebla de Don Rodrigo","scheduled_service":"no","icao_code":null,"iata_code":null,"gps_code":null,"local_code":null,"home_link":null,"wikipedia_link":null,"keywords":null},{"id":"321793","ident":"ES-0226","type":"small_airport","name":"Aeródromo forestal de Herrera del Duque","latitude_deg":"39.2264442","longitude_deg":"-4.8863799","elevation_ft":"1394","continent":"EU","iso_country":"ES","iso_region":"ES-EX","municipality":"Herrera del Duque","scheduled_service":"no","icao_code":null,"iata_code":null,"gps_code":null,"local_code":null,"home_link":null,"wikipedia_link":null,"keywords":null},{"id":"321794","ident":"ES-0227","type":"closed","name":"Dima Airfield","latitude_deg":"43.075701","longitude_deg":"-2.683326","elevation_ft":"1936","continent":"EU","iso_country":"ES","iso_region":"ES-PV","municipality":null,"scheduled_service":"no","icao_code":null,"iata_code":null,"gps_code":null,"local_code":null,"home_link":null,"wikipedia_link":null,"keywords":null},{"id":"321875","ident":"ES-0228","type":"closed","name":"Cortijo Grande","latitude_deg":"37.1351217","longitude_deg":"-1.9360369","elevation_ft":"495","continent":"EU","iso_country":"ES","iso_region":"ES-AN","municipality":"Turre","scheduled_service":"no","icao_code":null,"iata_code":null,"gps_code":null,"local_code":null,"home_link":null,"wikipedia_link":null,"keywords":null},{"id":"321890","ident":"ES-0229","type":"closed","name":"Villena","latitude_deg":"38.5868201","longitude_deg":"-0.8559465","elevation_ft":"1641","continent":"EU","iso_country":"ES","iso_region":"ES-VC","municipality":null,"scheduled_service":"no","icao_code":null,"iata_code":null,"gps_code":null,"local_code":null,"home_link":null,"wikipedia_link":null,"keywords":null},{"id":"321952","ident":"ES-0230","type":"small_airport","name":"Sotillo de la Andrada","latitude_deg":"41.27115","longitude_deg":"-3.63005","elevation_ft":"722","continent":"EU","iso_country":"ES","iso_region":"ES-CL","municipality":null,"scheduled_service":"no","icao_code":null,"iata_code":null,"gps_code":null,"local_code":null,"home_link":null,"wikipedia_link":null,"keywords":null},{"id":"331362","ident":"ES-0231","type":"small_airport","name":"Prádanos de Ojeda Airstrip","latitude_deg":"42.6921604","longitude_deg":"-4.3486359","elevation_ft":null,"continent":"EU","iso_country":"ES","iso_region":"ES-CL","municipality":null,"scheduled_service":"no","icao_code":null,"iata_code":null,"gps_code":null,"local_code":null,"home_link":null,"wikipedia_link":null,"keywords":null},{"id":"324536","ident":"ES-0232","type":"small_airport","name":"Jarde Airport","latitude_deg":"28.391185","longitude_deg":"-13.982968","elevation_ft":"515","continent":"AF","iso_country":"ES","iso_region":"ES-CN","municipality":"Antigua","scheduled_service":"no","icao_code":null,"iata_code":null,"gps_code":"GCAT","local_code":null,"home_link":null,"wikipedia_link":null,"keywords":"Aeródromo del Jarde"},{"id":"324773","ident":"ES-0233","type":"small_airport","name":"Aeródromo Forestal \"La Fonfría\"","latitude_deg":"42.3466117","longitude_deg":"-2.9109476","elevation_ft":null,"continent":"EU","iso_country":"ES","iso_region":"ES-RI","municipality":"Villarejo","scheduled_service":"no","icao_code":null,"iata_code":null,"gps_code":null,"local_code":null,"home_link":null,"wikipedia_link":null,"keywords":null},{"id":"324795","ident":"ES-0234","type":"small_airport","name":"Cóbreces Airfield","latitude_deg":"43.388518","longitude_deg":"-4.207752","elevation_ft":"164","continent":"EU","iso_country":"ES","iso_region":"ES-CB","municipality":"Cóbreces","scheduled_service":"no","icao_code":null,"iata_code":null,"gps_code":null,"local_code":null,"home_link":null,"wikipedia_link":null,"keywords":null},{"id":"325234","ident":"ES-0235","type":"small_airport","name":"Santiago-Pontones Airstrip","latitude_deg":"38.0909891","longitude_deg":"-2.6484287","elevation_ft":null,"continent":"EU","iso_country":"ES","iso_region":"ES-AN","municipality":null,"scheduled_service":"no","icao_code":null,"iata_code":null,"gps_code":null,"local_code":null,"home_link":null,"wikipedia_link":null,"keywords":null},{"id":"325396","ident":"ES-0236","type":"heliport","name":"Roses Aerial Military Radar Helipad","latitude_deg":"42.278272","longitude_deg":"3.233359","elevation_ft":null,"continent":"EU","iso_country":"ES","iso_region":"ES-CT","municipality":"Roses","scheduled_service":"no","icao_code":null,"iata_code":null,"gps_code":null,"local_code":null,"home_link":null,"wikipedia_link":null,"keywords":null},{"id":"326685","ident":"ES-0237","type":"heliport","name":"Estepona Airfield","latitude_deg":"36.495633","longitude_deg":"-5.17816","elevation_ft":"2033","continent":"EU","iso_country":"ES","iso_region":"ES-AN","municipality":"Estepona","scheduled_service":"no","icao_code":null,"iata_code":null,"gps_code":null,"local_code":null,"home_link":null,"wikipedia_link":null,"keywords":null},{"id":"326987","ident":"ES-0238","type":"small_airport","name":"El Moral Airstrip","latitude_deg":"38.485842","longitude_deg":"-6.263409","elevation_ft":"1496","continent":"EU","iso_country":"ES","iso_region":"ES-EX","municipality":null,"scheduled_service":"no","icao_code":null,"iata_code":null,"gps_code":null,"local_code":null,"home_link":"http://aerodromoelmoral.net/","wikipedia_link":null,"keywords":null},{"id":"327564","ident":"ES-0239","type":"heliport","name":"Base de Helicópteros de Guadramiro","latitude_deg":"41.011168","longitude_deg":"-6.477604","elevation_ft":null,"continent":"EU","iso_country":"ES","iso_region":"ES-CL","municipality":"Guadramiro","scheduled_service":"no","icao_code":null,"iata_code":null,"gps_code":null,"local_code":null,"home_link":null,"wikipedia_link":null,"keywords":null},{"id":"329148","ident":"ES-0240","type":"heliport","name":"Heliactivo","latitude_deg":"38.5632993","longitude_deg":"-0.1511484","elevation_ft":null,"continent":"EU","iso_country":"ES","iso_region":"ES-VC","municipality":"Benidorm","scheduled_service":"no","icao_code":null,"iata_code":null,"gps_code":null,"local_code":null,"home_link":null,"wikipedia_link":null,"keywords":null},{"id":"329201","ident":"ES-0241","type":"heliport","name":"Lires Heliport","latitude_deg":"42.981544","longitude_deg":"-9.237198","elevation_ft":null,"continent":"EU","iso_country":"ES","iso_region":"ES-GA","municipality":null,"scheduled_service":"no","icao_code":null,"iata_code":null,"gps_code":null,"local_code":null,"home_link":null,"wikipedia_link":null,"keywords":null},{"id":"329206","ident":"ES-0242","type":"heliport","name":"Guillade Heliport","latitude_deg":"42.170884","longitude_deg":"-8.43643","elevation_ft":null,"continent":"EU","iso_country":"ES","iso_region":"ES-GA","municipality":"Guillade","scheduled_service":"no","icao_code":null,"iata_code":null,"gps_code":null,"local_code":null,"home_link":null,"wikipedia_link":null,"keywords":null},{"id":"329228","ident":"ES-0243","type":"heliport","name":"Pitres Heliport","latitude_deg":"36.932903","longitude_deg":"-3.3404525","elevation_ft":null,"continent":"EU","iso_country":"ES","iso_region":"ES-AN","municipality":null,"scheduled_service":"no","icao_code":null,"iata_code":null,"gps_code":null,"local_code":null,"home_link":null,"wikipedia_link":null,"keywords":null},{"id":"329235","ident":"ES-0244","type":"small_airport","name":"Club Fenix ULM","latitude_deg":"39.657599","longitude_deg":"-0.811627","elevation_ft":null,"continent":"EU","iso_country":"ES","iso_region":"ES-VC","municipality":null,"scheduled_service":"no","icao_code":null,"iata_code":null,"gps_code":null,"local_code":null,"home_link":null,"wikipedia_link":null,"keywords":null},{"id":"329298","ident":"ES-0245","type":"closed","name":"Los Yébenes Airstrip","latitude_deg":"39.509499","longitude_deg":"-4.025966","elevation_ft":null,"continent":"EU","iso_country":"ES","iso_region":"ES-CM","municipality":null,"scheduled_service":"no","icao_code":null,"iata_code":null,"gps_code":null,"local_code":null,"home_link":null,"wikipedia_link":null,"keywords":null},{"id":"331183","ident":"ES-0246","type":"heliport","name":"Camarinal Helicopter Base","latitude_deg":"36.082422","longitude_deg":"-5.796723","elevation_ft":null,"continent":"EU","iso_country":"ES","iso_region":"ES-AN","municipality":"Cadiz","scheduled_service":"no","icao_code":null,"iata_code":null,"gps_code":null,"local_code":null,"home_link":null,"wikipedia_link":null,"keywords":null},{"id":"331316","ident":"ES-0247","type":"closed","name":"Tomelloso Airstrip","latitude_deg":"39.11266","longitude_deg":"-2.94219","elevation_ft":null,"continent":"EU","iso_country":"ES","iso_region":"ES-CM","municipality":null,"scheduled_service":"no","icao_code":null,"iata_code":null,"gps_code":null,"local_code":null,"home_link":null,"wikipedia_link":null,"keywords":null},{"id":"331329","ident":"ES-0248","type":"small_airport","name":"Atlas Center Vuelos de Drones","latitude_deg":"38.1392261","longitude_deg":"-3.1738682","elevation_ft":null,"continent":"EU","iso_country":"ES","iso_region":"ES-AN","municipality":null,"scheduled_service":"no","icao_code":null,"iata_code":null,"gps_code":null,"local_code":null,"home_link":null,"wikipedia_link":null,"keywords":null},{"id":"331330","ident":"ES-0249","type":"small_airport","name":"Beuda Besalu Private Airstrip","latitude_deg":"42.2114675","longitude_deg":"2.7092805","elevation_ft":null,"continent":"EU","iso_country":"ES","iso_region":"ES-CT","municipality":null,"scheduled_service":"no","icao_code":null,"iata_code":null,"gps_code":null,"local_code":null,"home_link":null,"wikipedia_link":null,"keywords":null},{"id":"331406","ident":"ES-0250","type":"small_airport","name":"Fresno de Losa Airstrip","latitude_deg":"42.9534667","longitude_deg":"-3.1531167","elevation_ft":null,"continent":"EU","iso_country":"ES","iso_region":"ES-CL","municipality":null,"scheduled_service":"no","icao_code":null,"iata_code":null,"gps_code":null,"local_code":null,"home_link":null,"wikipedia_link":null,"keywords":null},{"id":"331408","ident":"ES-0251","type":"small_airport","name":"Pueblonuevo de Miramontes Airstrip","latitude_deg":"40.059082","longitude_deg":"-5.363341","elevation_ft":null,"continent":"EU","iso_country":"ES","iso_region":"ES-EX","municipality":"Pueblonuevo de Miramontes","scheduled_service":"no","icao_code":null,"iata_code":null,"gps_code":null,"local_code":null,"home_link":null,"wikipedia_link":null,"keywords":null},{"id":"331411","ident":"ES-0252","type":"closed","name":"Calamocha Airstrip","latitude_deg":"40.902364","longitude_deg":"-1.298009","elevation_ft":"2963","continent":"EU","iso_country":"ES","iso_region":"ES-AR","municipality":"Calamocha","scheduled_service":"no","icao_code":null,"iata_code":null,"gps_code":null,"local_code":null,"home_link":null,"wikipedia_link":null,"keywords":"LECH"},{"id":"331419","ident":"ES-0253","type":"closed","name":"El Robledo","latitude_deg":"39.2242833","longitude_deg":"-4.3076333","elevation_ft":"1772","continent":"EU","iso_country":"ES","iso_region":"ES-CM","municipality":null,"scheduled_service":"no","icao_code":null,"iata_code":null,"gps_code":null,"local_code":null,"home_link":null,"wikipedia_link":null,"keywords":null},{"id":"331420","ident":"ES-0254","type":"closed","name":"Valdeperdices","latitude_deg":"39.403683","longitude_deg":"-4.918783","elevation_ft":null,"continent":"EU","iso_country":"ES","iso_region":"ES-CM","municipality":null,"scheduled_service":"no","icao_code":null,"iata_code":null,"gps_code":null,"local_code":null,"home_link":null,"wikipedia_link":null,"keywords":null},{"id":"331421","ident":"ES-0255","type":"heliport","name":"Vigil de Quinones Military Hospital Heliport","latitude_deg":"37.3474","longitude_deg":"-5.9716","elevation_ft":"40","continent":"EU","iso_country":"ES","iso_region":"ES-AN","municipality":"Seville","scheduled_service":"no","icao_code":null,"iata_code":null,"gps_code":null,"local_code":null,"home_link":null,"wikipedia_link":null,"keywords":null},{"id":"331529","ident":"ES-0256","type":"small_airport","name":"Valdenuño-Fernandez Airstrip","latitude_deg":"40.766317","longitude_deg":"-3.35485","elevation_ft":"2887","continent":"EU","iso_country":"ES","iso_region":"ES-CM","municipality":null,"scheduled_service":"no","icao_code":null,"iata_code":null,"gps_code":null,"local_code":null,"home_link":null,"wikipedia_link":null,"keywords":null},{"id":"331531","ident":"ES-0257","type":"small_airport","name":"Cabezas Rubias Airstrip","latitude_deg":"37.748234","longitude_deg":"-7.096699","elevation_ft":null,"continent":"EU","iso_country":"ES","iso_region":"ES-AN","municipality":null,"scheduled_service":"no","icao_code":null,"iata_code":null,"gps_code":null,"local_code":null,"home_link":null,"wikipedia_link":null,"keywords":null},{"id":"331570","ident":"ES-0258","type":"heliport","name":"Helipuerto de Sahechores","latitude_deg":"42.62011","longitude_deg":"-5.19233","elevation_ft":null,"continent":"EU","iso_country":"ES","iso_region":"ES-CL","municipality":null,"scheduled_service":"no","icao_code":null,"iata_code":null,"gps_code":null,"local_code":null,"home_link":null,"wikipedia_link":null,"keywords":null},{"id":"331716","ident":"ES-0259","type":"closed","name":"Piedrabuena - Los Jarales","latitude_deg":"39.05953","longitude_deg":"-4.23651","elevation_ft":null,"continent":"EU","iso_country":"ES","iso_region":"ES-CM","municipality":"Piedrabuena","scheduled_service":"no","icao_code":null,"iata_code":null,"gps_code":null,"local_code":null,"home_link":null,"wikipedia_link":null,"keywords":null},{"id":"331832","ident":"ES-0260","type":"heliport","name":"Illas Sisargas Heliport","latitude_deg":"43.3575972","longitude_deg":"-8.8440328","elevation_ft":null,"continent":"EU","iso_country":"ES","iso_region":"ES-GA","municipality":"Mapica","scheduled_service":"no","icao_code":null,"iata_code":null,"gps_code":null,"local_code":null,"home_link":null,"wikipedia_link":null,"keywords":null},{"id":"331923","ident":"ES-0261","type":"small_airport","name":"Sollana Agro Airstrip","latitude_deg":"39.270605","longitude_deg":"-0.364932","elevation_ft":null,"continent":"EU","iso_country":"ES","iso_region":"ES-VC","municipality":"Sollana","scheduled_service":"no","icao_code":null,"iata_code":null,"gps_code":null,"local_code":null,"home_link":null,"wikipedia_link":null,"keywords":null},{"id":"331924","ident":"ES-0262","type":"small_airport","name":"Base de aviones \"La Cerra\"","latitude_deg":"42.521305","longitude_deg":"-4.855477","elevation_ft":null,"continent":"EU","iso_country":"ES","iso_region":"ES-CL","municipality":"Villanueva de Duero","scheduled_service":"no","icao_code":null,"iata_code":null,"gps_code":null,"local_code":null,"home_link":null,"wikipedia_link":null,"keywords":null},{"id":"331941","ident":"ES-0263","type":"small_airport","name":"El Barranco - Sierra Morena","latitude_deg":"38.03774","longitude_deg":"-3.76585","elevation_ft":"800","continent":"EU","iso_country":"ES","iso_region":"ES-AN","municipality":"Bailén (Jaén)","scheduled_service":"no","icao_code":null,"iata_code":null,"gps_code":null,"local_code":null,"home_link":"https://www.instagram.com/aerodromo_sierra_morena","wikipedia_link":null,"keywords":"Aerodromo Sierra Morena, Bailen, El barranco"},{"id":"331944","ident":"ES-0264","type":"small_airport","name":"Aeródromo  Forestal Villaviciosa de Córdoba","latitude_deg":"38.05406","longitude_deg":"-5.04182","elevation_ft":"2067","continent":"EU","iso_country":"ES","iso_region":"ES-AN","municipality":null,"scheduled_service":"no","icao_code":null,"iata_code":null,"gps_code":null,"local_code":null,"home_link":null,"wikipedia_link":null,"keywords":null},{"id":"332160","ident":"ES-0265","type":"small_airport","name":"Valdemorillo Airstrip","latitude_deg":"40.485591","longitude_deg":"-4.050783","elevation_ft":"2674","continent":"EU","iso_country":"ES","iso_region":"ES-MD","municipality":"Valdemorillo","scheduled_service":"no","icao_code":null,"iata_code":null,"gps_code":null,"local_code":null,"home_link":null,"wikipedia_link":null,"keywords":null},{"id":"332165","ident":"ES-0266","type":"small_airport","name":"La Font de la Figuera Airstrip","latitude_deg":"38.786783","longitude_deg":"-0.8763","elevation_ft":"1969","continent":"EU","iso_country":"ES","iso_region":"ES-VC","municipality":null,"scheduled_service":"no","icao_code":null,"iata_code":null,"gps_code":null,"local_code":null,"home_link":null,"wikipedia_link":null,"keywords":null},{"id":"332321","ident":"ES-0267","type":"small_airport","name":"Santa Cruz de la Zarza Airstrip","latitude_deg":"39.976746","longitude_deg":"-3.197516","elevation_ft":null,"continent":"EU","iso_country":"ES","iso_region":"ES-CM","municipality":null,"scheduled_service":"no","icao_code":null,"iata_code":null,"gps_code":null,"local_code":null,"home_link":null,"wikipedia_link":null,"keywords":null},{"id":"332333","ident":"ES-0268","type":"small_airport","name":"Riola Agro Airstrip","latitude_deg":"39.180737","longitude_deg":"-0.338459","elevation_ft":"66","continent":"EU","iso_country":"ES","iso_region":"ES-VC","municipality":"Riola","scheduled_service":"no","icao_code":null,"iata_code":null,"gps_code":null,"local_code":null,"home_link":null,"wikipedia_link":null,"keywords":null},{"id":"332462","ident":"ES-0269","type":"closed","name":"Enova Airstrip","latitude_deg":"39.03365","longitude_deg":"-0.47555","elevation_ft":null,"continent":"EU","iso_country":"ES","iso_region":"ES-VC","municipality":null,"scheduled_service":"no","icao_code":null,"iata_code":null,"gps_code":null,"local_code":null,"home_link":null,"wikipedia_link":null,"keywords":null},{"id":"332469","ident":"ES-0270","type":"closed","name":"Torres Torres Airstrip","latitude_deg":"39.730145","longitude_deg":"-0.330234","elevation_ft":"394","continent":"EU","iso_country":"ES","iso_region":"ES-VC","municipality":"Estivella","scheduled_service":"no","icao_code":null,"iata_code":null,"gps_code":null,"local_code":null,"home_link":null,"wikipedia_link":null,"keywords":null},{"id":"332577","ident":"ES-0271","type":"small_airport","name":"Terrinches Agro Airstrip","latitude_deg":"38.61471","longitude_deg":"-2.85748","elevation_ft":"3366","continent":"EU","iso_country":"ES","iso_region":"ES-CM","municipality":"Terrinches","scheduled_service":"no","icao_code":null,"iata_code":null,"gps_code":null,"local_code":null,"home_link":null,"wikipedia_link":null,"keywords":null},{"id":"333942","ident":"ES-0272","type":"heliport","name":"Blancos del Coscojar Heliport","latitude_deg":"40.3216","longitude_deg":"-1.056629","elevation_ft":"1020","continent":"EU","iso_country":"ES","iso_region":"ES-AR","municipality":"Blancos del Coscojar","scheduled_service":"no","icao_code":null,"iata_code":null,"gps_code":"LEFB","local_code":null,"home_link":null,"wikipedia_link":null,"keywords":null},{"id":"334915","ident":"ES-0273","type":"heliport","name":"San Fernando Helicopter Base","latitude_deg":"36.441879","longitude_deg":"-6.221244","elevation_ft":null,"continent":"EU","iso_country":"ES","iso_region":"ES-AN","municipality":"Cadiz","scheduled_service":"no","icao_code":null,"iata_code":null,"gps_code":null,"local_code":null,"home_link":null,"wikipedia_link":null,"keywords":null},{"id":"334993","ident":"ES-0274","type":"heliport","name":"Alborán Helistrip","latitude_deg":"35.93932","longitude_deg":"-3.03519","elevation_ft":null,"continent":"EU","iso_country":"ES","iso_region":"ES-AN","municipality":"Almería","scheduled_service":"no","icao_code":null,"iata_code":null,"gps_code":null,"local_code":null,"home_link":null,"wikipedia_link":null,"keywords":null},{"id":"336561","ident":"ES-0275","type":"heliport","name":"Toén Firefighting Heliport","latitude_deg":"42.265853","longitude_deg":"-7.944971","elevation_ft":"1955","continent":"EU","iso_country":"ES","iso_region":"ES-GA","municipality":"Trelle","scheduled_service":"no","icao_code":null,"iata_code":null,"gps_code":null,"local_code":null,"home_link":null,"wikipedia_link":null,"keywords":null},{"id":"337036","ident":"ES-0276","type":"small_airport","name":"La Cuesta Aerodrome","latitude_deg":"38.53092","longitude_deg":"-2.832511","elevation_ft":"2736","continent":"EU","iso_country":"ES","iso_region":"ES-CM","municipality":"La Cuesta","scheduled_service":"no","icao_code":null,"iata_code":null,"gps_code":"LEDC","local_code":null,"home_link":"http://fincalacuesta.com/","wikipedia_link":null,"keywords":null},{"id":"337380","ident":"ES-0277","type":"heliport","name":"Mofeta Helicopter Base","latitude_deg":"36.34737","longitude_deg":"-5.65463","elevation_ft":null,"continent":"EU","iso_country":"ES","iso_region":"ES-AN","municipality":null,"scheduled_service":"no","icao_code":null,"iata_code":null,"gps_code":null,"local_code":null,"home_link":null,"wikipedia_link":null,"keywords":null},{"id":"337483","ident":"ES-0278","type":"small_airport","name":"Santa Eulària des Riu Airfield","latitude_deg":"38.990453","longitude_deg":"1.503496","elevation_ft":null,"continent":"EU","iso_country":"ES","iso_region":"ES-IB","municipality":"Santa Eulària des Riu","scheduled_service":"no","icao_code":null,"iata_code":null,"gps_code":null,"local_code":null,"home_link":null,"wikipedia_link":null,"keywords":null},{"id":"340403","ident":"ES-0279","type":"heliport","name":"Formentera Heliport","latitude_deg":"38.707918","longitude_deg":"1.435214","elevation_ft":null,"continent":"EU","iso_country":"ES","iso_region":"ES-IB","municipality":"Sant Francesc Xavier","scheduled_service":"no","icao_code":null,"iata_code":null,"gps_code":null,"local_code":null,"home_link":null,"wikipedia_link":null,"keywords":null},{"id":"340404","ident":"ES-0280","type":"heliport","name":"Isla de Tarifa Heliport","latitude_deg":"36.002875","longitude_deg":"-5.611176","elevation_ft":null,"continent":"EU","iso_country":"ES","iso_region":"ES-AN","municipality":"Tarifa","scheduled_service":"no","icao_code":null,"iata_code":null,"gps_code":null,"local_code":null,"home_link":null,"wikipedia_link":null,"keywords":null},{"id":"341521","ident":"ES-0281","type":"heliport","name":"A Coruña Fire Station Heliport","latitude_deg":"43.45399","longitude_deg":"-7.85429","elevation_ft":null,"continent":"EU","iso_country":"ES","iso_region":"ES-GA","municipality":"A Coruña","scheduled_service":"no","icao_code":null,"iata_code":null,"gps_code":null,"local_code":null,"home_link":null,"wikipedia_link":null,"keywords":null},{"id":"341987","ident":"ES-0282","type":"heliport","name":"Casas de Juan Núñez Heliport","latitude_deg":"39.1103","longitude_deg":"-1.5578","elevation_ft":"2291","continent":"EU","iso_country":"ES","iso_region":"ES-CM","municipality":"Casas de Juan Núñez","scheduled_service":"no","icao_code":null,"iata_code":null,"gps_code":null,"local_code":"CJN","home_link":null,"wikipedia_link":null,"keywords":"CM-CJN"},{"id":"341988","ident":"ES-0283","type":"heliport","name":"Montealegre del Castillo Heliport","latitude_deg":"38.7994","longitude_deg":"-1.3131","elevation_ft":"2663","continent":"EU","iso_country":"ES","iso_region":"ES-CM","municipality":"Montealegre del Castillo","scheduled_service":"no","icao_code":null,"iata_code":null,"gps_code":null,"local_code":null,"home_link":null,"wikipedia_link":null,"keywords":"CM-MAC"},{"id":"341989","ident":"ES-0284","type":"heliport","name":"La Roda Sescam Heliport","latitude_deg":"39.1907","longitude_deg":"-2.1486","elevation_ft":"2306","continent":"EU","iso_country":"ES","iso_region":"ES-CM","municipality":"La Roda","scheduled_service":"no","icao_code":null,"iata_code":null,"gps_code":null,"local_code":null,"home_link":null,"wikipedia_link":null,"keywords":null},{"id":"341990","ident":"ES-0285","type":"heliport","name":"Albacete University Hospital (FATO) Heliport","latitude_deg":"38.9823","longitude_deg":"-1.8444","elevation_ft":null,"continent":"EU","iso_country":"ES","iso_region":"ES-CM","municipality":"Albacete","scheduled_service":"no","icao_code":null,"iata_code":null,"gps_code":null,"local_code":"UAB","home_link":null,"wikipedia_link":null,"keywords":"CM-UAB"},{"id":"341991","ident":"ES-0286","type":"heliport","name":"Casas de Lázaro Heliport","latitude_deg":"38.7748","longitude_deg":"-2.2432","elevation_ft":"3087","continent":"EU","iso_country":"ES","iso_region":"ES-CM","municipality":"Casas de Lázaro","scheduled_service":"no","icao_code":null,"iata_code":null,"gps_code":null,"local_code":"CDL","home_link":null,"wikipedia_link":null,"keywords":"CM-CDL"},{"id":"342014","ident":"ES-0287","type":"heliport","name":"Los Santos de la Humosa Helipad","latitude_deg":"40.5072","longitude_deg":"-3.2526","elevation_ft":null,"continent":"EU","iso_country":"ES","iso_region":"ES-MD","municipality":"Los Santos de la Humosa","scheduled_service":"no","icao_code":null,"iata_code":null,"gps_code":null,"local_code":null,"home_link":null,"wikipedia_link":null,"keywords":null},{"id":"342015","ident":"ES-0288","type":"heliport","name":"Serracines Heliport","latitude_deg":"40.623","longitude_deg":"-3.3973","elevation_ft":"2277","continent":"EU","iso_country":"ES","iso_region":"ES-MD","municipality":"Serracines","scheduled_service":"no","icao_code":null,"iata_code":null,"gps_code":null,"local_code":null,"home_link":null,"wikipedia_link":null,"keywords":null},{"id":"342016","ident":"ES-0289","type":"heliport","name":"Ribatejada Heliport","latitude_deg":"40.6658","longitude_deg":"-3.3907","elevation_ft":"2480","continent":"EU","iso_country":"ES","iso_region":"ES-MD","municipality":"Ribatejada","scheduled_service":"no","icao_code":null,"iata_code":null,"gps_code":null,"local_code":null,"home_link":null,"wikipedia_link":null,"keywords":null},{"id":"342017","ident":"ES-0290","type":"heliport","name":"Guadalajara Heliport","latitude_deg":"40.6578","longitude_deg":"-3.1731","elevation_ft":"2100","continent":"EU","iso_country":"ES","iso_region":"ES-CM","municipality":"Guadalajara","scheduled_service":"no","icao_code":null,"iata_code":null,"gps_code":null,"local_code":null,"home_link":null,"wikipedia_link":null,"keywords":null},{"id":"342022","ident":"ES-0291","type":"heliport","name":"Las Rozas Firefighting Heliport","latitude_deg":"40.520209","longitude_deg":"-3.882832","elevation_ft":"2402","continent":"EU","iso_country":"ES","iso_region":"ES-MD","municipality":"Las Rozas de Madrid","scheduled_service":"no","icao_code":null,"iata_code":null,"gps_code":"LELR","local_code":null,"home_link":null,"wikipedia_link":null,"keywords":null},{"id":"342666","ident":"ES-0292","type":"heliport","name":"Helipuerto de Segovia","latitude_deg":"40.923444","longitude_deg":"-4.173464","elevation_ft":null,"continent":"EU","iso_country":"ES","iso_region":"ES-CL","municipality":null,"scheduled_service":"no","icao_code":null,"iata_code":null,"gps_code":null,"local_code":null,"home_link":null,"wikipedia_link":null,"keywords":null},{"id":"342862","ident":"ES-0293","type":"heliport","name":"Cartagena Helicopter Base","latitude_deg":"37.697502","longitude_deg":"-0.842058","elevation_ft":null,"continent":"EU","iso_country":"ES","iso_region":"ES-MC","municipality":null,"scheduled_service":"no","icao_code":null,"iata_code":null,"gps_code":null,"local_code":null,"home_link":null,"wikipedia_link":null,"keywords":null},{"id":"343207","ident":"ES-0294","type":"small_airport","name":"Portocristo Airstrip","latitude_deg":"39.55833","longitude_deg":"3.32024","elevation_ft":null,"continent":"EU","iso_country":"ES","iso_region":"ES-IB","municipality":"Manacor","scheduled_service":"no","icao_code":null,"iata_code":null,"gps_code":null,"local_code":null,"home_link":null,"wikipedia_link":null,"keywords":null},{"id":"343208","ident":"ES-0295","type":"small_airport","name":"Beas Airstrip","latitude_deg":"37.41816","longitude_deg":"-6.76054","elevation_ft":null,"continent":"EU","iso_country":"ES","iso_region":"ES-AN","municipality":null,"scheduled_service":"no","icao_code":null,"iata_code":null,"gps_code":null,"local_code":null,"home_link":null,"wikipedia_link":null,"keywords":null},{"id":"343803","ident":"ES-0296","type":"small_airport","name":"Aerodromo de Sevares","latitude_deg":"43.36372","longitude_deg":"-5.24199","elevation_ft":null,"continent":"EU","iso_country":"ES","iso_region":"ES-AS","municipality":"Piloña","scheduled_service":"no","icao_code":null,"iata_code":null,"gps_code":null,"local_code":null,"home_link":null,"wikipedia_link":null,"keywords":null},{"id":"349290","ident":"ES-0297","type":"heliport","name":"La Línea de la Concepción District Hospital Heliport","latitude_deg":"36.17512","longitude_deg":"-5.35255","elevation_ft":"40","continent":"EU","iso_country":"ES","iso_region":"ES-AN","municipality":"La Línea de la Concepción","scheduled_service":"no","icao_code":null,"iata_code":null,"gps_code":null,"local_code":null,"home_link":null,"wikipedia_link":null,"keywords":null},{"id":"349291","ident":"ES-0298","type":"heliport","name":"Punta de Europa Hospital Heliport","latitude_deg":"36.11066","longitude_deg":"-5.44163","elevation_ft":"98","continent":"EU","iso_country":"ES","iso_region":"ES-AN","municipality":"Algeciras","scheduled_service":"no","icao_code":null,"iata_code":null,"gps_code":null,"local_code":null,"home_link":null,"wikipedia_link":null,"keywords":null},{"id":"349292","ident":"ES-0299","type":"heliport","name":"Algeciras Caravan Park Helipad","latitude_deg":"36.13568","longitude_deg":"-5.44475","elevation_ft":"3","continent":"EU","iso_country":"ES","iso_region":"ES-AN","municipality":"Algeciras","scheduled_service":"no","icao_code":null,"iata_code":null,"gps_code":null,"local_code":null,"home_link":null,"wikipedia_link":null,"keywords":null},{"id":"349441","ident":"ES-0300","type":"heliport","name":"Ronda Helicopter Base","latitude_deg":"36.76178","longitude_deg":"-5.17335","elevation_ft":null,"continent":"EU","iso_country":"ES","iso_region":"ES-AN","municipality":null,"scheduled_service":"no","icao_code":null,"iata_code":null,"gps_code":null,"local_code":null,"home_link":null,"wikipedia_link":null,"keywords":null},{"id":"350740","ident":"ES-0301","type":"small_airport","name":"Ondara Airstrip","latitude_deg":"38.810743","longitude_deg":"0.002661","elevation_ft":null,"continent":"EU","iso_country":"ES","iso_region":"ES-VC","municipality":"Ondara","scheduled_service":"no","icao_code":null,"iata_code":null,"gps_code":null,"local_code":null,"home_link":null,"wikipedia_link":null,"keywords":null},{"id":"355230","ident":"ES-0302","type":"heliport","name":"Rota Naval Base Heliport","latitude_deg":"36.639569","longitude_deg":"-6.328779","elevation_ft":"23","continent":"EU","iso_country":"ES","iso_region":"ES-AN","municipality":"Cadiz","scheduled_service":"no","icao_code":null,"iata_code":null,"gps_code":null,"local_code":null,"home_link":null,"wikipedia_link":null,"keywords":null},{"id":"355318","ident":"ES-0303","type":"heliport","name":"Parc Taulí Heliport","latitude_deg":"41.55803","longitude_deg":"2.10875","elevation_ft":"649","continent":"EU","iso_country":"ES","iso_region":"ES-CT","municipality":"Sabadell","scheduled_service":"no","icao_code":null,"iata_code":null,"gps_code":"LERC","local_code":null,"home_link":null,"wikipedia_link":null,"keywords":null},{"id":"355319","ident":"ES-0304","type":"heliport","name":"Pulpí Helipad","latitude_deg":"37.401077","longitude_deg":"-1.746113","elevation_ft":"616","continent":"EU","iso_country":"ES","iso_region":"ES-AN","municipality":"Pulpí","scheduled_service":"no","icao_code":null,"iata_code":null,"gps_code":null,"local_code":null,"home_link":null,"wikipedia_link":null,"keywords":null},{"id":"355320","ident":"ES-0305","type":"heliport","name":"Vilaller Heliport","latitude_deg":"42.47221","longitude_deg":"0.71262","elevation_ft":"3172","continent":"EU","iso_country":"ES","iso_region":"ES-CT","municipality":"Vilaller","scheduled_service":"no","icao_code":null,"iata_code":null,"gps_code":null,"local_code":null,"home_link":null,"wikipedia_link":null,"keywords":null},{"id":"542149","ident":"ES-0306","type":"small_airport","name":"Base aérea de Verín-Oímbra","latitude_deg":"41.84261","longitude_deg":"-7.42873","elevation_ft":null,"continent":"EU","iso_country":"ES","iso_region":"ES-GA","municipality":null,"scheduled_service":"no","icao_code":null,"iata_code":null,"gps_code":null,"local_code":null,"home_link":null,"wikipedia_link":null,"keywords":null},{"id":"355323","ident":"ES-0307","type":"heliport","name":"Los Llanos Helipad","latitude_deg":"28.65657","longitude_deg":"-17.9159","elevation_ft":"1233","continent":"AF","iso_country":"ES","iso_region":"ES-CN","municipality":"38768 Los Llanos","scheduled_service":"no","icao_code":null,"iata_code":null,"gps_code":null,"local_code":null,"home_link":null,"wikipedia_link":null,"keywords":null},{"id":"355325","ident":"ES-0308","type":"heliport","name":"Tejeda Heliport","latitude_deg":"27.99362","longitude_deg":"-15.60982","elevation_ft":"3887","continent":"AF","iso_country":"ES","iso_region":"ES-CN","municipality":"35369 Tejeda","scheduled_service":"no","icao_code":null,"iata_code":null,"gps_code":null,"local_code":null,"home_link":null,"wikipedia_link":null,"keywords":null},{"id":"355327","ident":"ES-0309","type":"heliport","name":"Cadalso de los Vidrios Heliport","latitude_deg":"40.30569","longitude_deg":"-4.44328","elevation_ft":"2690","continent":"EU","iso_country":"ES","iso_region":"ES-MD","municipality":"28640 Cadalso de los Vidrios","scheduled_service":"no","icao_code":null,"iata_code":null,"gps_code":null,"local_code":null,"home_link":null,"wikipedia_link":null,"keywords":null},{"id":"429745","ident":"ES-0310","type":"heliport","name":"Mateu Órfila Hospital Heliport","latitude_deg":"39.88274","longitude_deg":"4.25225","elevation_ft":null,"continent":"EU","iso_country":"ES","iso_region":"ES-IB","municipality":"Mahón (Maó)","scheduled_service":"no","icao_code":null,"iata_code":null,"gps_code":null,"local_code":null,"home_link":null,"wikipedia_link":null,"keywords":null},{"id":"429746","ident":"ES-0311","type":"heliport","name":"Son Morell Heliport and R/C Field","latitude_deg":"40.04684","longitude_deg":"3.86701","elevation_ft":null,"continent":"EU","iso_country":"ES","iso_region":"ES-IB","municipality":"Cala Morell","scheduled_service":"no","icao_code":null,"iata_code":null,"gps_code":null,"local_code":null,"home_link":null,"wikipedia_link":null,"keywords":null},{"id":"429747","ident":"ES-0312","type":"heliport","name":"Esporles Private Helipad","latitude_deg":"39.67124","longitude_deg":"2.55311","elevation_ft":null,"continent":"EU","iso_country":"ES","iso_region":"ES-IB","municipality":"Esporles","scheduled_service":"no","icao_code":null,"iata_code":null,"gps_code":null,"local_code":null,"home_link":null,"wikipedia_link":null,"keywords":null},{"id":"429748","ident":"ES-0313","type":"heliport","name":"Son Espases Heliport","latitude_deg":"39.6093","longitude_deg":"2.64565","elevation_ft":null,"continent":"EU","iso_country":"ES","iso_region":"ES-IB","municipality":"Palma de Mallorca","scheduled_service":"no","icao_code":null,"iata_code":null,"gps_code":null,"local_code":null,"home_link":null,"wikipedia_link":null,"keywords":null},{"id":"429749","ident":"ES-0314","type":"heliport","name":"Bunyola Private Heliport","latitude_deg":"39.65771","longitude_deg":"2.72726","elevation_ft":null,"continent":"EU","iso_country":"ES","iso_region":"ES-IB","municipality":"Marratxí","scheduled_service":"no","icao_code":null,"iata_code":null,"gps_code":null,"local_code":null,"home_link":null,"wikipedia_link":null,"keywords":null},{"id":"429751","ident":"ES-0315","type":"heliport","name":"Platges de Muro Rescue Heliport","latitude_deg":"39.79278","longitude_deg":"3.12514","elevation_ft":null,"continent":"EU","iso_country":"ES","iso_region":"ES-IB","municipality":"Muro","scheduled_service":"no","icao_code":null,"iata_code":null,"gps_code":null,"local_code":null,"home_link":null,"wikipedia_link":null,"keywords":null},{"id":"429752","ident":"ES-0316","type":"heliport","name":"Xàbia Heliport","latitude_deg":"38.77313","longitude_deg":"0.17734","elevation_ft":null,"continent":"EU","iso_country":"ES","iso_region":"ES-VC","municipality":"Xàbia","scheduled_service":"no","icao_code":null,"iata_code":null,"gps_code":null,"local_code":null,"home_link":"https://www.heliportxabia.com","wikipedia_link":null,"keywords":null},{"id":"429753","ident":"ES-0317","type":"heliport","name":"Montanejos Heliport","latitude_deg":"40.06123","longitude_deg":"-0.53067","elevation_ft":null,"continent":"EU","iso_country":"ES","iso_region":"ES-VC","municipality":"Montanejos","scheduled_service":"no","icao_code":null,"iata_code":null,"gps_code":null,"local_code":null,"home_link":null,"wikipedia_link":null,"keywords":null},{"id":"429754","ident":"ES-0318","type":"heliport","name":"Los Calpes Heliport","latitude_deg":"40.07269","longitude_deg":"-0.58777","elevation_ft":null,"continent":"EU","iso_country":"ES","iso_region":"ES-VC","municipality":"Los Calpes","scheduled_service":"no","icao_code":null,"iata_code":null,"gps_code":null,"local_code":null,"home_link":null,"wikipedia_link":null,"keywords":null},{"id":"429756","ident":"ES-0319","type":"heliport","name":"Cella Emergency Heliport","latitude_deg":"40.45859","longitude_deg":"-1.28498","elevation_ft":null,"continent":"EU","iso_country":"ES","iso_region":"ES-AR","municipality":"Cella","scheduled_service":"no","icao_code":null,"iata_code":null,"gps_code":null,"local_code":null,"home_link":null,"wikipedia_link":null,"keywords":null},{"id":"429757","ident":"ES-0320","type":"heliport","name":"Santa Eulalia Emergency Heliport","latitude_deg":"40.57215","longitude_deg":"-1.32151","elevation_ft":null,"continent":"EU","iso_country":"ES","iso_region":"ES-AR","municipality":"Santa Eulalia","scheduled_service":"no","icao_code":null,"iata_code":null,"gps_code":null,"local_code":null,"home_link":null,"wikipedia_link":null,"keywords":null},{"id":"429758","ident":"ES-0321","type":"heliport","name":"Utrillas Heliport","latitude_deg":"40.80985","longitude_deg":"-0.84746","elevation_ft":null,"continent":"EU","iso_country":"ES","iso_region":"ES-AR","municipality":"Utrillas","scheduled_service":"no","icao_code":null,"iata_code":null,"gps_code":null,"local_code":null,"home_link":null,"wikipedia_link":null,"keywords":null},{"id":"429759","ident":"ES-0322","type":"closed","name":"Plenas Airfield","latitude_deg":"41.10997","longitude_deg":"-0.94941","elevation_ft":null,"continent":"EU","iso_country":"ES","iso_region":"ES-AR","municipality":"Plenas","scheduled_service":"no","icao_code":null,"iata_code":null,"gps_code":null,"local_code":null,"home_link":null,"wikipedia_link":null,"keywords":null},{"id":"429760","ident":"ES-0323","type":"heliport","name":"Daroca Heliport","latitude_deg":"41.13216","longitude_deg":"-1.41989","elevation_ft":null,"continent":"EU","iso_country":"ES","iso_region":"ES-AR","municipality":"Daroca","scheduled_service":"no","icao_code":null,"iata_code":null,"gps_code":null,"local_code":null,"home_link":null,"wikipedia_link":null,"keywords":null},{"id":"429793","ident":"ES-0324","type":"heliport","name":"Melilla Heliport","latitude_deg":"35.3021","longitude_deg":"-2.94448","elevation_ft":"225","continent":"AF","iso_country":"ES","iso_region":"ES-ML","municipality":"Melilla","scheduled_service":"no","icao_code":"GEHM","iata_code":null,"gps_code":"GEHM","local_code":null,"home_link":null,"wikipedia_link":null,"keywords":null},{"id":"429799","ident":"ES-0325","type":"heliport","name":"Morro Jable Heliport","latitude_deg":"28.05214","longitude_deg":"-14.36124","elevation_ft":null,"continent":"AF","iso_country":"ES","iso_region":"ES-CN","municipality":"Morro Jable","scheduled_service":"no","icao_code":null,"iata_code":null,"gps_code":null,"local_code":null,"home_link":null,"wikipedia_link":null,"keywords":null},{"id":"430537","ident":"ES-0326","type":"heliport","name":"Coll de Rates Helipad","latitude_deg":"38.723737","longitude_deg":"-0.061191","elevation_ft":"2061","continent":"EU","iso_country":"ES","iso_region":"ES-VC","municipality":"Parcent","scheduled_service":"no","icao_code":null,"iata_code":null,"gps_code":null,"local_code":null,"home_link":null,"wikipedia_link":null,"keywords":null},{"id":"430635","ident":"ES-0327","type":"heliport","name":"Grossa Helipad","latitude_deg":"39.898227","longitude_deg":"0.684122","elevation_ft":null,"continent":"EU","iso_country":"ES","iso_region":"ES-VC","municipality":"Castellon","scheduled_service":"no","icao_code":null,"iata_code":null,"gps_code":null,"local_code":null,"home_link":null,"wikipedia_link":null,"keywords":null},{"id":"430636","ident":"ES-0328","type":"heliport","name":"Cabrera Helipad","latitude_deg":"39.142996","longitude_deg":"2.937596","elevation_ft":null,"continent":"EU","iso_country":"ES","iso_region":"ES-IB","municipality":null,"scheduled_service":"no","icao_code":null,"iata_code":null,"gps_code":null,"local_code":null,"home_link":null,"wikipedia_link":null,"keywords":null},{"id":"430645","ident":"ES-0329","type":"small_airport","name":"Capdepera Aerodrom","latitude_deg":"39.692111","longitude_deg":"3.406375","elevation_ft":null,"continent":"EU","iso_country":"ES","iso_region":"ES-IB","municipality":null,"scheduled_service":"no","icao_code":null,"iata_code":null,"gps_code":null,"local_code":null,"home_link":null,"wikipedia_link":null,"keywords":null},{"id":"430646","ident":"ES-0330","type":"heliport","name":"Punta de l'Avançada Heliport","latitude_deg":"39.905053","longitude_deg":"3.109839","elevation_ft":null,"continent":"EU","iso_country":"ES","iso_region":"ES-IB","municipality":"Pollença","scheduled_service":"no","icao_code":null,"iata_code":null,"gps_code":null,"local_code":null,"home_link":null,"wikipedia_link":null,"keywords":null},{"id":"430647","ident":"ES-0331","type":"heliport","name":"La Graciosa Heliport","latitude_deg":"29.229606","longitude_deg":"-13.510984","elevation_ft":null,"continent":"AF","iso_country":"ES","iso_region":"ES-CN","municipality":null,"scheduled_service":"no","icao_code":null,"iata_code":null,"gps_code":null,"local_code":null,"home_link":null,"wikipedia_link":null,"keywords":null},{"id":"506314","ident":"ES-0332","type":"small_airport","name":"El Membrillar","latitude_deg":"39.39256","longitude_deg":"-4.73449","elevation_ft":"2011","continent":"EU","iso_country":"ES","iso_region":"ES-CM","municipality":null,"scheduled_service":"no","icao_code":null,"iata_code":null,"gps_code":"LEML","local_code":null,"home_link":null,"wikipedia_link":null,"keywords":null},{"id":"509349","ident":"ES-0333","type":"small_airport","name":"Carreras de Galgos Airstrip","latitude_deg":"39.2007","longitude_deg":"-3.5988","elevation_ft":null,"continent":"EU","iso_country":"ES","iso_region":"ES-CM","municipality":"Galgos de Villarrubia de los Ojos","scheduled_service":"no","icao_code":null,"iata_code":null,"gps_code":null,"local_code":null,"home_link":null,"wikipedia_link":null,"keywords":null},{"id":"510463","ident":"ES-0334","type":"balloonport","name":"Globedrom de Son Perot","latitude_deg":"39.574676","longitude_deg":"3.15622","elevation_ft":null,"continent":"EU","iso_country":"ES","iso_region":"ES-IB","municipality":null,"scheduled_service":"no","icao_code":null,"iata_code":null,"gps_code":null,"local_code":null,"home_link":"https://www.mallorcaballoons.com","wikipedia_link":null,"keywords":null},{"id":"511835","ident":"ES-0335","type":"small_airport","name":"El Arenosilllo Airstrip","latitude_deg":"37.09727","longitude_deg":"-6.73394","elevation_ft":null,"continent":"EU","iso_country":"ES","iso_region":"ES-AN","municipality":"Moguer","scheduled_service":"no","icao_code":null,"iata_code":null,"gps_code":null,"local_code":null,"home_link":null,"wikipedia_link":null,"keywords":"CEDEA"},{"id":"512615","ident":"ES-0336","type":"heliport","name":"Parque de Bomberos de Cangas de Onís Heliport","latitude_deg":"43.35014","longitude_deg":"-5.11164","elevation_ft":null,"continent":"EU","iso_country":"ES","iso_region":"ES-AS","municipality":"Cangas de Onís","scheduled_service":"no","icao_code":null,"iata_code":null,"gps_code":null,"local_code":null,"home_link":null,"wikipedia_link":null,"keywords":null},{"id":"512845","ident":"ES-0337","type":"heliport","name":"Ibias Park Fire Fighting Heliport","latitude_deg":"43.027069","longitude_deg":"-6.88433","elevation_ft":"2533","continent":"EU","iso_country":"ES","iso_region":"ES-AS","municipality":"San Antolín de Ibias","scheduled_service":"no","icao_code":"LEBO","iata_code":null,"gps_code":"LEBO","local_code":null,"home_link":null,"wikipedia_link":null,"keywords":"Liares"},{"id":"514552","ident":"ES-0338","type":"heliport","name":"Helipuerto de Campillo de la Jara","latitude_deg":"39.60047","longitude_deg":"-5.05067","elevation_ft":null,"continent":"EU","iso_country":"ES","iso_region":"ES-CM","municipality":null,"scheduled_service":"no","icao_code":null,"iata_code":null,"gps_code":null,"local_code":null,"home_link":null,"wikipedia_link":null,"keywords":null},{"id":"520317","ident":"ES-0339","type":"small_airport","name":"Taragudo Airfield UL","latitude_deg":"40.82177","longitude_deg":"-3.09347","elevation_ft":null,"continent":"EU","iso_country":"ES","iso_region":"ES-CM","municipality":"Taragudo","scheduled_service":"no","icao_code":null,"iata_code":null,"gps_code":null,"local_code":null,"home_link":null,"wikipedia_link":null,"keywords":null},{"id":"521992","ident":"ES-0340","type":"small_airport","name":"Aeródromo de La Ina","latitude_deg":"36.62949","longitude_deg":"-6.01826","elevation_ft":null,"continent":"EU","iso_country":"ES","iso_region":"ES-AN","municipality":null,"scheduled_service":"no","icao_code":null,"iata_code":null,"gps_code":null,"local_code":null,"home_link":null,"wikipedia_link":null,"keywords":null},{"id":"531512","ident":"ES-0341","type":"heliport","name":"Heliporto de Becerreá","latitude_deg":"42.8652","longitude_deg":"-7.18761","elevation_ft":null,"continent":"EU","iso_country":"ES","iso_region":"ES-GA","municipality":null,"scheduled_service":"no","icao_code":null,"iata_code":null,"gps_code":null,"local_code":null,"home_link":null,"wikipedia_link":null,"keywords":null},{"id":"531513","ident":"ES-0342","type":"heliport","name":"FIB Xurés Heliport","latitude_deg":"41.95115","longitude_deg":"-7.95731","elevation_ft":"2755","continent":"EU","iso_country":"ES","iso_region":"ES-GA","municipality":"Ourense","scheduled_service":"no","icao_code":null,"iata_code":null,"gps_code":"LEXU","local_code":null,"home_link":null,"wikipedia_link":null,"keywords":"Base Incendios Forestais Xurés"},{"id":"531650","ident":"ES-0343","type":"heliport","name":"Silleda Fire Base Heliport","latitude_deg":"42.693527","longitude_deg":"-8.224195","elevation_ft":null,"continent":"EU","iso_country":"ES","iso_region":"ES-GA","municipality":"Silleda","scheduled_service":"no","icao_code":null,"iata_code":null,"gps_code":null,"local_code":null,"home_link":null,"wikipedia_link":null,"keywords":null},{"id":"532006","ident":"ES-0344","type":"heliport","name":"San Xoán de Río Forest Fire Base Heliport","latitude_deg":"42.38395","longitude_deg":"-7.30131","elevation_ft":"3356","continent":"EU","iso_country":"ES","iso_region":"ES-GA","municipality":null,"scheduled_service":"no","icao_code":null,"iata_code":null,"gps_code":null,"local_code":null,"home_link":null,"wikipedia_link":null,"keywords":null},{"id":"532277","ident":"ES-0345","type":"heliport","name":"Barco de Valdeorras Heliport","latitude_deg":"42.434147","longitude_deg":"-6.972064","elevation_ft":"1378","continent":"EU","iso_country":"ES","iso_region":"ES-GA","municipality":"Ourense","scheduled_service":"no","icao_code":null,"iata_code":null,"gps_code":null,"local_code":null,"home_link":null,"wikipedia_link":null,"keywords":null},{"id":"532278","ident":"ES-0346","type":"heliport","name":"Marroxo Heliport","latitude_deg":"42.47302","longitude_deg":"-7.50139","elevation_ft":"2085","continent":"EU","iso_country":"ES","iso_region":"ES-GA","municipality":"Ourense","scheduled_service":"no","icao_code":null,"iata_code":null,"gps_code":"LEXO","local_code":null,"home_link":null,"wikipedia_link":null,"keywords":"Helipuerto C.I. de Marroxo"},{"id":"534122","ident":"ES-0347","type":"small_airport","name":"Castejón de Sos field","latitude_deg":"42.52247","longitude_deg":"0.48111","elevation_ft":null,"continent":"EU","iso_country":"ES","iso_region":"ES-AR","municipality":"Castejón de Sos","scheduled_service":"no","icao_code":null,"iata_code":null,"gps_code":null,"local_code":"ES0205","home_link":null,"wikipedia_link":null,"keywords":null},{"id":"549935","ident":"ES-0348","type":"heliport","name":"Reina Sofía Hospital Heliport","latitude_deg":"42.040262","longitude_deg":"-1.625955","elevation_ft":"1030","continent":"EU","iso_country":"ES","iso_region":"ES-NC","municipality":"Tudela,","scheduled_service":"no","icao_code":null,"iata_code":null,"gps_code":null,"local_code":null,"home_link":null,"wikipedia_link":null,"keywords":null},{"id":"550107","ident":"ES-0349","type":"heliport","name":"Vall d'Hebron University Hospital Helipad","latitude_deg":"41.427012","longitude_deg":"2.140117","elevation_ft":"700","continent":"EU","iso_country":"ES","iso_region":"ES-CT","municipality":"Barcelona","scheduled_service":"no","icao_code":null,"iata_code":null,"gps_code":"LEDH","local_code":null,"home_link":null,"wikipedia_link":null,"keywords":null},{"id":"550448","ident":"ES-0350","type":"heliport","name":"Igualada Hospital Helipad","latitude_deg":"41.588386","longitude_deg":"1.620875","elevation_ft":"1190","continent":"EU","iso_country":"ES","iso_region":"ES-CT","municipality":"Igualada","scheduled_service":"no","icao_code":null,"iata_code":null,"gps_code":"LEHI","local_code":null,"home_link":null,"wikipedia_link":null,"keywords":null},{"id":"563306","ident":"ES-0351","type":"heliport","name":"El Cabril Heliport","latitude_deg":"38.075984","longitude_deg":"-5.414768","elevation_ft":"1356","continent":"EU","iso_country":"ES","iso_region":"ES-AN","municipality":"El Cabril","scheduled_service":"no","icao_code":null,"iata_code":null,"gps_code":null,"local_code":null,"home_link":null,"wikipedia_link":null,"keywords":null},{"id":"563571","ident":"ES-0352","type":"heliport","name":"Cal Majoral Hotel Heliport","latitude_deg":"42.053448","longitude_deg":"1.74234","elevation_ft":"2836","continent":"EU","iso_country":"ES","iso_region":"ES-CT","municipality":"Berga","scheduled_service":"no","icao_code":null,"iata_code":null,"gps_code":null,"local_code":null,"home_link":"https://www.calmajoral.com/","wikipedia_link":null,"keywords":null},{"id":"571720","ident":"ES-0353","type":"heliport","name":"Madroñalejos Forest Fire fighting Heliport","latitude_deg":"37.537024","longitude_deg":"-6.295778","elevation_ft":"408","continent":"EU","iso_country":"ES","iso_region":"ES-AN","municipality":"Aznalcóllar","scheduled_service":"yes","icao_code":null,"iata_code":null,"gps_code":null,"local_code":null,"home_link":null,"wikipedia_link":null,"keywords":null},{"id":"572750","ident":"ES-0354","type":"closed","name":"El Revolcadero","latitude_deg":"28.022594","longitude_deg":"-17.242289","elevation_ft":null,"continent":"EU","iso_country":"ES","iso_region":"ES-CN","municipality":"La Gomera","scheduled_service":"no","icao_code":null,"iata_code":null,"gps_code":null,"local_code":null,"home_link":null,"wikipedia_link":null,"keywords":null},{"id":"577212","ident":"ES-0355","type":"small_airport","name":"Devils of the Air RC Model Club Airport","latitude_deg":"29.032714","longitude_deg":"-13.598529","elevation_ft":null,"continent":"EU","iso_country":"ES","iso_region":"ES-CN","municipality":"Teguise (Lanzarote)","scheduled_service":"no","icao_code":null,"iata_code":null,"gps_code":null,"local_code":null,"home_link":"https://www.facebook.com/diablillosdelaire/?locale=es_LA","wikipedia_link":null,"keywords":null},{"id":"31805","ident":"ES-0356","type":"closed","name":"Alfes Airfield","latitude_deg":"41.549999","longitude_deg":"0.65","elevation_ft":"705","continent":"EU","iso_country":"ES","iso_region":"ES-CT","municipality":"LLeida - Alfes","scheduled_service":"no","icao_code":null,"iata_code":null,"gps_code":null,"local_code":null,"home_link":null,"wikipedia_link":"https://es.wikipedia.org/wiki/Aer%C3%B3dromo_de_Alf%C3%A9s","keywords":"LEAT"},{"id":"31807","ident":"ES-0357","type":"closed","name":"Hinojosa del Duque Airfield","latitude_deg":"38.51209","longitude_deg":"-5.107215","elevation_ft":"1772","continent":"EU","iso_country":"ES","iso_region":"ES-AN","municipality":"Hinojosa del Duque","scheduled_service":"no","icao_code":null,"iata_code":null,"gps_code":null,"local_code":null,"home_link":null,"wikipedia_link":null,"keywords":"LEHI, LEHI"},{"id":"31809","ident":"ES-0358","type":"closed","name":"Tablada Airport","latitude_deg":"37.3517","longitude_deg":"-6.01456","elevation_ft":"26","continent":"EU","iso_country":"ES","iso_region":"ES-AN","municipality":"Sevilla","scheduled_service":"no","icao_code":null,"iata_code":null,"gps_code":null,"local_code":null,"home_link":null,"wikipedia_link":null,"keywords":"LE85"},{"id":"43243","ident":"ES-0359","type":"closed","name":"Campolara Airfield","latitude_deg":"40.903099","longitude_deg":"-4.52028","elevation_ft":"3353","continent":"EU","iso_country":"ES","iso_region":"ES-CL","municipality":"Segovia","scheduled_service":"no","icao_code":null,"iata_code":null,"gps_code":null,"local_code":null,"home_link":null,"wikipedia_link":null,"keywords":"LECX"},{"id":"43247","ident":"ES-0360","type":"closed","name":"Castejón de los Monegros Airfield","latitude_deg":"41.6078","longitude_deg":"-0.218327","elevation_ft":"1424","continent":"EU","iso_country":"ES","iso_region":"ES-AR","municipality":"Huesca","scheduled_service":"no","icao_code":null,"iata_code":null,"gps_code":null,"local_code":null,"home_link":null,"wikipedia_link":null,"keywords":"LECJ"},{"id":"43248","ident":"ES-0361","type":"closed","name":"Ciudad Sanitaria y Universitaria de Bellvitge Heliport","latitude_deg":"41.345299","longitude_deg":"2.10729","elevation_ft":"35","continent":"EU","iso_country":"ES","iso_region":"ES-CT","municipality":"Barcelona","scheduled_service":"no","icao_code":null,"iata_code":null,"gps_code":null,"local_code":null,"home_link":null,"wikipedia_link":null,"keywords":"LEHB"},{"id":"43258","ident":"ES-0362","type":"closed","name":"Viso del Marqués Airfield","latitude_deg":"38.5056","longitude_deg":"-3.42615","elevation_ft":"2672","continent":"EU","iso_country":"ES","iso_region":"ES-CM","municipality":"Viso del Marqués","scheduled_service":"no","icao_code":null,"iata_code":null,"gps_code":null,"local_code":null,"home_link":null,"wikipedia_link":null,"keywords":"LEVI"},{"id":"43295","ident":"ES-0363","type":"closed","name":"Sa Sabina Heliport","latitude_deg":"38.716547","longitude_deg":"1.399969","elevation_ft":"44","continent":"EU","iso_country":"ES","iso_region":"ES-IB","municipality":"Sa Sabina","scheduled_service":"no","icao_code":null,"iata_code":null,"gps_code":null,"local_code":null,"home_link":null,"wikipedia_link":null,"keywords":"LEBI, LEBI"},{"id":"43298","ident":"ES-0364","type":"closed","name":"Aeródromo de Sangüesa","latitude_deg":"42.56736","longitude_deg":"-1.2889","elevation_ft":"1297","continent":"EU","iso_country":"ES","iso_region":"ES-NC","municipality":"Sangüesa","scheduled_service":"no","icao_code":null,"iata_code":null,"gps_code":null,"local_code":null,"home_link":null,"wikipedia_link":null,"keywords":"LESG, LESG"},{"id":"43280","ident":"ES-0365","type":"small_airport","name":"Aeródromo de Linares","latitude_deg":"38.133211","longitude_deg":"-3.642554","elevation_ft":"1033","continent":"EU","iso_country":"ES","iso_region":"ES-AN","municipality":"Linares","scheduled_service":"no","icao_code":null,"iata_code":null,"gps_code":null,"local_code":null,"home_link":null,"wikipedia_link":"https://es.wikipedia.org/wiki/Aer%C3%B3dromo_de_Linares","keywords":null},