[{"id":"599921","ident":"GB-1336","type":"small_airport","name":"(Duplicate)East Kirkby Airfield","latitude_deg":"53.13889","longitude_deg":"-0.00056","elevation_ft":"39","continent":"EU","iso_country":"GB","iso_region":"GB-ENG","municipality":"East Kirkby","scheduled_service":"no","icao_code":null,"iata_code":null,"gps_code":null,"local_code":null,"home_link":"https://lincsaviation.co.uk","wikipedia_link":"https://en.m.wikipedia.org/wiki/Lincolnshire_Aviation_Heritage_Centre?utm_source=chatgpt.com","keywords":"RAF East Kirkby; Lincolnshire Aviation Heritage Centre; Bomber Command; Avro Lancaster NX611 “Just Jane”; Mosquito HJ711; East Lindsey; WW2 airfield; museum; heritage."},{"id":"599951","ident":"GB-1337","type":"closed","name":"RAF Woodhall Spa","latitude_deg":"53.131667","longitude_deg":"-0.18444","elevation_ft":"33","continent":"EU","iso_country":"GB","iso_region":"GB-ENG","municipality":"East Linsdey, Lincolnshire","scheduled_service":"no","icao_code":null,"iata_code":null,"gps_code":null,"local_code":null,"home_link":"https://www.lincstrust.org.uk/get-involved/top-reserves/woodhall-spa-airfield","wikipedia_link":"https://en.wikipedia.org/wiki/RAF_Woodhall_Spa","keywords":"Tattershall Thorpe, No. 617 Squadron, Dambusters, Bristol Bloodhound Missile site, Thorpe Camp Visitor Centre, Lincolnshire Wildlife Trust, RAF Coningsby satellite"},{"id":"600636","ident":"GB-1338","type":"heliport","name":"Chequers Helicopter Landing Ground","latitude_deg":"51.742163","longitude_deg":"-0.781822","elevation_ft":null,"continent":"EU","iso_country":"GB","iso_region":"GB-ENG","municipality":"Ellesborough, Bucks.","scheduled_service":"no","icao_code":null,"iata_code":null,"gps_code":null,"local_code":null,"home_link":null,"wikipedia_link":null,"keywords":null},{"id":"602208","ident":"GB-1339","type":"heliport","name":"Uxbridge Business Park Heliport","latitude_deg":"51.554853","longitude_deg":"-0.483221","elevation_ft":"112","continent":"EU","iso_country":"GB","iso_region":"GB-ENG","municipality":"Uxbridge, Greater London","scheduled_service":"no","icao_code":null,"iata_code":null,"gps_code":null,"local_code":null,"home_link":null,"wikipedia_link":null,"keywords":null},{"id":"602209","ident":"GB-1340","type":"heliport","name":"Royal Surrey County Hospital Heliport","latitude_deg":"51.241514","longitude_deg":"-0.606186","elevation_ft":"220","continent":"EU","iso_country":"GB","iso_region":"GB-ENG","municipality":"Guildford, Surrey","scheduled_service":"no","icao_code":null,"iata_code":null,"gps_code":null,"local_code":null,"home_link":null,"wikipedia_link":null,"keywords":null},{"id":"602211","ident":"GB-1341","type":"heliport","name":"Bishopsgate House Heliport","latitude_deg":"51.4365","longitude_deg":"-0.59276","elevation_ft":"259","continent":"EU","iso_country":"GB","iso_region":"GB-ENG","municipality":"Egham, Surrey","scheduled_service":"no","icao_code":null,"iata_code":null,"gps_code":null,"local_code":null,"home_link":null,"wikipedia_link":null,"keywords":null},{"id":"602212","ident":"GB-1342","type":"heliport","name":"Harefield Hospital Heliport","latitude_deg":"51.60734","longitude_deg":"-0.48456","elevation_ft":"282","continent":"EU","iso_country":"GB","iso_region":"GB-ENG","municipality":"Uxbridge, Greater London","scheduled_service":"no","icao_code":null,"iata_code":null,"gps_code":null,"local_code":null,"home_link":null,"wikipedia_link":null,"keywords":null},{"id":"602990","ident":"GB-1343","type":"heliport","name":"Windsor/Ascot Heliport","latitude_deg":"51.540965","longitude_deg":"-0.673344","elevation_ft":"198","continent":"EU","iso_country":"GB","iso_region":"GB-ENG","municipality":"Burnham, Buckinghamshire","scheduled_service":"no","icao_code":null,"iata_code":null,"gps_code":null,"local_code":null,"home_link":null,"wikipedia_link":null,"keywords":"Groverfield Hotel"},{"id":"602991","ident":"GB-1344","type":"heliport","name":"Broadoaks Country House Heliport","latitude_deg":"54.401592","longitude_deg":"-2.917709","elevation_ft":"351","continent":"EU","iso_country":"GB","iso_region":"GB-ENG","municipality":"Windermere, Cumbria","scheduled_service":"no","icao_code":null,"iata_code":null,"gps_code":null,"local_code":null,"home_link":null,"wikipedia_link":null,"keywords":null},{"id":"602992","ident":"GB-1345","type":"heliport","name":"Lainston House Hotel Heliport","latitude_deg":"51.082346","longitude_deg":"-1.368216","elevation_ft":"350","continent":"EU","iso_country":"GB","iso_region":"GB-ENG","municipality":"Winchester, Hampshire","scheduled_service":"no","icao_code":null,"iata_code":null,"gps_code":null,"local_code":null,"home_link":null,"wikipedia_link":null,"keywords":null},{"id":"603091","ident":"GB-1346","type":"closed","name":"Bowmore Flying Boat Station","latitude_deg":"55.758889","longitude_deg":"-6.288056","elevation_ft":"0","continent":"EU","iso_country":"GB","iso_region":"GB-SCT","municipality":"Isle of Islay, Argyll and Bute","scheduled_service":"no","icao_code":null,"iata_code":null,"gps_code":null,"local_code":null,"home_link":null,"wikipedia_link":"https://en.wikipedia.org/wiki/RAF_Bowmore","keywords":"Bones Aviation ID X6BM"},{"id":"603999","ident":"GB-1347","type":"closed","name":"Samlesbury Aerodrome","latitude_deg":"53.773281","longitude_deg":"-2.569377","elevation_ft":"249","continent":"EU","iso_country":"GB","iso_region":"GB-ENG","municipality":"Balderstone, Lancashire","scheduled_service":"no","icao_code":null,"iata_code":null,"gps_code":null,"local_code":null,"home_link":null,"wikipedia_link":"https://en.wikipedia.org/wiki/Samlesbury_Aerodrome","keywords":"BAE Systems"},{"id":"604408","ident":"GB-1348","type":"small_airport","name":"Fowler's Field Airstrip","latitude_deg":"51.000764","longitude_deg":"-0.444937","elevation_ft":"94","continent":"EU","iso_country":"GB","iso_region":"GB-ENG","municipality":"Billingshurst, West Sussex","scheduled_service":"no","icao_code":null,"iata_code":null,"gps_code":null,"local_code":null,"home_link":null,"wikipedia_link":null,"keywords":null},{"id":"604409","ident":"GB-1349","type":"small_airport","name":"[Duplicate] Fowler's Field Airstrip","latitude_deg":"51.000764","longitude_deg":"-0.444937","elevation_ft":null,"continent":"EU","iso_country":"GB","iso_region":"GB-ENG","municipality":"Billingshurst","scheduled_service":"no","icao_code":null,"iata_code":null,"gps_code":null,"local_code":null,"home_link":null,"wikipedia_link":null,"keywords":null},{"id":"604830","ident":"GB-1350","type":"small_airport","name":"Old Meldrum","latitude_deg":"57.39204","longitude_deg":"-2.385107","elevation_ft":null,"continent":"EU","iso_country":"GB","iso_region":"GB-SCT","municipality":null,"scheduled_service":"no","icao_code":null,"iata_code":null,"gps_code":null,"local_code":null,"home_link":null,"wikipedia_link":null,"keywords":null},{"id":"605698","ident":"GB-1351","type":"closed","name":"Sunderland Airport","latitude_deg":"54.911742","longitude_deg":"-1.472938","elevation_ft":"121","continent":"EU","iso_country":"GB","iso_region":"GB-ENG","municipality":"Sunderland","scheduled_service":"no","icao_code":null,"iata_code":null,"gps_code":null,"local_code":null,"home_link":null,"wikipedia_link":"https://en.wikipedia.org/wiki/RAF_Usworth","keywords":"Sunderland, Usworth"},{"id":"606862","ident":"GB-1352","type":"closed","name":"de Havilland factory airfield","latitude_deg":"51.765196","longitude_deg":"-0.237158","elevation_ft":"254","continent":"EU","iso_country":"GB","iso_region":"GB-ENG","municipality":"Hatfield","scheduled_service":"no","icao_code":null,"iata_code":null,"gps_code":null,"local_code":null,"home_link":null,"wikipedia_link":null,"keywords":null},{"id":"608086","ident":"GB-1353","type":"small_airport","name":"Hillgate Farm Airstrip","latitude_deg":"52.667378","longitude_deg":"-0.031328","elevation_ft":null,"continent":"EU","iso_country":"GB","iso_region":"GB-ENG","municipality":"Peterborough","scheduled_service":"no","icao_code":null,"iata_code":null,"gps_code":null,"local_code":null,"home_link":null,"wikipedia_link":null,"keywords":null},{"id":"609449","ident":"GB-1354","type":"closed","name":"RNAS East Haven","latitude_deg":"56.528333","longitude_deg":"-2.656389","elevation_ft":"72","continent":"EU","iso_country":"GB","iso_region":"GB-SCT","municipality":"East Haven, Angus","scheduled_service":"no","icao_code":null,"iata_code":null,"gps_code":null,"local_code":null,"home_link":null,"wikipedia_link":"https://en.wikipedia.org/wiki/RNAS_East_Haven","keywords":"HMS Peewit, Hatton, Inverpeffer"},{"id":"609473","ident":"GB-1355","type":"closed","name":"RAF Brackla","latitude_deg":"57.540555","longitude_deg":"-3.913056","elevation_ft":"94","continent":"EU","iso_country":"GB","iso_region":"GB-SCT","municipality":"Brackla, Highland","scheduled_service":"no","icao_code":null,"iata_code":null,"gps_code":null,"local_code":null,"home_link":null,"wikipedia_link":"https://en.wikipedia.org/wiki/RAF_Brackla","keywords":"Culcharry"},{"id":"609474","ident":"GB-1356","type":"closed","name":"Crimond Airfield","latitude_deg":"57.611667","longitude_deg":"-1.884444","elevation_ft":"39","continent":"EU","iso_country":"GB","iso_region":"GB-SCT","municipality":"Rattray Head, Aberdeenshire","scheduled_service":"no","icao_code":null,"iata_code":null,"gps_code":null,"local_code":null,"home_link":null,"wikipedia_link":"https://en.wikipedia.org/wiki/RNAS_Rattray","keywords":"RNAS Rattray, HMS Merganser"},{"id":"609476","ident":"GB-1357","type":"seaplane_base","name":"Dalmore Seaplane Base","latitude_deg":"57.687499","longitude_deg":"-4.238333","elevation_ft":null,"continent":"EU","iso_country":"GB","iso_region":"GB-SCT","municipality":"Dalmore, Highland","scheduled_service":"no","icao_code":null,"iata_code":null,"gps_code":null,"local_code":null,"home_link":null,"wikipedia_link":null,"keywords":"Alness"},{"id":"609477","ident":"GB-1358","type":"closed","name":"Dundonald Airfield","latitude_deg":"55.581944","longitude_deg":"-4.61389","elevation_ft":"3","continent":"EU","iso_country":"GB","iso_region":"GB-SCT","municipality":"Dundonald, South Ayrshire","scheduled_service":"no","icao_code":null,"iata_code":null,"gps_code":null,"local_code":null,"home_link":null,"wikipedia_link":"https://en.wikipedia.org/wiki/RAF_Dundonald","keywords":"Gailes, RAF Dundonald, Barrassie"},{"id":"609478","ident":"GB-1359","type":"closed","name":"Dumfries Airfield","latitude_deg":"55.093611","longitude_deg":"-3.571667","elevation_ft":"62","continent":"EU","iso_country":"GB","iso_region":"GB-SCT","municipality":"Tinwald Downs, Dumfries and Galloway","scheduled_service":"no","icao_code":null,"iata_code":null,"gps_code":null,"local_code":null,"home_link":null,"wikipedia_link":"https://en.wikipedia.org/wiki/RAF_Dumfries","keywords":"RAF Dumfries, Microlights."},{"id":"609481","ident":"GB-1360","type":"small_airport","name":"Cluntoe Airfield","latitude_deg":"54.621947","longitude_deg":"-6.531097","elevation_ft":"89","continent":"EU","iso_country":"GB","iso_region":"GB-NIR","municipality":"Cluntoe, Mid Ulster","scheduled_service":"no","icao_code":null,"iata_code":null,"gps_code":null,"local_code":null,"home_link":null,"wikipedia_link":"https://en.wikipedia.org/wiki/RAF_Cluntoe","keywords":"RAF Cluntoe"},{"id":"609581","ident":"GB-1361","type":"small_airport","name":"Ragley Hall Airstrip","latitude_deg":"52.2283","longitude_deg":"-1.8439","elevation_ft":"210","continent":"EU","iso_country":"GB","iso_region":"GB-ENG","municipality":"Alcester","scheduled_service":"no","icao_code":null,"iata_code":null,"gps_code":null,"local_code":null,"home_link":"https://www.midlandsairfestival.com","wikipedia_link":null,"keywords":"Ragley Hall, Midlands Air Festival, temporary airstrip, grass runway, private, event airfield, Alcester, Warwickshire"},{"id":"609582","ident":"GB-1362","type":"small_airport","name":"Ragley Hall Airstrip","latitude_deg":"52.197207","longitude_deg":"-1.8439","elevation_ft":"210","continent":"EU","iso_country":"GB","iso_region":"GB-U-A","municipality":"Alcester","scheduled_service":"no","icao_code":null,"iata_code":null,"gps_code":null,"local_code":null,"home_link":"https://www.midlandsairfestival.com","wikipedia_link":null,"keywords":"Ragley Hall, Midlands Air Festival, temporary airstrip, grass runway, private, event airfield, Alcester, Warwickshire"},{"id":"609583","ident":"GB-1363","type":"small_airport","name":"Ragley Hall Airstrip","latitude_deg":"52.197207","longitude_deg":"-1.896893","elevation_ft":"210","continent":"EU","iso_country":"GB","iso_region":"GB-U-A","municipality":"Alcester","scheduled_service":"no","icao_code":null,"iata_code":null,"gps_code":null,"local_code":null,"home_link":"https://www.midlandsairfestival.com","wikipedia_link":null,"keywords":"Ragley Hall, Midlands Air Festival, temporary airstrip, grass runway, private, event airfield, Alcester, Warwickshire"},{"id":"609584","ident":"GB-1364","type":"small_airport","name":"Ragley Hall Airstrip","latitude_deg":"52.2283","longitude_deg":"-1.8439","elevation_ft":"210","continent":"EU","iso_country":"GB","iso_region":"GB-U-A","municipality":"Alcester","scheduled_service":"no","icao_code":null,"iata_code":null,"gps_code":null,"local_code":null,"home_link":"https://www.midlandsairfestival.com","wikipedia_link":null,"keywords":"Ragley Hall, Midlands Air Festival, temporary airstrip, grass runway, private, event airfield, Alcester, Warwickshire"},{"id":"30935","ident":"GB-DOC","type":"small_airport","name":"Dornoch Airfield","latitude_deg":"57.868999","longitude_deg":"-4.023","elevation_ft":"1","continent":"EU","iso_country":"GB","iso_region":"GB-SCT","municipality":"Dornoch, Sunderland","scheduled_service":"no","icao_code":null,"iata_code":null,"gps_code":null,"local_code":null,"home_link":"http://www.dornochairfield.com/","wikipedia_link":null,"keywords":"EG08, EGZJ, DOC"},{"id":"31147","ident":"GB-FLH","type":"small_airport","name":"Flotta Isle Airstrip","latitude_deg":"58.825802","longitude_deg":"-3.14278","elevation_ft":"50","continent":"EU","iso_country":"GB","iso_region":"GB-SCT","municipality":"Flotta Isle","scheduled_service":"no","icao_code":null,"iata_code":"FLH","gps_code":null,"local_code":null,"home_link":null,"wikipedia_link":"https://en.wikipedia.org/wiki/Flotta_Isle_Airport","keywords":"EGZR"},{"id":"31199","ident":"GB-FOA","type":"small_airport","name":"Foula Airfield","latitude_deg":"60.121916","longitude_deg":"-2.053439","elevation_ft":"150","continent":"EU","iso_country":"GB","iso_region":"GB-SCT","municipality":"Foula","scheduled_service":"yes","icao_code":null,"iata_code":"FOA","gps_code":"EGFO","local_code":null,"home_link":null,"wikipedia_link":"https://en.wikipedia.org/wiki/Foula_Airfield","keywords":"EG42"},{"id":"35156","ident":"GB-OUK","type":"small_airport","name":"Out Skerries Airfield","latitude_deg":"60.4252","longitude_deg":"-0.75","elevation_ft":"76","continent":"EU","iso_country":"GB","iso_region":"GB-SCT","municipality":"Grunay Island","scheduled_service":"no","icao_code":null,"iata_code":null,"gps_code":null,"local_code":null,"home_link":null,"wikipedia_link":null,"keywords":"Out Skerries, Housay, Bruray, Grunay, EGOU, OUK, EG78"},{"id":"32175","ident":"GB-PSV","type":"small_airport","name":"Papa Stour Airstrip","latitude_deg":"60.321701","longitude_deg":"-1.69306","elevation_ft":"75","continent":"EU","iso_country":"GB","iso_region":"GB-SCT","municipality":"Papa Stour Island","scheduled_service":"no","icao_code":null,"iata_code":null,"gps_code":null,"local_code":null,"home_link":null,"wikipedia_link":"https://en.wikipedia.org/wiki/Papa_Stour_Airstrip","keywords":"EGSZ, EGZT, PSV, EG79"},{"id":"29640","ident":"GB-ULL","type":"small_airport","name":"Glenforsa Airfield","latitude_deg":"56.517202","longitude_deg":"-5.91401","elevation_ft":"15","continent":"EU","iso_country":"GB","iso_region":"GB-SCT","municipality":"Glenforsa, Argyll and Bute","scheduled_service":"no","icao_code":null,"iata_code":null,"gps_code":null,"local_code":null,"home_link":"https://www.glenforsa.com/airfield","wikipedia_link":"https://sv.wikipedia.org/wiki/Glenforsa_Airfield","keywords":"Mull, EGZU, ULL, Hebrides"},{"id":"319712","ident":"GBM","type":"small_airport","name":"Garbaharey Airport","latitude_deg":"3.32294","longitude_deg":"42.21309","elevation_ft":"755","continent":"AF","iso_country":"SO","iso_region":"SO-GE","municipality":"Garbaharey","scheduled_service":"no","icao_code":null,"iata_code":"GBM","gps_code":null,"local_code":null,"home_link":null,"wikipedia_link":"https://en.wikipedia.org/wiki/Garbaharey_Airport","keywords":"Garbahaareey, Garba Harre"},{"id":"3076","ident":"GBYD","type":"large_airport","name":"Banjul International Airport","latitude_deg":"13.338","longitude_deg":"-16.652201","elevation_ft":"95","continent":"AF","iso_country":"GM","iso_region":"GM-W","municipality":"Banjul (Yundum)","scheduled_service":"yes","icao_code":"GBYD","iata_code":"BJL","gps_code":"GBYD","local_code":null,"home_link":"https://www.banjulairport.com/","wikipedia_link":"https://en.wikipedia.org/wiki/Banjul_International_Airport","keywords":"Yundum international Airport"},{"id":"524727","ident":"GCAD","type":"heliport","name":"Adeje Heliport","latitude_deg":"28.124165","longitude_deg":"-16.742906","elevation_ft":"746","continent":"AF","iso_country":"ES","iso_region":"ES-CN","municipality":"Adeje","scheduled_service":"no","icao_code":null,"iata_code":null,"gps_code":"GCAD","local_code":null,"home_link":null,"wikipedia_link":null,"keywords":null},{"id":"524733","ident":"GCDC","type":"heliport","name":"Nuestra Señora de Candelaria University Hospital Helipad","latitude_deg":"28.448687","longitude_deg":"-16.28462","elevation_ft":"820","continent":"AF","iso_country":"ES","iso_region":"ES-CN","municipality":"Santa Cruz de Tenerife","scheduled_service":"no","icao_code":"GCDC","iata_code":null,"gps_code":"GCDC","local_code":null,"home_link":null,"wikipedia_link":null,"keywords":null},{"id":"3077","ident":"GCFV","type":"large_airport","name":"Fuerteventura Airport","latitude_deg":"28.4527","longitude_deg":"-13.8638","elevation_ft":"85","continent":"AF","iso_country":"ES","iso_region":"ES-CN","municipality":"El Matorral","scheduled_service":"yes","icao_code":"GCFV","iata_code":"FUE","gps_code":"GCFV","local_code":null,"home_link":"https://www.aena.es/en/fuerteventura.html","wikipedia_link":"https://en.wikipedia.org/wiki/Fuerteventura_Airport","keywords":null},{"id":"3078","ident":"GCGM","type":"small_airport","name":"La Gomera Airport","latitude_deg":"28.0296","longitude_deg":"-17.2146","elevation_ft":"716","continent":"AF","iso_country":"ES","iso_region":"ES-CN","municipality":"Alajero, La Gomera Island","scheduled_service":"yes","icao_code":"GCGM","iata_code":"GMZ","gps_code":"GCGM","local_code":null,"home_link":"https://www.aena.es/en/la-gomera.html","wikipedia_link":"https://en.wikipedia.org/wiki/La_Gomera_Airport","keywords":null},{"id":"43297","ident":"GCGO","type":"heliport","name":"San Sebastián de La Gomera Heliport","latitude_deg":"28.0972","longitude_deg":"-17.1024","elevation_ft":"1","continent":"AF","iso_country":"ES","iso_region":"ES-CN","municipality":"La Gomera Island","scheduled_service":"no","icao_code":"GCGO","iata_code":null,"gps_code":"GCGO","local_code":null,"home_link":null,"wikipedia_link":null,"keywords":null},{"id":"598091","ident":"GCHG","type":"heliport","name":"Insular Hospital Helipad","latitude_deg":"28.082835","longitude_deg":"-15.417392","elevation_ft":"100","continent":"AF","iso_country":"ES","iso_region":"ES-CN","municipality":"Las Palmas de Gran Canaria","scheduled_service":"no","icao_code":"GCHG","iata_code":null,"gps_code":"GCHG","local_code":null,"home_link":null,"wikipedia_link":null,"keywords":null},{"id":"3079","ident":"GCHI","type":"medium_airport","name":"El Hierro Airport","latitude_deg":"27.8148","longitude_deg":"-17.8871","elevation_ft":"103","continent":"AF","iso_country":"ES","iso_region":"ES-CN","municipality":"El Hierro Island","scheduled_service":"yes","icao_code":"GCHI","iata_code":"VDE","gps_code":"GCHI","local_code":null,"home_link":"https://www.aena.es/en/el-hierro.html","wikipedia_link":"https://en.wikipedia.org/wiki/El_Hierro_Airport","keywords":"Hierro,El Hierro"},{"id":"43272","ident":"GCHU","type":"heliport","name":"Universitario de Canarias Hospital Heliport","latitude_deg":"28.456101","longitude_deg":"-16.291888","elevation_ft":"1080","continent":"AF","iso_country":"ES","iso_region":"ES-CN","municipality":"Santa Cruz de Tenerife","scheduled_service":"no","icao_code":"GCHU","iata_code":null,"gps_code":"GCHU","local_code":null,"home_link":null,"wikipedia_link":null,"keywords":null},{"id":"3080","ident":"GCLA","type":"medium_airport","name":"La Palma Airport","latitude_deg":"28.626499","longitude_deg":"-17.7556","elevation_ft":"107","continent":"AF","iso_country":"ES","iso_region":"ES-CN","municipality":"Sta Cruz de la Palma, La Palma Island","scheduled_service":"yes","icao_code":"GCLA","iata_code":"SPC","gps_code":"GCLA","local_code":null,"home_link":"https://www.aena.es/en/la-palma.html","wikipedia_link":"https://en.wikipedia.org/wiki/La_Palma_Airport","keywords":null},{"id":"29842","ident":"GCLB","type":"small_airport","name":"El Berriel Aeroc Airport","latitude_deg":"27.782499","longitude_deg":"-15.5072","elevation_ft":"20","continent":"AF","iso_country":"ES","iso_region":"ES-CN","municipality":"Gran Canaria Island","scheduled_service":"no","icao_code":"GCLB","iata_code":null,"gps_code":"GCLB","local_code":null,"home_link":"https://www.gclb.info/","wikipedia_link":"https://es.wikipedia.org/wiki/Aer%C3%B3dromo_Maspalomas_-_El_Berriel","keywords":null},{"id":"524728","ident":"GCLG","type":"heliport","name":"IES La Guancha Heliport","latitude_deg":"28.377407","longitude_deg":"-16.649328","elevation_ft":"1439","continent":"AF","iso_country":"ES","iso_region":"ES-CN","municipality":"Icod de los Vinos","scheduled_service":"no","icao_code":"GCLG","iata_code":null,"gps_code":"GCLG","local_code":null,"home_link":null,"wikipedia_link":null,"keywords":null},{"id":"3081","ident":"GCLP","type":"large_airport","name":"Gran Canaria Airport","latitude_deg":"27.9319","longitude_deg":"-15.3866","elevation_ft":"78","continent":"AF","iso_country":"ES","iso_region":"ES-CN","municipality":"Gran Canaria Island","scheduled_service":"yes","icao_code":"GCLP","iata_code":"LPA","gps_code":"GCLP","local_code":null,"home_link":"https://www.aena.es/en/gran-canaria.html","wikipedia_link":"https://en.wikipedia.org/wiki/Gran_Canaria_Airport","keywords":"Canary Islands, Las Palmas Airport, Gando Airport"},{"id":"598096","ident":"GCMP","type":"heliport","name":"Maspalomas Station Heliport","latitude_deg":"27.765637","longitude_deg":"-15.635286","elevation_ft":"471","continent":"AF","iso_country":"ES","iso_region":"ES-CN","municipality":"ESA Special Station","scheduled_service":"no","icao_code":"GCMP","iata_code":null,"gps_code":"GCMP","local_code":null,"home_link":"https://www.esa.int/Enabling_Support/Operations/ESA_Ground_Stations/Maspalomas_station","wikipedia_link":"https://en.wikipedia.org/wiki/Maspalomas_Station","keywords":null},{"id":"524726","ident":"GCPU","type":"heliport","name":"Puntagorda Heliport","latitude_deg":"28.77882","longitude_deg":"-17.9957","elevation_ft":"1440","continent":"AF","iso_country":"ES","iso_region":"ES-CN","municipality":"La Palma","scheduled_service":"no","icao_code":"GCPU","iata_code":null,"gps_code":"GCPU","local_code":null,"home_link":null,"wikipedia_link":null,"keywords":null},{"id":"3082","ident":"GCRR","type":"large_airport","name":"César Manrique-Lanzarote Airport","latitude_deg":"28.945499","longitude_deg":"-13.6052","elevation_ft":"46","continent":"AF","iso_country":"ES","iso_region":"ES-CN","municipality":"San Bartolomé","scheduled_service":"yes","icao_code":"GCRR","iata_code":"ACE","gps_code":"GCRR","local_code":null,"home_link":"https://www.lanzaroteairport.info/barrier-free-disability-assistance-service/","wikipedia_link":"https://en.wikipedia.org/wiki/Lanzarote_Airport","keywords":"Arrecife Airport"},{"id":"3083","ident":"GCTS","type":"large_airport","name":"Tenerife Sur Airport","latitude_deg":"28.0445","longitude_deg":"-16.5725","elevation_ft":"209","continent":"AF","iso_country":"ES","iso_region":"ES-CN","municipality":"Tenerife","scheduled_service":"yes","icao_code":"GCTS","iata_code":"TFS","gps_code":"GCTS","local_code":null,"home_link":"https://www.aena.es/en/tenerife-sur.html","wikipedia_link":"https://en.wikipedia.org/wiki/Tenerife%E2%80%93South_Airport","keywords":"Reina Sofía, TCI, Tenerife South"},{"id":"309152","ident":"GCV","type":"small_airport","name":"Gravatai Airport","latitude_deg":"-29.9494","longitude_deg":"-50.98505","elevation_ft":"25","continent":"SA","iso_country":"BR","iso_region":"BR-RS","municipality":"Gravatai","scheduled_service":"no","icao_code":null,"iata_code":"GCV","gps_code":null,"local_code":null,"home_link":null,"wikipedia_link":null,"keywords":"Gravatahy"},{"id":"598093","ident":"GCXM","type":"heliport","name":"Los Rodeos Army Heliport","latitude_deg":"28.483836","longitude_deg":"-16.351263","elevation_ft":"2093","continent":"AF","iso_country":"ES","iso_region":"ES-CN","municipality":null,"scheduled_service":"no","icao_code":"GCXM","iata_code":null,"gps_code":"GCXM","local_code":null,"home_link":null,"wikipedia_link":null,"keywords":null},{"id":"3084","ident":"GCXO","type":"large_airport","name":"Tenerife Norte-Ciudad de La Laguna Airport","latitude_deg":"28.482752","longitude_deg":"-16.341707","elevation_ft":"2076","continent":"AF","iso_country":"ES","iso_region":"ES-CN","municipality":"Tenerife","scheduled_service":"yes","icao_code":"GCXO","iata_code":"TFN","gps_code":"GCXO","local_code":null,"home_link":"https://www.aena.es/en/tenerife-norte-ciudad-de-la-laguna.html","wikipedia_link":"https://en.wikipedia.org/wiki/Los_Rodeos_Airport","keywords":"Canary Islands, Los Rodeos, TCI, Terenife"},{"id":"43340","ident":"GD-0001","type":"closed","name":"Pearls Airport","latitude_deg":"12.14368","longitude_deg":"-61.61692","elevation_ft":"20","continent":"NA","iso_country":"GD","iso_region":"GD-AN","municipality":"Pearls","scheduled_service":"no","icao_code":null,"iata_code":null,"gps_code":null,"local_code":null,"home_link":null,"wikipedia_link":"https://en.wikipedia.org/wiki/Pearls_Airport","keywords":"MKPE, MKPE"},{"id":"17577","ident":"GDY","type":"closed","name":"Grundy Municipal Airport","latitude_deg":"37.232399","longitude_deg":"-82.125","elevation_ft":"2304","continent":"NA","iso_country":"US","iso_region":"US-VA","municipality":"Grundy","scheduled_service":"no","icao_code":null,"iata_code":null,"gps_code":null,"local_code":null,"home_link":null,"wikipedia_link":"https://en.wikipedia.org/wiki/Grundy_Municipal_Airport","keywords":"KGDY, GDY"},{"id":"43229","ident":"GE-0001","type":"closed","name":"Telavi Air Base","latitude_deg":"41.96204376220703","longitude_deg":"45.5380744934082","elevation_ft":null,"continent":"AS","iso_country":"GE","iso_region":"GE-KA","municipality":"Telavi","scheduled_service":"no","icao_code":null,"iata_code":null,"gps_code":null,"local_code":null,"home_link":null,"wikipedia_link":null,"keywords":null},{"id":"43230","ident":"GE-0002","type":"closed","name":"Zugdidi Airport","latitude_deg":"42.489200592041016","longitude_deg":"41.81869888305664","elevation_ft":null,"continent":"AS","iso_country":"GE","iso_region":"GE-SZ","municipality":"Zugdidi","scheduled_service":"no","icao_code":null,"iata_code":null,"gps_code":null,"local_code":null,"home_link":null,"wikipedia_link":null,"keywords":null},{"id":"44324","ident":"GE-0003","type":"closed","name":"Tskhinvali Air Base","latitude_deg":"42.1899986267","longitude_deg":"43.9399986267","elevation_ft":null,"continent":"AS","iso_country":"GE","iso_region":"GE-SK","municipality":"Tskhinval","scheduled_service":"no","icao_code":null,"iata_code":null,"gps_code":null,"local_code":null,"home_link":null,"wikipedia_link":null,"keywords":"Аэродром Цхинвали"},{"id":"44325","ident":"GE-0004","type":"closed","name":"Akhalkalaki Airport","latitude_deg":"41.37699890136719","longitude_deg":"43.47999954223633","elevation_ft":null,"continent":"AS","iso_country":"GE","iso_region":"GE-SJ","municipality":"Akhalkalaki","scheduled_service":"no","icao_code":null,"iata_code":null,"gps_code":null,"local_code":null,"home_link":null,"wikipedia_link":null,"keywords":"Ahalkalaki Airport, Аэропорт Ахалкалаки"},{"id":"44552","ident":"GE-0005","type":"closed","name":"Tskhinvali South Air Field","latitude_deg":"42.13130187989999","longitude_deg":"43.925201416","elevation_ft":null,"continent":"AS","iso_country":"GE","iso_region":"GE-SK","municipality":"Tskhinval","scheduled_service":"no","icao_code":null,"iata_code":null,"gps_code":null,"local_code":null,"home_link":null,"wikipedia_link":null,"keywords":null},{"id":"44553","ident":"GE-0006","type":"small_airport","name":"Kobuleti Airfield","latitude_deg":"41.840599","longitude_deg":"41.799461","elevation_ft":null,"continent":"AS","iso_country":"GE","iso_region":"GE-AJ","municipality":"Kobuleti","scheduled_service":"no","icao_code":null,"iata_code":null,"gps_code":null,"local_code":null,"home_link":null,"wikipedia_link":null,"keywords":null},{"id":"44554","ident":"GE-0007","type":"medium_airport","name":"Ozurgeti Air Base","latitude_deg":"41.9291","longitude_deg":"41.863499","elevation_ft":null,"continent":"AS","iso_country":"GE","iso_region":"GE-GU","municipality":"Ozurgeti","scheduled_service":"no","icao_code":null,"iata_code":null,"gps_code":null,"local_code":null,"home_link":null,"wikipedia_link":null,"keywords":"Meria Airport"},{"id":"44675","ident":"GE-0008","type":"heliport","name":"Tsalka Helipad","latitude_deg":"41.59339904785156","longitude_deg":"44.07619857788086","elevation_ft":null,"continent":"AS","iso_country":"GE","iso_region":"GE-KK","municipality":"Tsalka","scheduled_service":"no","icao_code":null,"iata_code":null,"gps_code":null,"local_code":null,"home_link":null,"wikipedia_link":null,"keywords":"Вертолётная площадка Цалка"},{"id":"44937","ident":"GE-0009","type":"closed","name":"Poti International Airport","latitude_deg":"42.162902","longitude_deg":"41.705807","elevation_ft":"3","continent":"AS","iso_country":"GE","iso_region":"GE-SZ","municipality":"Poti","scheduled_service":"no","icao_code":null,"iata_code":null,"gps_code":null,"local_code":null,"home_link":null,"wikipedia_link":"https://en.wikipedia.org/wiki/Poti_International_Airport","keywords":"UGSP, UGSP"},{"id":"44938","ident":"GE-0010","type":"medium_airport","name":"Senaki Air Base","latitude_deg":"42.2403057198","longitude_deg":"42.0454931259","elevation_ft":null,"continent":"AS","iso_country":"GE","iso_region":"GE-SZ","municipality":"Senaki","scheduled_service":"no","icao_code":null,"iata_code":null,"gps_code":null,"local_code":null,"home_link":null,"wikipedia_link":null,"keywords":null},{"id":"44939","ident":"GE-0011","type":"small_airport","name":"Lagodekhi Airfield","latitude_deg":"41.8150179007","longitude_deg":"46.234159469599994","elevation_ft":null,"continent":"AS","iso_country":"GE","iso_region":"GE-KA","municipality":null,"scheduled_service":"no","icao_code":null,"iata_code":null,"gps_code":null,"local_code":null,"home_link":null,"wikipedia_link":null,"keywords":null},{"id":"44940","ident":"GE-0012","type":"closed","name":"Signakhi Airport","latitude_deg":"41.634417415","longitude_deg":"46.0128879547","elevation_ft":"735","continent":"AS","iso_country":"GE","iso_region":"GE-KA","municipality":"Tsnori","scheduled_service":"no","icao_code":null,"iata_code":null,"gps_code":null,"local_code":null,"home_link":null,"wikipedia_link":null,"keywords":"UGGN, UGGN"},{"id":"340315","ident":"GE-0013","type":"small_airport","name":"Sedmoye Nebo Airstrip","latitude_deg":"43.1812","longitude_deg":"40.3011","elevation_ft":null,"continent":"AS","iso_country":"GE","iso_region":"GE-AB","municipality":"Inkiti","scheduled_service":"no","icao_code":null,"iata_code":null,"gps_code":null,"local_code":null,"home_link":null,"wikipedia_link":null,"keywords":"UGBC, Bich'vinta, Seventh Heaven"},{"id":"46138","ident":"GE-0014","type":"heliport","name":"Isani-Samgori Heliport","latitude_deg":"41.651019","longitude_deg":"44.870111","elevation_ft":"1939","continent":"AS","iso_country":"GE","iso_region":"GE-TB","municipality":"Isani-Samgori","scheduled_service":"no","icao_code":null,"iata_code":null,"gps_code":null,"local_code":null,"home_link":null,"wikipedia_link":null,"keywords":null},{"id":"46585","ident":"GE-0015","type":"small_airport","name":"Pskhu Airport","latitude_deg":"43.385152","longitude_deg":"40.816355","elevation_ft":null,"continent":"AS","iso_country":"GE","iso_region":"GE-AB","municipality":"Pskhu","scheduled_service":"no","icao_code":null,"iata_code":null,"gps_code":null,"local_code":null,"home_link":null,"wikipedia_link":null,"keywords":null},{"id":"342232","ident":"GE-0016","type":"heliport","name":"Pichori Heliport","latitude_deg":"42.43698","longitude_deg":"41.54572","elevation_ft":"7","continent":"AS","iso_country":"GE","iso_region":"GE-AB","municipality":"Pichori","scheduled_service":"no","icao_code":null,"iata_code":null,"gps_code":null,"local_code":null,"home_link":null,"wikipedia_link":null,"keywords":null},{"id":"342882","ident":"GE-0017","type":"closed","name":"Ochamchire Airport","latitude_deg":"42.75681","longitude_deg":"41.53069","elevation_ft":"105","continent":"AS","iso_country":"GE","iso_region":"GE-AB","municipality":"Beslakhuba","scheduled_service":"no","icao_code":null,"iata_code":null,"gps_code":null,"local_code":null,"home_link":null,"wikipedia_link":null,"keywords":null},{"id":"355273","ident":"GE-0018","type":"closed","name":"Inkiti Lake Airport","latitude_deg":"43.177093","longitude_deg":"40.323395","elevation_ft":null,"continent":"AS","iso_country":"GE","iso_region":"GE-AB","municipality":"Inkiti","scheduled_service":"no","icao_code":null,"iata_code":null,"gps_code":null,"local_code":null,"home_link":null,"wikipedia_link":null,"keywords":"UGBI"},{"id":"355274","ident":"GE-0019","type":"heliport","name":"Ochamchire Base Heliport","latitude_deg":"42.666106","longitude_deg":"41.484162","elevation_ft":null,"continent":"AS","iso_country":"GE","iso_region":"GE-AB","municipality":"Ochamchire","scheduled_service":"no","icao_code":null,"iata_code":null,"gps_code":null,"local_code":null,"home_link":null,"wikipedia_link":null,"keywords":null},{"id":"525931","ident":"GE-0020","type":"small_airport","name":"Bolnisi Parachutist Training Airfield","latitude_deg":"41.48523","longitude_deg":"44.53348","elevation_ft":null,"continent":"AS","iso_country":"GE","iso_region":"GE-KK","municipality":"Bolnisi","scheduled_service":"no","icao_code":null,"iata_code":null,"gps_code":null,"local_code":null,"home_link":null,"wikipedia_link":null,"keywords":null},{"id":"45187","ident":"GE-0021","type":"closed","name":"Mukhrani Airport","latitude_deg":"41.916","longitude_deg":"44.566","elevation_ft":"1807","continent":"AS","iso_country":"GE","iso_region":"GE-MM","municipality":"Mukhrani","scheduled_service":"no","icao_code":null,"iata_code":null,"gps_code":null,"local_code":null,"home_link":null,"wikipedia_link":null,"keywords":"Muhrani Airport, UGMM"},{"id":"595545","ident":"GE-0022","type":"heliport","name":"Aviaservice Heliport","latitude_deg":"41.72479","longitude_deg":"44.97401","elevation_ft":"2339","continent":"AS","iso_country":"GE","iso_region":"GE-TB","municipality":"Tbilisi","scheduled_service":"no","icao_code":null,"iata_code":null,"gps_code":null,"local_code":null,"home_link":null,"wikipedia_link":null,"keywords":null},{"id":"595546","ident":"GE-0023","type":"heliport","name":"Ivanishvili House Heliport","latitude_deg":"41.68763","longitude_deg":"44.79866","elevation_ft":null,"continent":"AS","iso_country":"GE","iso_region":"GE-TB","municipality":"Tbilisi","scheduled_service":"no","icao_code":null,"iata_code":null,"gps_code":null,"local_code":null,"home_link":null,"wikipedia_link":null,"keywords":null},{"id":"595547","ident":"GE-0024","type":"heliport","name":"Camp Avnevi Heliport","latitude_deg":"42.18971","longitude_deg":"43.88836","elevation_ft":"2884","continent":"AS","iso_country":"GE","iso_region":"GE-SO","municipality":"Avnevi","scheduled_service":"no","icao_code":null,"iata_code":null,"gps_code":null,"local_code":null,"home_link":null,"wikipedia_link":null,"keywords":null},{"id":"595548","ident":"GE-0025","type":"heliport","name":"Camp Didmukha Heliport","latitude_deg":"42.17613","longitude_deg":"43.88801","elevation_ft":"2776","continent":"AS","iso_country":"GE","iso_region":"GE-SO","municipality":"Didmukha","scheduled_service":"no","icao_code":null,"iata_code":null,"gps_code":null,"local_code":null,"home_link":null,"wikipedia_link":null,"keywords":null},{"id":"595551","ident":"GE-0026","type":"heliport","name":"Camp Dzvileti Heliport","latitude_deg":"42.14103","longitude_deg":"43.84496","elevation_ft":"2805","continent":"AS","iso_country":"GE","iso_region":"GE-SO","municipality":"Dzvileti","scheduled_service":"no","icao_code":null,"iata_code":null,"gps_code":null,"local_code":null,"home_link":null,"wikipedia_link":null,"keywords":null},{"id":"595552","ident":"GE-0027","type":"heliport","name":"Camp Seribalta Heliport","latitude_deg":"42.17419","longitude_deg":"43.72795","elevation_ft":"2539","continent":"AS","iso_country":"GE","iso_region":"GE-SO","municipality":"Seribalta","scheduled_service":"no","icao_code":null,"iata_code":null,"gps_code":null,"local_code":null,"home_link":null,"wikipedia_link":null,"keywords":null},{"id":"595553","ident":"GE-0028","type":"heliport","name":"Camp Djalabeti Heliport","latitude_deg":"42.3952","longitude_deg":"43.64011","elevation_ft":"3681","continent":"AS","iso_country":"GE","iso_region":"GE-SO","municipality":"Djalabeti","scheduled_service":"no","icao_code":null,"iata_code":null,"gps_code":null,"local_code":null,"home_link":null,"wikipedia_link":null,"keywords":null},{"id":"595554","ident":"GE-0029","type":"heliport","name":"Camp Disevi Heliport","latitude_deg":"42.23183","longitude_deg":"44.10906","elevation_ft":"3478","continent":"AS","iso_country":"GE","iso_region":"GE-SO","municipality":"Disevi","scheduled_service":"no","icao_code":null,"iata_code":null,"gps_code":null,"local_code":null,"home_link":null,"wikipedia_link":null,"keywords":null},{"id":"595555","ident":"GE-0030","type":"heliport","name":"Camp Arkhispiri Heliport","latitude_deg":"42.15318","longitude_deg":"44.17262","elevation_ft":"3012","continent":"AS","iso_country":"GE","iso_region":"GE-SO","municipality":"Arkhispiri","scheduled_service":"no","icao_code":null,"iata_code":null,"gps_code":null,"local_code":null,"home_link":null,"wikipedia_link":null,"keywords":null},{"id":"595556","ident":"GE-0031","type":"heliport","name":"Camp Ghromi Heliport","latitude_deg":"42.15932","longitude_deg":"44.21771","elevation_ft":"2894","continent":"AS","iso_country":"GE","iso_region":"GE-SO","municipality":"Ghromi","scheduled_service":"no","icao_code":null,"iata_code":null,"gps_code":null,"local_code":null,"home_link":null,"wikipedia_link":null,"keywords":null},{"id":"595557","ident":"GE-0032","type":"heliport","name":"Camp Gduleti Heliport","latitude_deg":"42.08269","longitude_deg":"44.28294","elevation_ft":"2595","continent":"AS","iso_country":"GE","iso_region":"GE-SO","municipality":"Gduleti","scheduled_service":"no","icao_code":null,"iata_code":null,"gps_code":null,"local_code":null,"home_link":null,"wikipedia_link":null,"keywords":null},{"id":"595558","ident":"GE-0033","type":"heliport","name":"Camp Orchosan Heliport","latitude_deg":"42.05813","longitude_deg":"44.3294","elevation_ft":"2884","continent":"AS","iso_country":"GE","iso_region":"GE-SO","municipality":"Orchosan","scheduled_service":"no","icao_code":null,"iata_code":null,"gps_code":null,"local_code":null,"home_link":null,"wikipedia_link":null,"keywords":null},{"id":"595560","ident":"GE-0034","type":"heliport","name":"Camp Akhmaji Heliport","latitude_deg":"42.06112","longitude_deg":"44.47762","elevation_ft":"2536","continent":"AS","iso_country":"GE","iso_region":"GE-SO","municipality":"Akhmaji","scheduled_service":"no","icao_code":null,"iata_code":null,"gps_code":null,"local_code":null,"home_link":null,"wikipedia_link":null,"keywords":null},{"id":"595562","ident":"GE-0035","type":"heliport","name":"Camp Balaani Heliport","latitude_deg":"42.34201","longitude_deg":"44.47185","elevation_ft":"3976","continent":"AS","iso_country":"GE","iso_region":"GE-SO","municipality":"Balaani","scheduled_service":"no","icao_code":null,"iata_code":null,"gps_code":null,"local_code":null,"home_link":null,"wikipedia_link":null,"keywords":null},{"id":"595563","ident":"GE-0036","type":"heliport","name":"Akhalgori Heliport","latitude_deg":"42.11628","longitude_deg":"44.48053","elevation_ft":"2638","continent":"AS","iso_country":"GE","iso_region":"GE-SO","municipality":"Akhalgori","scheduled_service":"no","icao_code":null,"iata_code":null,"gps_code":null,"local_code":null,"home_link":null,"wikipedia_link":null,"keywords":null},{"id":"595564","ident":"GE-0037","type":"heliport","name":"Zemo Tsubeni Heliport","latitude_deg":"42.16369","longitude_deg":"44.39625","elevation_ft":"4035","continent":"AS","iso_country":"GE","iso_region":"GE-SO","municipality":"Zemo Tsubeni","scheduled_service":"no","icao_code":null,"iata_code":null,"gps_code":null,"local_code":null,"home_link":null,"wikipedia_link":null,"keywords":null},{"id":"598671","ident":"GE-0038","type":"heliport","name":"Leviy Gentsvish Heliport","latitude_deg":"43.102991","longitude_deg":"41.820693","elevation_ft":"2451","continent":"AS","iso_country":"GE","iso_region":"GE-AB","municipality":"Gentsvish","scheduled_service":"no","icao_code":null,"iata_code":null,"gps_code":null,"local_code":"HFY2","home_link":null,"wikipedia_link":null,"keywords":"ХФЫ2, Гентсвиш, გენწვიში"},{"id":"598672","ident":"GE-0039","type":"heliport","name":"Saberio Heliport","latitude_deg":"42.63606","longitude_deg":"41.914624","elevation_ft":"607","continent":"AS","iso_country":"GE","iso_region":"GE-AB","municipality":"Nadzhikhuri","scheduled_service":"no","icao_code":null,"iata_code":null,"gps_code":null,"local_code":"HGS8","home_link":null,"wikipedia_link":null,"keywords":"ХГС8, Нажихури, ნაჯიხური"},{"id":"598682","ident":"GE-0040","type":"heliport","name":"Tskhinvali Heliport","latitude_deg":"42.232158","longitude_deg":"43.936895","elevation_ft":"3182","continent":"AS","iso_country":"GE","iso_region":"GE-SO","municipality":"Tskhinvali","scheduled_service":"no","icao_code":null,"iata_code":null,"gps_code":null,"local_code":"HEN2","home_link":null,"wikipedia_link":null,"keywords":"ХЕН2, Цхинвал"},{"id":"598683","ident":"GE-0041","type":"heliport","name":"Vaziani Barracks Heliport","latitude_deg":"41.67794","longitude_deg":"45.056194","elevation_ft":"1887","continent":"AS","iso_country":"GE","iso_region":"GE-KK","municipality":"Vaziani","scheduled_service":"no","icao_code":null,"iata_code":null,"gps_code":null,"local_code":null,"home_link":null,"wikipedia_link":null,"keywords":null},{"id":"17578","ident":"GE00","type":"seaplane_base","name":"Morris Seaplane Base","latitude_deg":"33.60969924926758","longitude_deg":"-82.13580322265625","elevation_ft":"102","continent":"NA","iso_country":"US","iso_region":"US-GA","municipality":"Evans","scheduled_service":"no","icao_code":null,"iata_code":null,"gps_code":"GE00","local_code":"GE00","home_link":null,"wikipedia_link":null,"keywords":null},{"id":"17579","ident":"GE01","type":"small_airport","name":"Christians Folly Airport","latitude_deg":"30.930423","longitude_deg":"-83.079386","elevation_ft":"208","continent":"NA","iso_country":"US","iso_region":"US-GA","municipality":"Naylor","scheduled_service":"no","icao_code":null,"iata_code":null,"gps_code":"GE01","local_code":"GE01","home_link":null,"wikipedia_link":null,"keywords":null},{"id":"17580","ident":"GE02","type":"heliport","name":"Adventhealth Gordon Heliport","latitude_deg":"34.51035","longitude_deg":"-84.927729","elevation_ft":"711","continent":"NA","iso_country":"US","iso_region":"US-GA","municipality":"Calhoun","scheduled_service":"no","icao_code":null,"iata_code":null,"gps_code":"GE02","local_code":"GE02","home_link":null,"wikipedia_link":null,"keywords":"Gordon Hospital"},{"id":"45378","ident":"GE04","type":"small_airport","name":"Mclendon Field","latitude_deg":"32.666944","longitude_deg":"-84.965556","elevation_ft":"650","continent":"NA","iso_country":"US","iso_region":"US-GA","municipality":"Mulberry Grove","scheduled_service":"no","icao_code":null,"iata_code":null,"gps_code":"GE04","local_code":"GE04","home_link":null,"wikipedia_link":null,"keywords":null},{"id":"17582","ident":"GE05","type":"small_airport","name":"Gibson Field","latitude_deg":"34.6156005859375","longitude_deg":"-85.34310150146484","elevation_ft":"750","continent":"NA","iso_country":"US","iso_region":"US-GA","municipality":"Lafayette","scheduled_service":"no","icao_code":null,"iata_code":null,"gps_code":"GE05","local_code":"GE05","home_link":null,"wikipedia_link":null,"keywords":null},{"id":"17583","ident":"GE11","type":"small_airport","name":"Hogjowl Airport","latitude_deg":"34.60580062866211","longitude_deg":"-85.46189880371094","elevation_ft":"1790","continent":"NA","iso_country":"US","iso_region":"US-GA","municipality":"Layfayette","scheduled_service":"no","icao_code":null,"iata_code":null,"gps_code":"GE11","local_code":"GE11","home_link":null,"wikipedia_link":null,"keywords":null},{"id":"17584","ident":"GE12","type":"small_airport","name":"Richter Airpark","latitude_deg":"31.748600006103516","longitude_deg":"-83.57360076904297","elevation_ft":"357","continent":"NA","iso_country":"US","iso_region":"US-GA","municipality":"Ashburn","scheduled_service":"no","icao_code":null,"iata_code":null,"gps_code":"GE12","local_code":"GE12","home_link":null,"wikipedia_link":null,"keywords":null},{"id":"349527","ident":"GE13","type":"heliport","name":"FMC Heliport","latitude_deg":"34.259997","longitude_deg":"-85.180322","elevation_ft":"595","continent":"NA","iso_country":"US","iso_region":"US-GA","municipality":"Rome","scheduled_service":"no","icao_code":null,"iata_code":null,"gps_code":"GE13","local_code":"GE13","home_link":null,"wikipedia_link":null,"keywords":null},{"id":"45367","ident":"GE14","type":"heliport","name":"Elite Helicopters Heliport","latitude_deg":"31.518333","longitude_deg":"-83.1325","elevation_ft":"325","continent":"NA","iso_country":"US","iso_region":"US-GA","municipality":"Ocilla","scheduled_service":"no","icao_code":null,"iata_code":null,"gps_code":"GE14","local_code":"GE14","home_link":null,"wikipedia_link":null,"keywords":null},{"id":"345157","ident":"GE15","type":"heliport","name":"Rabit Hole III Heliport","latitude_deg":"33.612327","longitude_deg":"-83.650498","elevation_ft":"760","continent":"NA","iso_country":"US","iso_region":"US-GA","municipality":"Rutledge","scheduled_service":"no","icao_code":null,"iata_code":null,"gps_code":"GE15","local_code":"GE15","home_link":null,"wikipedia_link":null,"keywords":null},{"id":"505986","ident":"GE20","type":"small_airport","name":"Critter Creek Airport","latitude_deg":"33.054297","longitude_deg":"-82.324862","elevation_ft":"330","continent":"NA","iso_country":"US","iso_region":"US-GA","municipality":"Louisville","scheduled_service":"no","icao_code":null,"iata_code":null,"gps_code":"GE20","local_code":"GE20","home_link":null,"wikipedia_link":null,"keywords":null},{"id":"346218","ident":"GE21","type":"small_airport","name":"Anderson Airport","latitude_deg":"31.018681","longitude_deg":"-84.392917","elevation_ft":"138","continent":"NA","iso_country":"US","iso_region":"US-GA","municipality":"Bainbridge","scheduled_service":"no","icao_code":null,"iata_code":null,"gps_code":"GE21","local_code":"GE21","home_link":null,"wikipedia_link":null,"keywords":null},{"id":"17585","ident":"GE22","type":"heliport","name":"Graham Heliport","latitude_deg":"32.528900146484375","longitude_deg":"-82.82170104980469","elevation_ft":"237","continent":"NA","iso_country":"US","iso_region":"US-GA","municipality":"East Dublin","scheduled_service":"no","icao_code":null,"iata_code":null,"gps_code":"GE22","local_code":"GE22","home_link":null,"wikipedia_link":null,"keywords":null},{"id":"17587","ident":"GE24","type":"heliport","name":"Se Georgia Health System-Brunswick Heliport","latitude_deg":"31.17530059814453","longitude_deg":"-81.48529815673828","elevation_ft":"33","continent":"NA","iso_country":"US","iso_region":"US-GA","municipality":"Brunswick","scheduled_service":"no","icao_code":null,"iata_code":null,"gps_code":"GE24","local_code":"GE24","home_link":null,"wikipedia_link":null,"keywords":null},{"id":"17588","ident":"GE25","type":"small_airport","name":"Hutto Farm Airport","latitude_deg":"32.681106","longitude_deg":"-83.856109","elevation_ft":"620","continent":"NA","iso_country":"US","iso_region":"US-GA","municipality":"Fort Valley","scheduled_service":"no","icao_code":null,"iata_code":null,"gps_code":"GE25","local_code":"GE25","home_link":null,"wikipedia_link":null,"keywords":null},{"id":"45379","ident":"GE26","type":"small_airport","name":"Duke Strip 2","latitude_deg":"32.381667","longitude_deg":"-83.059722","elevation_ft":"340","continent":"NA","iso_country":"US","iso_region":"US-GA","municipality":"Dublin","scheduled_service":"no","icao_code":null,"iata_code":null,"gps_code":"GE26","local_code":"GE26","home_link":null,"wikipedia_link":null,"keywords":null},{"id":"17589","ident":"GE27","type":"small_airport","name":"Smith Field","latitude_deg":"32.60219955444336","longitude_deg":"-83.75420379638672","elevation_ft":"475","continent":"NA","iso_country":"US","iso_region":"US-GA","municipality":"Byron","scheduled_service":"no","icao_code":null,"iata_code":null,"gps_code":"GE27","local_code":"GE27","home_link":null,"wikipedia_link":null,"keywords":null},{"id":"17590","ident":"GE28","type":"heliport","name":"Emory Johns Creek Hospital Heliport","latitude_deg":"34.067405","longitude_deg":"-84.177461","elevation_ft":"1060","continent":"NA","iso_country":"US","iso_region":"US-GA","municipality":"Johns Creek","scheduled_service":"no","icao_code":null,"iata_code":null,"gps_code":"GE28","local_code":"GE28","home_link":null,"wikipedia_link":null,"keywords":null},{"id":"17591","ident":"GE30","type":"small_airport","name":"Sandy Hill Airport","latitude_deg":"33.221099853515625","longitude_deg":"-81.99530029296875","elevation_ft":"310","continent":"NA","iso_country":"US","iso_region":"US-GA","municipality":"Waynesboro","scheduled_service":"no","icao_code":null,"iata_code":null,"gps_code":"GE30","local_code":"GE30","home_link":null,"wikipedia_link":null,"keywords":null},{"id":"45374","ident":"GE33","type":"small_airport","name":"River Bend Airport","latitude_deg":"33.304319","longitude_deg":"-84.136798","elevation_ft":"718","continent":"NA","iso_country":"US","iso_region":"US-GA","municipality":"Locust Grove","scheduled_service":"no","icao_code":null,"iata_code":null,"gps_code":"GE33","local_code":"GE33","home_link":null,"wikipedia_link":null,"keywords":null},{"id":"45376","ident":"GE34","type":"heliport","name":"Stone Mountain Park Public Safety Heliport","latitude_deg":"33.818889","longitude_deg":"-84.150556","elevation_ft":"895","continent":"NA","iso_country":"US","iso_region":"US-GA","municipality":"Stone Mountain","scheduled_service":"no","icao_code":null,"iata_code":null,"gps_code":"GE34","local_code":"GE34","home_link":null,"wikipedia_link":null,"keywords":null},{"id":"45375","ident":"GE35","type":"small_airport","name":"Southern Oaks Airport","latitude_deg":"33.731389","longitude_deg":"-83.469722","elevation_ft":"121","continent":"NA","iso_country":"US","iso_region":"US-GA","municipality":"Bostwick","scheduled_service":"no","icao_code":null,"iata_code":null,"gps_code":"GE35","local_code":"GE35","home_link":null,"wikipedia_link":null,"keywords":null},{"id":"348265","ident":"GE53","type":"small_airport","name":"Chigger Hill Airport","latitude_deg":"33.316745","longitude_deg":"-84.150612","elevation_ft":"800","continent":"NA","iso_country":"US","iso_region":"US-GA","municipality":"Locust Grove","scheduled_service":"no","icao_code":null,"iata_code":null,"gps_code":"GE53","local_code":"GE53","home_link":null,"wikipedia_link":null,"keywords":null},{"id":"558440","ident":"GE61","type":"small_airport","name":"Brownstone Airpark","latitude_deg":"34.102514","longitude_deg":"-85.383909","elevation_ft":"752","continent":"NA","iso_country":"US","iso_region":"US-GA","municipality":"Cave Spring","scheduled_service":"no","icao_code":null,"iata_code":null,"gps_code":"GE61","local_code":"GE61","home_link":null,"wikipedia_link":null,"keywords":null},{"id":"505988","ident":"GE72","type":"small_airport","name":"Hannah Creek Airport","latitude_deg":"34.235313","longitude_deg":"-83.153018","elevation_ft":"728","continent":"NA","iso_country":"US","iso_region":"US-GA","municipality":"Royston","scheduled_service":"no","icao_code":null,"iata_code":null,"gps_code":"GE72","local_code":"GE72","home_link":null,"wikipedia_link":null,"keywords":null},{"id":"334275","ident":"GE88","type":"heliport","name":"Floyd County Sheriffs Office Heliport","latitude_deg":"34.281389","longitude_deg":"-85.141944","elevation_ft":"670","continent":"NA","iso_country":"US","iso_region":"US-GA","municipality":"Rome","scheduled_service":"no","icao_code":null,"iata_code":null,"gps_code":"GE88","local_code":"GE88","home_link":null,"wikipedia_link":null,"keywords":null},{"id":"350767","ident":"GE92","type":"heliport","name":"Rabbit Hole II Heliport","latitude_deg":"33.49961","longitude_deg":"-83.320635","elevation_ft":"460","continent":"NA","iso_country":"US","iso_region":"US-GA","municipality":"Buckhead","scheduled_service":"no","icao_code":null,"iata_code":null,"gps_code":"GE92","local_code":"GE92","home_link":null,"wikipedia_link":null,"keywords":null},{"id":"17592","ident":"GE99","type":"small_airport","name":"Heaven's Landing Airport","latitude_deg":"34.914398193400004","longitude_deg":"-83.4597015381","elevation_ft":"2724","continent":"NA","iso_country":"US","iso_region":"US-GA","municipality":"Clayton","scheduled_service":"no","icao_code":null,"iata_code":null,"gps_code":"GE99","local_code":"GE99","home_link":null,"wikipedia_link":null,"keywords":null},{"id":"35151","ident":"GECE","type":"heliport","name":"Ceuta Heliport","latitude_deg":"35.892657","longitude_deg":"-5.306321","elevation_ft":"8","continent":"AF","iso_country":"ES","iso_region":"ES-CE","municipality":"Ceuta","scheduled_service":"yes","icao_code":"GECE","iata_code":"JCU","gps_code":"GECE","local_code":null,"home_link":"https://www.aena.es/en/ceuta.html","wikipedia_link":"https://en.wikipedia.org/wiki/Ceuta_Heliport","keywords":"GECT"},{"id":"598095","ident":"GECT","type":"heliport","name":"Ceuta Military Heliport","latitude_deg":"35.889018","longitude_deg":"-5.346354","elevation_ft":"267","continent":"AF","iso_country":"ES","iso_region":"ES-CE","municipality":"Ceuta","scheduled_service":"no","icao_code":"GECT","iata_code":null,"gps_code":"GECT","local_code":null,"home_link":null,"wikipedia_link":null,"keywords":null},{"id":"3093","ident":"GEML","type":"medium_airport","name":"Melilla Airport","latitude_deg":"35.2798","longitude_deg":"-2.95626","elevation_ft":"156","continent":"AF","iso_country":"ES","iso_region":"ES-ML","municipality":"Melilla","scheduled_service":"yes","icao_code":"GEML","iata_code":"MLN","gps_code":"GEML","local_code":null,"home_link":"https://www.aena.es/en/melilla.html","wikipedia_link":"https://en.wikipedia.org/wiki/Melilla_Airport","keywords":null},{"id":"41524","ident":"GF-0001","type":"small_airport","name":"Kourou Airport","latitude_deg":"5.176046","longitude_deg":"-52.694206","elevation_ft":"47","continent":"SA","iso_country":"GF","iso_region":"GF-CY","municipality":"Kourou","scheduled_service":"no","icao_code":"SOOK","iata_code":null,"gps_code":"SOOK","local_code":null,"home_link":null,"wikipedia_link":"https://en.wikipedia.org/wiki/Kourou_Airport","keywords":"QKR Kourou Off-line Point"},{"id":"41525","ident":"GF-0002","type":"small_airport","name":"Ouanary Airport","latitude_deg":"4.21009","longitude_deg":"-51.667702","elevation_ft":"40","continent":"SA","iso_country":"GF","iso_region":"GF-CY","municipality":"Ouanary","scheduled_service":"no","icao_code":null,"iata_code":null,"gps_code":null,"local_code":null,"home_link":null,"wikipedia_link":null,"keywords":"AG1657"},{"id":"318335","ident":"GF-0003","type":"small_airport","name":"Saint-Élie Airport","latitude_deg":"4.816117","longitude_deg":"-53.289505","elevation_ft":"440","continent":"SA","iso_country":"GF","iso_region":"GF-CY","municipality":"Saint-Élie","scheduled_service":"no","icao_code":null,"iata_code":null,"gps_code":null,"local_code":null,"home_link":null,"wikipedia_link":null,"keywords":null},{"id":"318337","ident":"GF-0004","type":"small_airport","name":"Camopi Airport","latitude_deg":"3.172847","longitude_deg":"-52.336142","elevation_ft":"220","continent":"SA","iso_country":"GF","iso_region":"GF-CY","municipality":"Camopi","scheduled_service":"no","icao_code":null,"iata_code":"OYC","gps_code":"SOOC","local_code":null,"home_link":null,"wikipedia_link":"https://en.wikipedia.org/wiki/Camopi_Airport","keywords":"Vila Brasil"},{"id":"340912","ident":"GF-0005","type":"heliport","name":"Guiana Space Centre West Heliport","latitude_deg":"5.168398","longitude_deg":"-52.688847","elevation_ft":null,"continent":"SA","iso_country":"GF","iso_region":"GF-CY","municipality":"Kourou","scheduled_service":"no","icao_code":null,"iata_code":null,"gps_code":null,"local_code":null,"home_link":null,"wikipedia_link":null,"keywords":null},{"id":"340913","ident":"GF-0006","type":"heliport","name":"Guiana Space Centre East Heliport","latitude_deg":"5.168633","longitude_deg":"-52.682549","elevation_ft":null,"continent":"SA","iso_country":"GF","iso_region":"GF-CY","municipality":"Kourou","scheduled_service":"no","icao_code":null,"iata_code":null,"gps_code":null,"local_code":null,"home_link":null,"wikipedia_link":null,"keywords":null},{"id":"340914","ident":"GF-0007","type":"heliport","name":"Île Royale Heliport","latitude_deg":"5.287424","longitude_deg":"-52.591953","elevation_ft":null,"continent":"SA","iso_country":"GF","iso_region":"GF-CY","municipality":"Kourou","scheduled_service":"no","icao_code":null,"iata_code":null,"gps_code":null,"local_code":null,"home_link":null,"wikipedia_link":null,"keywords":null},{"id":"340915","ident":"GF-0008","type":"heliport","name":"Rosemond Hospital Helipad","latitude_deg":"4.922635","longitude_deg":"-52.321762","elevation_ft":null,"continent":"SA","iso_country":"GF","iso_region":"GF-CY","municipality":"Cayenne","scheduled_service":"no","icao_code":null,"iata_code":null,"gps_code":null,"local_code":null,"home_link":null,"wikipedia_link":null,"keywords":null},{"id":"348614","ident":"GF-0009","type":"seaplane_base","name":"Camp Maripas Seaplane Base","latitude_deg":"5.04285","longitude_deg":"-52.68906","elevation_ft":"52","continent":"SA","iso_country":"GF","iso_region":"GF-CY","municipality":"Kourou","scheduled_service":"no","icao_code":null,"iata_code":null,"gps_code":null,"local_code":null,"home_link":null,"wikipedia_link":null,"keywords":null},{"id":"348615","ident":"GF-0010","type":"small_airport","name":"Mana Airport","latitude_deg":"5.66342","longitude_deg":"-53.76469","elevation_ft":"16","continent":"SA","iso_country":"GF","iso_region":"GF-SL","municipality":"Mana","scheduled_service":"no","icao_code":null,"iata_code":null,"gps_code":null,"local_code":null,"home_link":null,"wikipedia_link":null,"keywords":null},{"id":"348616","ident":"GF-0011","type":"seaplane_base","name":"Guyane Ultralight Seaplane Base","latitude_deg":"5.66061","longitude_deg":"-53.7764","elevation_ft":"16","continent":"SA","iso_country":"GF","iso_region":"GF-SL","municipality":"Mana","scheduled_service":"no","icao_code":null,"iata_code":null,"gps_code":null,"local_code":null,"home_link":null,"wikipedia_link":null,"keywords":null},{"id":"348617","ident":"GF-0012","type":"small_airport","name":"Kouachinana Airport","latitude_deg":"5.6185","longitude_deg":"-53.68631","elevation_ft":"23","continent":"SA","iso_country":"GF","iso_region":"GF-SL","municipality":"Mana","scheduled_service":"no","icao_code":null,"iata_code":null,"gps_code":null,"local_code":null,"home_link":null,"wikipedia_link":null,"keywords":null},{"id":"349348","ident":"GF-0013","type":"seaplane_base","name":"Montsinery Seaplane Base","latitude_deg":"4.89211","longitude_deg":"-52.49146","elevation_ft":null,"continent":"SA","iso_country":"GF","iso_region":"GF-CY","municipality":"Montsinery","scheduled_service":"no","icao_code":null,"iata_code":null,"gps_code":null,"local_code":null,"home_link":null,"wikipedia_link":null,"keywords":"LF97302"},{"id":"429769","ident":"GF-0014","type":"seaplane_base","name":"Terre Rouge Seaplane Base","latitude_deg":"5.449567","longitude_deg":"-54.054022","elevation_ft":"19","continent":"SA","iso_country":"GF","iso_region":"GF-SL","municipality":"Saint-Laurent-du-Maroni","scheduled_service":"no","icao_code":null,"iata_code":null,"gps_code":null,"local_code":null,"home_link":null,"wikipedia_link":null,"keywords":"LF97304"},{"id":"31728","ident":"GFBO","type":"medium_airport","name":"Bo Airport","latitude_deg":"7.9444","longitude_deg":"-11.761","elevation_ft":"328","continent":"AF","iso_country":"SL","iso_region":"SL-S","municipality":"Bo","scheduled_service":"no","icao_code":"GFBO","iata_code":"KBS","gps_code":"GFBO","local_code":null,"home_link":null,"wikipedia_link":"https://en.wikipedia.org/wiki/Bo_Airport","keywords":null},{"id":"31517","ident":"GFGK","type":"small_airport","name":"Gbangbatok Airport","latitude_deg":"7.812535","longitude_deg":"-12.377815","elevation_ft":"75","continent":"AF","iso_country":"SL","iso_region":"SL-S","municipality":"Gbangbatok","scheduled_service":"no","icao_code":"GFGK","iata_code":"GBK","gps_code":"GFGK","local_code":null,"home_link":null,"wikipedia_link":"https://en.wikipedia.org/wiki/Gbangbatok_Airport","keywords":null},{"id":"31525","ident":"GFHA","type":"small_airport","name":"Hastings Airport","latitude_deg":"8.394348","longitude_deg":"-13.128891","elevation_ft":"60","continent":"AF","iso_country":"SL","iso_region":"SL-W","municipality":"Freetown","scheduled_service":"no","icao_code":"GFHA","iata_code":"HGS","gps_code":"GFHA","local_code":null,"home_link":null,"wikipedia_link":"https://en.wikipedia.org/wiki/Hastings_Airport","keywords":null},{"id":"31721","ident":"GFKB","type":"small_airport","name":"Kabala Airport","latitude_deg":"9.638322913429999","longitude_deg":"-11.5155601501","elevation_ft":"1012","continent":"AF","iso_country":"SL","iso_region":"SL-N","municipality":"Kabala","scheduled_service":"no","icao_code":"GFKB","iata_code":"KBA","gps_code":"GFKB","local_code":null,"home_link":null,"wikipedia_link":"https://en.wikipedia.org/wiki/Kabala_Airport","keywords":null},{"id":"31741","ident":"GFKE","type":"medium_airport","name":"Kenema Airport","latitude_deg":"7.896364","longitude_deg":"-11.174126","elevation_ft":"485","continent":"AF","iso_country":"SL","iso_region":"SL-E","municipality":"Kenema","scheduled_service":"no","icao_code":"GFKE","iata_code":"KEN","gps_code":"GFKE","local_code":null,"home_link":null,"wikipedia_link":"https://en.wikipedia.org/wiki/Kenema_Airport","keywords":null},{"id":"3095","ident":"GFLL","type":"large_airport","name":"Lungi International Airport","latitude_deg":"8.61644","longitude_deg":"-13.1955","elevation_ft":"84","continent":"AF","iso_country":"SL","iso_region":"SL-N","municipality":"Freetown (Lungi-Town)","scheduled_service":"yes","icao_code":"GFLL","iata_code":"FNA","gps_code":"GFLL","local_code":null,"home_link":"http://www.freetownairport.com/","wikipedia_link":"https://en.wikipedia.org/wiki/Lungi_International_Airport","keywords":null},{"id":"31526","ident":"GFTO","type":"small_airport","name":"Tongo Airport","latitude_deg":"8.217000007629395","longitude_deg":"-11.067000389099121","elevation_ft":"750","continent":"AF","iso_country":"SL","iso_region":"SL-E","municipality":"Tongo","scheduled_service":"no","icao_code":null,"iata_code":null,"gps_code":"GFTO","local_code":null,"home_link":null,"wikipedia_link":null,"keywords":null},{"id":"32689","ident":"GFYE","type":"medium_airport","name":"Yengema Airport","latitude_deg":"8.61047","longitude_deg":"-11.0454","elevation_ft":"1300","continent":"AF","iso_country":"SL","iso_region":"SL-E","municipality":"Yengema","scheduled_service":"no","icao_code":"GFYE","iata_code":"WYE","gps_code":"GFYE","local_code":null,"home_link":null,"wikipedia_link":"https://en.wikipedia.org/wiki/Yengema_Airport","keywords":null},{"id":"319196","ident":"GG-0001","type":"closed","name":"L'Erée Aerodrome","latitude_deg":"49.456424","longitude_deg":"-2.648456","elevation_ft":null,"continent":"EU","iso_country":"GG","iso_region":"GG-G","municipality":"L'Erée","scheduled_service":"no","icao_code":null,"iata_code":null,"gps_code":null,"local_code":null,"home_link":null,"wikipedia_link":null,"keywords":null},{"id":"534991","ident":"GG-0002","type":"heliport","name":"Jethou Private Heliport","latitude_deg":"49.45857","longitude_deg":"-2.46263","elevation_ft":"210","continent":"EU","iso_country":"GG","iso_region":"GG-G","municipality":"Jethou","scheduled_service":"no","icao_code":null,"iata_code":null,"gps_code":null,"local_code":null,"home_link":null,"wikipedia_link":null,"keywords":"Cannon Field"},{"id":"604088","ident":"GG-0003","type":"heliport","name":"Brecqhou Residences Helipad","latitude_deg":"49.43365","longitude_deg":"-2.38607","elevation_ft":null,"continent":"EU","iso_country":"GG","iso_region":"GG-S","municipality":"Brecqhou","scheduled_service":"no","icao_code":null,"iata_code":null,"gps_code":null,"local_code":null,"home_link":null,"wikipedia_link":null,"keywords":null},{"id":"3156","ident":"GG64","type":"small_airport","name":"Quebo Airport","latitude_deg":"11.536858","longitude_deg":"-14.761904","elevation_ft":"165","continent":"AF","iso_country":"GW","iso_region":"GW-TO","municipality":"Quebo","scheduled_service":"no","icao_code":null,"iata_code":null,"gps_code":"GG64","local_code":"GG64","home_link":null,"wikipedia_link":null,"keywords":"Aldeia"},{"id":"609140","ident":"GGBE","type":"small_airport","name":"Bendanda Airstrip","latitude_deg":"11.346763","longitude_deg":"-15.105693","elevation_ft":"27","continent":"AF","iso_country":"GW","iso_region":"GW-TO","municipality":"Bendanda","scheduled_service":"no","icao_code":"GGBE","iata_code":null,"gps_code":"GGBE","local_code":null,"home_link":null,"wikipedia_link":null,"keywords":null},{"id":"39588","ident":"GGBF","type":"small_airport","name":"Bafatá Airport","latitude_deg":"12.176437","longitude_deg":"-14.657811","elevation_ft":"144","continent":"AF","iso_country":"GW","iso_region":"GW-BA","municipality":"Bafatá","scheduled_service":"no","icao_code":"GGBF","iata_code":null,"gps_code":"GGBF","local_code":null,"home_link":null,"wikipedia_link":"https://en.wikipedia.org/wiki/Bafatá_Airport","keywords":null},{"id":"609138","ident":"GGBO","type":"small_airport","name":"Bolama Airstrip","latitude_deg":"11.595482","longitude_deg":"-15.49851","elevation_ft":"77","continent":"AF","iso_country":"GW","iso_region":"GW-BL","municipality":"Bolama","scheduled_service":"no","icao_code":"GGBO","iata_code":null,"gps_code":"GGBO","local_code":null,"home_link":null,"wikipedia_link":null,"keywords":null},{"id":"39587","ident":"GGBU","type":"small_airport","name":"Bubaque Airport","latitude_deg":"11.297356","longitude_deg":"-15.838079","elevation_ft":null,"continent":"AF","iso_country":"GW","iso_region":"GW-BL","municipality":"Bubaque","scheduled_service":"no","icao_code":"GGBU","iata_code":"BQE","gps_code":"GGBU","local_code":null,"home_link":null,"wikipedia_link":"https://en.wikipedia.org/wiki/Bubaque_Airport","keywords":null},{"id":"609137","ident":"GGCC","type":"small_airport","name":"Cacine Airstrip","latitude_deg":"11.120751","longitude_deg":"-15.014704","elevation_ft":"27","continent":"AF","iso_country":"GW","iso_region":"GW-TO","municipality":"Cacine","scheduled_service":"no","icao_code":"GGCC","iata_code":null,"gps_code":"GGCC","local_code":null,"home_link":null,"wikipedia_link":null,"keywords":null},{"id":"3096","ident":"GGCF","type":"small_airport","name":"Cufar Airport","latitude_deg":"11.2879","longitude_deg":"-15.1805","elevation_ft":"65","continent":"AF","iso_country":"GW","iso_region":"GW-TO","municipality":"Cufar","scheduled_service":"no","icao_code":"GGCF","iata_code":null,"gps_code":"GGCF","local_code":null,"home_link":null,"wikipedia_link":"https://en.wikipedia.org/wiki/Cufar_Airport","keywords":null},{"id":"318892","ident":"GGGB","type":"small_airport","name":"Gabu Airport","latitude_deg":"12.292002","longitude_deg":"-14.236044","elevation_ft":"223","continent":"AF","iso_country":"GW","iso_region":"GW-GA","municipality":"Gabu","scheduled_service":"no","icao_code":null,"iata_code":null,"gps_code":"GGGB","local_code":null,"home_link":null,"wikipedia_link":"https://en.wikipedia.org/wiki/Nova_Lamego_Airport","keywords":null},{"id":"3097","ident":"GGOV","type":"large_airport","name":"Osvaldo Vieira International Airport","latitude_deg":"11.894262","longitude_deg":"-15.653596","elevation_ft":"129","continent":"AF","iso_country":"GW","iso_region":"GW-BS","municipality":"Bissau","scheduled_service":"yes","icao_code":"GGOV","iata_code":"OXB","gps_code":"GGOV","local_code":null,"home_link":null,"wikipedia_link":"https://en.wikipedia.org/wiki/Osvaldo_Vieira_International_Airport","keywords":null},{"id":"322506","ident":"GH-0001","type":"small_airport","name":"Kpong Airfield","latitude_deg":"6.114864","longitude_deg":"0.057761","elevation_ft":"89","continent":"AF","iso_country":"GH","iso_region":"GH-EP","municipality":"Kpong","scheduled_service":"no","icao_code":null,"iata_code":null,"gps_code":null,"local_code":null,"home_link":null,"wikipedia_link":"https://en.wikipedia.org/wiki/Kpong_Airfield","keywords":null},{"id":"331006","ident":"GH-0002","type":"small_airport","name":"Ajena Airstrip","latitude_deg":"6.322619","longitude_deg":"0.087893","elevation_ft":"485","continent":"AF","iso_country":"GH","iso_region":"GH-EP","municipality":"Ajena","scheduled_service":"no","icao_code":null,"iata_code":null,"gps_code":null,"local_code":null,"home_link":null,"wikipedia_link":null,"keywords":null},{"id":"341704","ident":"GH-0003","type":"heliport","name":"37 Military Hospital Helipad","latitude_deg":"5.592844","longitude_deg":"-0.185487","elevation_ft":null,"continent":"AF","iso_country":"GH","iso_region":"GH-AA","municipality":"Accra","scheduled_service":"no","icao_code":null,"iata_code":null,"gps_code":null,"local_code":null,"home_link":null,"wikipedia_link":null,"keywords":null},{"id":"341705","ident":"GH-0004","type":"heliport","name":"Ghana Police Headquarters Heliport","latitude_deg":"5.571424","longitude_deg":"-0.187866","elevation_ft":null,"continent":"AF","iso_country":"GH","iso_region":"GH-AA","municipality":"Accra","scheduled_service":"no","icao_code":null,"iata_code":null,"gps_code":null,"local_code":null,"home_link":null,"wikipedia_link":null,"keywords":null},{"id":"341706","ident":"GH-0005","type":"heliport","name":"Presidential Villa Heliport","latitude_deg":"5.578062","longitude_deg":"-0.189073","elevation_ft":null,"continent":"AF","iso_country":"GH","iso_region":"GH-AA","municipality":"Accra","scheduled_service":"no","icao_code":null,"iata_code":null,"gps_code":null,"local_code":null,"home_link":null,"wikipedia_link":null,"keywords":null},{"id":"341707","ident":"GH-0006","type":"heliport","name":"Anglogold Ashanti Obuasi Mine Helipad","latitude_deg":"6.171862","longitude_deg":"-1.693507","elevation_ft":null,"continent":"AF","iso_country":"GH","iso_region":"GH-AH","municipality":"Obuasi","scheduled_service":"no","icao_code":null,"iata_code":null,"gps_code":null,"local_code":null,"home_link":null,"wikipedia_link":null,"keywords":null},{"id":"341708","ident":"GH-0007","type":"heliport","name":"White Sands Resort Helipad","latitude_deg":"5.427377","longitude_deg":"-0.468884","elevation_ft":null,"continent":"AF","iso_country":"GH","iso_region":"GH-CP","municipality":"Gomoa Fetteh","scheduled_service":"no","icao_code":null,"iata_code":null,"gps_code":null,"local_code":null,"home_link":null,"wikipedia_link":null,"keywords":null},{"id":"341709","ident":"GH-0008","type":"heliport","name":"Octagon Helipad","latitude_deg":"5.552162","longitude_deg":"-0.203391","elevation_ft":null,"continent":"AF","iso_country":"GH","iso_region":"GH-CP","municipality":"Accra","scheduled_service":"no","icao_code":null,"iata_code":null,"gps_code":null,"local_code":null,"home_link":null,"wikipedia_link":null,"keywords":null},{"id":"341710","ident":"GH-0009","type":"heliport","name":"Komfo Anokye Hospital Helipad","latitude_deg":"6.695823","longitude_deg":"-1.627837","elevation_ft":null,"continent":"AF","iso_country":"GH","iso_region":"GH-AH","municipality":"Kumasi","scheduled_service":"no","icao_code":null,"iata_code":null,"gps_code":null,"local_code":null,"home_link":null,"wikipedia_link":null,"keywords":null},{"id":"309162","ident":"GHE","type":"small_airport","name":"Garachiné Airport","latitude_deg":"8.0644","longitude_deg":"-78.3673","elevation_ft":"42","continent":"SA","iso_country":"PA","iso_region":"PA-5","municipality":"Garachiné","scheduled_service":"no","icao_code":null,"iata_code":"GHE","gps_code":null,"local_code":null,"home_link":null,"wikipedia_link":"https://en.wikipedia.org/wiki/Garachin%C3%A9_Airport","keywords":null},{"id":"308082","ident":"GIG","type":"small_airport","name":"Black Diamond/Flying R Ranch Airport","latitude_deg":"50.645","longitude_deg":"-114.203","elevation_ft":"4060","continent":"NA","iso_country":"CA","iso_region":"CA-AB","municipality":null,"scheduled_service":"no","icao_code":null,"iata_code":null,"gps_code":"CBD8","local_code":"CBD8","home_link":null,"wikipedia_link":"https://en.wikipedia.org/wiki/Black_Diamond/Flying_R_Ranch_Aerodrome","keywords":null},{"id":"299108","ident":"GL-0001","type":"closed","name":"NEEM Camp Skiway","latitude_deg":"79.45","longitude_deg":"-51.006","elevation_ft":null,"continent":"NA","iso_country":"GL","iso_region":"GL-NE","municipality":"NEEM Camp","scheduled_service":"no","icao_code":null,"iata_code":null,"gps_code":null,"local_code":null,"home_link":null,"wikipedia_link":"https://en.wikipedia.org/wiki/NEEM_Camp","keywords":"North Greenland Eemian Ice Drilling Project"},{"id":"44053","ident":"GL-0002","type":"small_airport","name":"Gisp Ice Landing Strip","latitude_deg":"72.59619","longitude_deg":"-38.42145","elevation_ft":"10545","continent":"NA","iso_country":"GL","iso_region":"GL-NE","municipality":"Summit Camp","scheduled_service":"no","icao_code":null,"iata_code":null,"gps_code":null,"local_code":null,"home_link":null,"wikipedia_link":null,"keywords":"GISGA"},{"id":"44064","ident":"GL-0003","type":"small_airport","name":"NorthGRIP Airport","latitude_deg":"75.099998","longitude_deg":"-42.316666","elevation_ft":null,"continent":"NA","iso_country":"GL","iso_region":"GL-NE","municipality":"NorthGRIP","scheduled_service":"no","icao_code":null,"iata_code":null,"gps_code":null,"local_code":null,"home_link":null,"wikipedia_link":null,"keywords":"GIRPA, North Greenland Ice Core Project"},{"id":"44067","ident":"GL-0004","type":"small_airport","name":"Raven Skiway","latitude_deg":"66.316666","longitude_deg":"-46.283333","elevation_ft":null,"continent":"NA","iso_country":"GL","iso_region":"GL-QA","municipality":"Raven Camp","scheduled_service":"no","icao_code":null,"iata_code":null,"gps_code":null,"local_code":null,"home_link":null,"wikipedia_link":null,"keywords":"RABVA, DYE-2 Radar Site"},{"id":"44071","ident":"GL-0005","type":"small_airport","name":"Sødalen Landingstrip","latitude_deg":"68.16747","longitude_deg":"-31.51479","elevation_ft":null,"continent":"NA","iso_country":"GL","iso_region":"GL-SE","municipality":"Sodalen","scheduled_service":"no","icao_code":null,"iata_code":null,"gps_code":null,"local_code":null,"home_link":null,"wikipedia_link":null,"keywords":"SUDUL"},{"id":"44073","ident":"GL-0006","type":"small_airport","name":"Summit Ice Landing Strip","latitude_deg":"72.616669","longitude_deg":"-38.5","elevation_ft":"10523","continent":"NA","iso_country":"GL","iso_region":"GL-NE","municipality":"Summit Camp","scheduled_service":"no","icao_code":null,"iata_code":null,"gps_code":null,"local_code":null,"home_link":null,"wikipedia_link":"https://en.wikipedia.org/wiki/Summit_Camp","keywords":"SUMUD"},{"id":"44077","ident":"GL-0007","type":"small_airport","name":"Zackenberg Airport","latitude_deg":"74.468629","longitude_deg":"-20.564003","elevation_ft":null,"continent":"NA","iso_country":"GL","iso_region":"GL-NE","municipality":"Zackenberg","scheduled_service":"no","icao_code":null,"iata_code":null,"gps_code":null,"local_code":null,"home_link":null,"wikipedia_link":null,"keywords":"BERSO"},{"id":"314700","ident":"GL-0008","type":"closed","name":"Camp Tuto Airport","latitude_deg":"76.4288","longitude_deg":"-68.3378","elevation_ft":"1664","continent":"NA","iso_country":"GL","iso_region":"GL-AV","municipality":"Pituffik","scheduled_service":"no","icao_code":null,"iata_code":null,"gps_code":null,"local_code":null,"home_link":null,"wikipedia_link":"https://en.wikipedia.org/wiki/Camp_TUTO","keywords":null},{"id":"324834","ident":"GL-0009","type":"closed","name":"Nuussuaq Icestrip","latitude_deg":"74.10251","longitude_deg":"-57.40493","elevation_ft":null,"continent":"NA","iso_country":"GL","iso_region":"GL-AV","municipality":"Nuussuaq","scheduled_service":"no","icao_code":null,"iata_code":null,"gps_code":null,"local_code":null,"home_link":null,"wikipedia_link":null,"keywords":"Kraulshavn"},{"id":"349352","ident":"GL-0010","type":"closed","name":"Brønlundhus Seaplane Base","latitude_deg":"82.180635","longitude_deg":"-31.164313","elevation_ft":null,"continent":"NA","iso_country":"GL","iso_region":"GL-NE","municipality":"Peary Land","scheduled_service":"no","icao_code":null,"iata_code":null,"gps_code":null,"local_code":null,"home_link":null,"wikipedia_link":"https://en.wikipedia.org/wiki/Br%C3%B8nlundhus","keywords":null},{"id":"356244","ident":"GL-0011","type":"small_airport","name":"Ikateq Airport","latitude_deg":"65.940768","longitude_deg":"-36.676226","elevation_ft":"70","continent":"NA","iso_country":"GL","iso_region":"GL-SE","municipality":"Iqateq","scheduled_service":"no","icao_code":null,"iata_code":null,"gps_code":null,"local_code":null,"home_link":null,"wikipedia_link":null,"keywords":"Bluie East Two"},{"id":"429724","ident":"GL-0012","type":"medium_airport","name":"Qaqortoq Airport","latitude_deg":"60.76383","longitude_deg":"-46.065001","elevation_ft":"505","continent":"NA","iso_country":"GL","iso_region":"GL-KU","municipality":"Qaqortoq","scheduled_service":"yes","icao_code":"BGQO","iata_code":"JJU","gps_code":"BGQO","local_code":null,"home_link":"https://www.airports.gl/en/airport/qaqortoq-airport/","wikipedia_link":"https://en.wikipedia.org/wiki/Qaqortoq_Airport","keywords":"Qaqortoq"},{"id":"429725","ident":"GL-0013","type":"closed","name":"Teague Field","latitude_deg":"63.432703","longitude_deg":"-51.161098","elevation_ft":null,"continent":"NA","iso_country":"GL","iso_region":"GL-SE","municipality":"Marraq","scheduled_service":"no","icao_code":null,"iata_code":null,"gps_code":null,"local_code":null,"home_link":null,"wikipedia_link":null,"keywords":"Bluie West Four, Marraq"},{"id":"505046","ident":"GL-0014","type":"small_airport","name":"EastGRIP Airport","latitude_deg":"75.63","longitude_deg":"-35.99","elevation_ft":null,"continent":"NA","iso_country":"GL","iso_region":"GL-NE","municipality":"EastGRIP","scheduled_service":"no","icao_code":null,"iata_code":null,"gps_code":null,"local_code":null,"home_link":null,"wikipedia_link":null,"keywords":"East Greenland Ice-Core Project"},{"id":"505047","ident":"GL-0015","type":"closed","name":"Myggbukta Airport","latitude_deg":"73.48853","longitude_deg":"-21.50338","elevation_ft":null,"continent":"NA","iso_country":"GL","iso_region":"GL-NE","municipality":"Myggbukta","scheduled_service":"no","icao_code":null,"iata_code":null,"gps_code":null,"local_code":null,"home_link":null,"wikipedia_link":null,"keywords":null},{"id":"506837","ident":"GL-0016","type":"closed","name":"Junëiat Ice Landing Strip","latitude_deg":"73.440427","longitude_deg":"-36.606445","elevation_ft":null,"continent":"NA","iso_country":"GL","iso_region":"GL-NE","municipality":null,"scheduled_service":"no","icao_code":null,"iata_code":null,"gps_code":null,"local_code":null,"home_link":null,"wikipedia_link":null,"keywords":"nothing, BWHX, UAO"},{"id":"35287","ident":"GL-0017","type":"closed","name":"Grønnedal Heliport","latitude_deg":"61.237704","longitude_deg":"-48.105526","elevation_ft":null,"continent":"NA","iso_country":"GL","iso_region":"GL-SE","municipality":"Kangilinnguit","scheduled_service":"no","icao_code":null,"iata_code":null,"gps_code":null,"local_code":null,"home_link":null,"wikipedia_link":null,"keywords":"Bluie West Seven, Green Valley, Groennedal, JGR, GL-JGR"},{"id":"35297","ident":"GL-0018","type":"closed","name":"Paamiut Heliport","latitude_deg":"61.992199","longitude_deg":"-49.662498","elevation_ft":"63","continent":"NA","iso_country":"GL","iso_region":"GL-SE","municipality":"Paamiut","scheduled_service":"no","icao_code":null,"iata_code":null,"gps_code":null,"local_code":null,"home_link":null,"wikipedia_link":null,"keywords":"JFR, BGFH, Frederikshåb"},{"id":"299107","ident":"GL-0019","type":"closed","name":"Moriusaq Heliport","latitude_deg":"76.753492","longitude_deg":"-69.845055","elevation_ft":"44","continent":"NA","iso_country":"GL","iso_region":"GL-AV","municipality":"Moriusaq","scheduled_service":"no","icao_code":null,"iata_code":null,"gps_code":null,"local_code":null,"home_link":null,"wikipedia_link":"https://en.wikipedia.org/wiki/Moriusaq_Heliport","keywords":"BGMO, MOR"},{"id":"312829","ident":"GL-0020","type":"closed","name":"Dundas Airport","latitude_deg":"76.523062","longitude_deg":"-68.811836","elevation_ft":"200","continent":"NA","iso_country":"GL","iso_region":"GL-AV","municipality":"Pituffik","scheduled_service":"no","icao_code":null,"iata_code":null,"gps_code":null,"local_code":null,"home_link":null,"wikipedia_link":null,"keywords":"BGDU, DUN"},{"id":"35284","ident":"GL-QCU","type":"heliport","name":"Akunnaaq Heliport","latitude_deg":"68.744273","longitude_deg":"-52.340369","elevation_ft":"59","continent":"NA","iso_country":"GL","iso_region":"GL-QK","municipality":"Akunnaaq","scheduled_service":"yes","icao_code":null,"iata_code":"QCU","gps_code":"BGAK","local_code":null,"home_link":null,"wikipedia_link":"https://en.wikipedia.org/wiki/Akunnaaq_Heliport","keywords":"Akúnâk"},{"id":"35288","ident":"GL-QFI","type":"heliport","name":"[Duplicate] Iginniarfik Heliport","latitude_deg":"68.1458","longitude_deg":"-53.1693","elevation_ft":null,"continent":"NA","iso_country":"GL","iso_region":"GL-QK","municipality":"Iginniarfik","scheduled_service":"no","icao_code":null,"iata_code":null,"gps_code":null,"local_code":null,"home_link":null,"wikipedia_link":null,"keywords":null},{"id":"31533","ident":"GLBU","type":"small_airport","name":"Buchanan Airport","latitude_deg":"5.905503","longitude_deg":"-10.058262","elevation_ft":"41","continent":"AF","iso_country":"LR","iso_region":"LR-GB","municipality":"Buchanan","scheduled_service":"no","icao_code":"GLBU","iata_code":"UCN","gps_code":"GLBU","local_code":null,"home_link":null,"wikipedia_link":"https://en.wikipedia.org/wiki/Buchanan_Airport","keywords":null},{"id":"30844","ident":"GLCP","type":"small_airport","name":"Cape Palmas Airport","latitude_deg":"4.378805","longitude_deg":"-7.696647","elevation_ft":"20","continent":"AF","iso_country":"LR","iso_region":"LR-MY","municipality":"Harper","scheduled_service":"no","icao_code":"GLCP","iata_code":"CPA","gps_code":"GLCP","local_code":null,"home_link":null,"wikipedia_link":"https://en.wikipedia.org/wiki/Cape_Palmas_Airport","keywords":"A. Tubman Airport"},{"id":"32335","ident":"GLGE","type":"medium_airport","name":"Greenville/Sinoe Airport","latitude_deg":"5.032124","longitude_deg":"-9.064236","elevation_ft":"10","continent":"AF","iso_country":"LR","iso_region":"LR-SI","municipality":"Greenville","scheduled_service":"no","icao_code":"GLGE","iata_code":"SNI","gps_code":"GLGE","local_code":null,"home_link":null,"wikipedia_link":"https://en.wikipedia.org/wiki/Greenville/Sinoe_Airport","keywords":"R E Murray"},{"id":"31538","ident":"GLLB","type":"small_airport","name":"Lamco Airport","latitude_deg":"5.856911","longitude_deg":"-10.021473","elevation_ft":"30","continent":"AF","iso_country":"LR","iso_region":"LR-GB","municipality":"Buchanan","scheduled_service":"no","icao_code":"GLLB","iata_code":null,"gps_code":"GLLB","local_code":null,"home_link":null,"wikipedia_link":"https://en.wikipedia.org/wiki/Lamco_Airport","keywords":null},{"id":"3098","ident":"GLMR","type":"medium_airport","name":"Spriggs Payne Airport","latitude_deg":"6.28906","longitude_deg":"-10.7587","elevation_ft":"25","continent":"AF","iso_country":"LR","iso_region":"LR-MO","municipality":"Monrovia","scheduled_service":"yes","icao_code":"GLMR","iata_code":"MLW","gps_code":"GLMR","local_code":null,"home_link":null,"wikipedia_link":"https://en.wikipedia.org/wiki/Spriggs_Payne_Airport","keywords":null},{"id":"32028","ident":"GLNA","type":"small_airport","name":"Nimba Airport","latitude_deg":"7.494459","longitude_deg":"-8.584514","elevation_ft":"1632","continent":"AF","iso_country":"LR","iso_region":"LR-NI","municipality":"Nimba","scheduled_service":"no","icao_code":"GLNA","iata_code":"NIA","gps_code":"GLNA","local_code":null,"home_link":null,"wikipedia_link":"https://en.wikipedia.org/wiki/Nimba_Airport","keywords":null},{"id":"3099","ident":"GLRB","type":"large_airport","name":"Roberts International Airport","latitude_deg":"6.23379","longitude_deg":"-10.3623","elevation_ft":"31","continent":"AF","iso_country":"LR","iso_region":"LR-MG","municipality":"Monrovia","scheduled_service":"yes","icao_code":"GLRB","iata_code":"ROB","gps_code":"GLRB","local_code":null,"home_link":null,"wikipedia_link":"https://en.wikipedia.org/wiki/Roberts_International_Airport","keywords":null},{"id":"43203","ident":"GLST","type":"small_airport","name":"Sasstown Airport","latitude_deg":"4.681845","longitude_deg":"-8.434668","elevation_ft":"6","continent":"AF","iso_country":"LR","iso_region":"LR-GK","municipality":"Sasstown","scheduled_service":"no","icao_code":"GLST","iata_code":"SAZ","gps_code":"GLST","local_code":null,"home_link":null,"wikipedia_link":"https://en.wikipedia.org/wiki/Sasstown_Airport","keywords":null},{"id":"32443","ident":"GLTN","type":"small_airport","name":"Tchien Airport","latitude_deg":"6.04565","longitude_deg":"-8.138723","elevation_ft":"790","continent":"AF","iso_country":"LR","iso_region":"LR-GG","municipality":"Zwedru","scheduled_service":"no","icao_code":"GLTN","iata_code":"THC","gps_code":"GLTN","local_code":null,"home_link":null,"wikipedia_link":"https://en.wikipedia.org/wiki/Tchien_Airport","keywords":null},{"id":"32590","ident":"GLVA","type":"small_airport","name":"Voinjama Airport","latitude_deg":"8.32347","longitude_deg":"-9.769249","elevation_ft":"1400","continent":"AF","iso_country":"LR","iso_region":"LR-LO","municipality":"Voinjama","scheduled_service":"no","icao_code":"GLVA","iata_code":"VOI","gps_code":"GLVA","local_code":null,"home_link":null,"wikipedia_link":"https://en.wikipedia.org/wiki/Voinjama_Airport","keywords":null},{"id":"3100","ident":"GMAA","type":"small_airport","name":"Inezgane Airport","latitude_deg":"30.381399","longitude_deg":"-9.54631","elevation_ft":"89","continent":"AF","iso_country":"MA","iso_region":"MA-09","municipality":"Inezgane","scheduled_service":"no","icao_code":"GMAA","iata_code":null,"gps_code":"GMAA","local_code":null,"home_link":null,"wikipedia_link":"https://en.wikipedia.org/wiki/Inezgane_Airport","keywords":"Agadir-Inezgane Airport, Inezgane Air Base"},{"id":"3101","ident":"GMAD","type":"large_airport","name":"Al Massira Airport","latitude_deg":"30.322478","longitude_deg":"-9.412003","elevation_ft":"250","continent":"AF","iso_country":"MA","iso_region":"MA-09","municipality":"Agadir (Temsia)","scheduled_service":"yes","icao_code":"GMAD","iata_code":"AGA","gps_code":"GMAD","local_code":null,"home_link":"http://www.agadir-airport.com/en/index.php","wikipedia_link":"https://en.wikipedia.org/wiki/Al_Massira_Airport","keywords":null},{"id":"3102","ident":"GMAT","type":"medium_airport","name":"Tan Tan Airport","latitude_deg":"28.447563","longitude_deg":"-11.161749","elevation_ft":"653","continent":"AF","iso_country":"MA","iso_region":"MA-10","municipality":"Tan Tan","scheduled_service":"yes","icao_code":"GMAT","iata_code":"TTA","gps_code":"GMAT","local_code":null,"home_link":null,"wikipedia_link":"https://en.wikipedia.org/wiki/Tan_Tan_Airport","keywords":"Plage Blanche Airport"},{"id":"429847","ident":"GMAZ","type":"large_airport","name":"Zagora Airport","latitude_deg":"30.265788","longitude_deg":"-5.860808","elevation_ft":"2414","continent":"AF","iso_country":"MA","iso_region":"MA-08","municipality":"Zagora","scheduled_service":"yes","icao_code":"GMAZ","iata_code":"OZG","gps_code":"GMAZ","local_code":null,"home_link":null,"wikipedia_link":"https://en.wikipedia.org/wiki/Zagora_Airport","keywords":null},{"id":"30228","ident":"GMFA","type":"small_airport","name":"Ouezzane Airport","latitude_deg":"34.793361","longitude_deg":"-5.635986","elevation_ft":"571","continent":"AF","iso_country":"MA","iso_region":"MA-01","municipality":"Beni Malek","scheduled_service":"no","icao_code":"GMFA","iata_code":null,"gps_code":"GMFA","local_code":null,"home_link":null,"wikipedia_link":"https://en.wikipedia.org/wiki/Ouezzane_Airport","keywords":null},{"id":"300605","ident":"GMFB","type":"medium_airport","name":"Bouarfa Airport","latitude_deg":"32.514306","longitude_deg":"-1.983056","elevation_ft":"3630","continent":"AF","iso_country":"MA","iso_region":"MA-02","municipality":"Bouarfa","scheduled_service":"no","icao_code":"GMFB","iata_code":"UAR","gps_code":"GMFB","local_code":null,"home_link":null,"wikipedia_link":"https://en.wikipedia.org/wiki/Bouarfa_Airport","keywords":null},{"id":"3103","ident":"GMFF","type":"large_airport","name":"Fes Saïss International Airport","latitude_deg":"33.927299","longitude_deg":"-4.97796","elevation_ft":"1900","continent":"AF","iso_country":"MA","iso_region":"MA-03","municipality":"Saïss","scheduled_service":"yes","icao_code":"GMFF","iata_code":"FEZ","gps_code":"GMFF","local_code":null,"home_link":null,"wikipedia_link":"https://en.wikipedia.org/wiki/Sa%C3%AFss_Airport","keywords":null},{"id":"3104","ident":"GMFI","type":"small_airport","name":"Ifran Airport","latitude_deg":"33.505299","longitude_deg":"-5.1529","elevation_ft":"5459","continent":"AF","iso_country":"MA","iso_region":"MA-03","municipality":"Ifran","scheduled_service":"no","icao_code":"GMFI","iata_code":null,"gps_code":"GMFI","local_code":null,"home_link":null,"wikipedia_link":"https://en.wikipedia.org/wiki/Ifrane_Airport","keywords":null},{"id":"3105","ident":"GMFK","type":"medium_airport","name":"Moulay Ali Cherif Airport","latitude_deg":"31.9475002289","longitude_deg":"-4.39833021164","elevation_ft":"3428","continent":"AF","iso_country":"MA","iso_region":"MA-08","municipality":"Errachidia","scheduled_service":"yes","icao_code":"GMFK","iata_code":"ERH","gps_code":"GMFK","local_code":null,"home_link":null,"wikipedia_link":"https://en.wikipedia.org/wiki/Moulay_Ali_Cherif_Airport","keywords":null},{"id":"3106","ident":"GMFM","type":"medium_airport","name":"Bassatine Airport","latitude_deg":"33.879101","longitude_deg":"-5.51512","elevation_ft":"1890","continent":"AF","iso_country":"MA","iso_region":"MA-03","municipality":"Meknes","scheduled_service":"no","icao_code":"GMFM","iata_code":"MEK","gps_code":"GMFM","local_code":null,"home_link":null,"wikipedia_link":"https://en.wikipedia.org/wiki/Bassatine_Air_Base","keywords":null},{"id":"3107","ident":"GMFO","type":"large_airport","name":"Oujda Angads Airport","latitude_deg":"34.789558","longitude_deg":"-1.926041","elevation_ft":"1535","continent":"AF","iso_country":"MA","iso_region":"MA-02","municipality":"Ahl Angad","scheduled_service":"yes","icao_code":"GMFO","iata_code":"OUD","gps_code":"GMFO","local_code":null,"home_link":null,"wikipedia_link":"https://en.wikipedia.org/wiki/Angads_Airport","keywords":"Oujda Airfield"},{"id":"30474","ident":"GMFZ","type":"small_airport","name":"Taza Airport","latitude_deg":"34.231887","longitude_deg":"-3.94701","elevation_ft":"1890","continent":"AF","iso_country":"MA","iso_region":"MA-03","municipality":"Taza","scheduled_service":"no","icao_code":"GMFZ","iata_code":null,"gps_code":"GMFZ","local_code":null,"home_link":null,"wikipedia_link":"https://en.wikipedia.org/wiki/Taza_Airport","keywords":null},{"id":"3108","ident":"GMMA","type":"medium_airport","name":"Smara Airport","latitude_deg":"26.731987","longitude_deg":"-11.683655","elevation_ft":"350","continent":"AF","iso_country":"EH","iso_region":"EH-U-A","municipality":"Smara","scheduled_service":"yes","icao_code":"GMMA","iata_code":"SMW","gps_code":"GMMA","local_code":null,"home_link":null,"wikipedia_link":"https://en.wikipedia.org/wiki/Smara_Airport","keywords":"GSMA, Semara, Semara Airport"},{"id":"31544","ident":"GMMB","type":"small_airport","name":"Ben Slimane Airport","latitude_deg":"33.655399","longitude_deg":"-7.22145","elevation_ft":"627","continent":"AF","iso_country":"MA","iso_region":"MA-06","municipality":"Ben Slimane","scheduled_service":"no","icao_code":"GMMB","iata_code":"GMD","gps_code":"GMMB","local_code":null,"home_link":null,"wikipedia_link":"https://en.wikipedia.org/wiki/Ben_Slimane_Airport","keywords":null},{"id":"29694","ident":"GMMD","type":"large_airport","name":"Beni Mellal Airport","latitude_deg":"32.401895","longitude_deg":"-6.315905","elevation_ft":"1694","continent":"AF","iso_country":"MA","iso_region":"MA-05","municipality":"Oulad Yaich","scheduled_service":"yes","icao_code":"GMMD","iata_code":"BEM","gps_code":"GMMD","local_code":null,"home_link":"http://ww.onda.ma","wikipedia_link":"https://en.wikipedia.org/wiki/Beni_Mellal_Airport","keywords":null},{"id":"3109","ident":"GMME","type":"large_airport","name":"Rabat-Salé Airport","latitude_deg":"34.051498","longitude_deg":"-6.75152","elevation_ft":"276","continent":"AF","iso_country":"MA","iso_region":"MA-04","municipality":"Rabat","scheduled_service":"yes","icao_code":"GMME","iata_code":"RBA","gps_code":"GMME","local_code":null,"home_link":"https://www.onda.ma/en/Our-Airports/Rabat-Sale-Airport","wikipedia_link":"https://en.wikipedia.org/wiki/Sale_Airport","keywords":null},{"id":"3110","ident":"GMMH","type":"large_airport","name":"Dakhla Airport","latitude_deg":"23.7183","longitude_deg":"-15.932","elevation_ft":"36","continent":"AF","iso_country":"EH","iso_region":"EH-U-A","municipality":"Dakhla","scheduled_service":"yes","icao_code":"GMMH","iata_code":"VIL","gps_code":"GMMH","local_code":null,"home_link":null,"wikipedia_link":"https://en.wikipedia.org/wiki/Dakhla_Airport","keywords":"GSVO, Villa Cisneros, Dajla, Oued Ed-Dahab"},{"id":"3111","ident":"GMMI","type":"medium_airport","name":"Essaouira-Mogador Airport","latitude_deg":"31.397499","longitude_deg":"-9.68167","elevation_ft":"384","continent":"AF","iso_country":"MA","iso_region":"MA-07","municipality":"Essaouira","scheduled_service":"yes","icao_code":"GMMI","iata_code":"ESU","gps_code":"GMMI","local_code":null,"home_link":null,"wikipedia_link":"https://en.wikipedia.org/wiki/Essaouira-Mogador_Airport","keywords":null},{"id":"3112","ident":"GMML","type":"large_airport","name":"Laayoune Hassan I International Airport","latitude_deg":"27.142467","longitude_deg":"-13.224947","elevation_ft":"207","continent":"AF","iso_country":"EH","iso_region":"EH-U-A","municipality":"El Aaiún","scheduled_service":"yes","icao_code":"GMML","iata_code":"EUN","gps_code":"GMML","local_code":null,"home_link":null,"wikipedia_link":"https://en.wikipedia.org/wiki/Hassan_Airport","keywords":"GSAI, Laâyoune"},{"id":"3113","ident":"GMMN","type":"large_airport","name":"Mohammed V International Airport","latitude_deg":"33.3675","longitude_deg":"-7.58997","elevation_ft":"656","continent":"AF","iso_country":"MA","iso_region":"MA-06","municipality":"Casablanca","scheduled_service":"yes","icao_code":"GMMN","iata_code":"CMN","gps_code":"GMMN","local_code":null,"home_link":"https://www.aeroportcasablanca.ma/en/Our-Airports/Casablanca-Mohammed-V-Airport","wikipedia_link":"https://en.wikipedia.org/wiki/Mohammed_V_International_Airport","keywords":"CAS, Casabianca, Nouasseur"},{"id":"30472","ident":"GMMO","type":"small_airport","name":"Taroudant Airport","latitude_deg":"30.503487","longitude_deg":"-8.821549","elevation_ft":"869","continent":"AF","iso_country":"MA","iso_region":"MA-09","municipality":"Taroudant","scheduled_service":"no","icao_code":"GMMO","iata_code":null,"gps_code":"GMMO","local_code":null,"home_link":null,"wikipedia_link":"https://en.m.wikipedia.org/wiki/Taroudannt_Airport","keywords":null},{"id":"29759","ident":"GMMT","type":"small_airport","name":"Casablanca Tit Mellil Airport","latitude_deg":"33.5975","longitude_deg":"-7.465","elevation_ft":"322","continent":"AF","iso_country":"MA","iso_region":"MA-06","municipality":"Casablanca","scheduled_service":"no","icao_code":null,"iata_code":null,"gps_code":"GMMT","local_code":null,"home_link":null,"wikipedia_link":"https://en.wikipedia.org/wiki/Casablanca_Tit_Mellil_Airport","keywords":null},{"id":"3114","ident":"GMMW","type":"large_airport","name":"Nador Al Aaroui International Airport","latitude_deg":"34.9888","longitude_deg":"-3.02821","elevation_ft":"574","continent":"AF","iso_country":"MA","iso_region":"MA-02","municipality":"Al Aaroui","scheduled_service":"yes","icao_code":"GMMW","iata_code":"NDR","gps_code":"GMMW","local_code":null,"home_link":null,"wikipedia_link":"https://en.wikipedia.org/wiki/Nador_International_Airport","keywords":"Al Aroui International Airport, Arwi"},{"id":"3115","ident":"GMMX","type":"large_airport","name":"Marrakesh Menara Airport","latitude_deg":"31.604807","longitude_deg":"-8.035788","elevation_ft":"1545","continent":"AF","iso_country":"MA","iso_region":"MA-07","municipality":"Marrakesh","scheduled_service":"yes","icao_code":"GMMX","iata_code":"RAK","gps_code":"GMMX","local_code":null,"home_link":null,"wikipedia_link":"https://en.wikipedia.org/wiki/Menara_International_Airport","keywords":"Marakesh, Marrakesh"},{"id":"3116","ident":"GMMY","type":"medium_airport","name":"Kenitra Air Base","latitude_deg":"34.298901","longitude_deg":"-6.59588","elevation_ft":"16","continent":"AF","iso_country":"MA","iso_region":"MA-04","municipality":"Kenitra","scheduled_service":"no","icao_code":"GMMP","iata_code":"NNA","gps_code":"GMMP","local_code":null,"home_link":null,"wikipedia_link":"https://en.wikipedia.org/wiki/Kenitra_Air_Base","keywords":"GMMY, Craw Field, Naval Air Station Port Lyautey"},{"id":"3117","ident":"GMMZ","type":"large_airport","name":"Ouarzazate International Airport","latitude_deg":"30.9391","longitude_deg":"-6.90943","elevation_ft":"3782","continent":"AF","iso_country":"MA","iso_region":"MA-08","municipality":"Ouarzazate","scheduled_service":"yes","icao_code":"GMMZ","iata_code":"OZZ","gps_code":"GMMZ","local_code":null,"home_link":null,"wikipedia_link":"https://en.wikipedia.org/wiki/Ouarzazate_Airport","keywords":null},