[{"id":"25282","ident":"UT39","type":"heliport","name":"A A Helicopters Inc Heliport","latitude_deg":"40.859211","longitude_deg":"-111.935141","elevation_ft":"4234","continent":"NA","iso_country":"US","iso_region":"US-UT","municipality":"North Salt Lake","scheduled_service":"no","icao_code":null,"iata_code":null,"gps_code":"UT39","local_code":"UT39","home_link":null,"wikipedia_link":null,"keywords":null},{"id":"25284","ident":"UT41","type":"small_airport","name":"Glenmar Ranch Airport","latitude_deg":"40.33940124511719","longitude_deg":"-111.9990005493164","elevation_ft":"5030","continent":"NA","iso_country":"US","iso_region":"US-UT","municipality":"Cedar Fort","scheduled_service":"no","icao_code":null,"iata_code":null,"gps_code":"UT41","local_code":"UT41","home_link":null,"wikipedia_link":null,"keywords":null},{"id":"25285","ident":"UT42","type":"small_airport","name":"Westwater Airport","latitude_deg":"39.14670181274414","longitude_deg":"-109.1449966430664","elevation_ft":"4660","continent":"NA","iso_country":"US","iso_region":"US-UT","municipality":"Cisco","scheduled_service":"no","icao_code":null,"iata_code":null,"gps_code":"UT42","local_code":"UT42","home_link":null,"wikipedia_link":null,"keywords":null},{"id":"25286","ident":"UT43","type":"small_airport","name":"Citabriair Airport","latitude_deg":"37.63610076904297","longitude_deg":"-113.24700164794922","elevation_ft":"5600","continent":"NA","iso_country":"US","iso_region":"US-UT","municipality":"Kanarraville","scheduled_service":"no","icao_code":null,"iata_code":null,"gps_code":"UT43","local_code":"UT43","home_link":null,"wikipedia_link":null,"keywords":null},{"id":"25287","ident":"UT44","type":"heliport","name":"Davis Hospital & Medical Center Heliport","latitude_deg":"41.09183","longitude_deg":"-111.99592","elevation_ft":"4300","continent":"NA","iso_country":"US","iso_region":"US-UT","municipality":"Layton","scheduled_service":"no","icao_code":null,"iata_code":null,"gps_code":"UT44","local_code":"UT44","home_link":null,"wikipedia_link":null,"keywords":null},{"id":"25288","ident":"UT45","type":"heliport","name":"State Capitol Helicopter Landing Site Heliport","latitude_deg":"40.77688217163086","longitude_deg":"-111.88691711425781","elevation_ft":"4350","continent":"NA","iso_country":"US","iso_region":"US-UT","municipality":"Salt Lake City","scheduled_service":"no","icao_code":null,"iata_code":null,"gps_code":"UT45","local_code":"UT45","home_link":null,"wikipedia_link":null,"keywords":null},{"id":"25289","ident":"UT46","type":"heliport","name":"Tooele Army Depot /South Area/ Heliport","latitude_deg":"40.317444","longitude_deg":"-112.308559","elevation_ft":"5355","continent":"NA","iso_country":"US","iso_region":"US-UT","municipality":"Tooele","scheduled_service":"no","icao_code":null,"iata_code":null,"gps_code":"UT46","local_code":"UT46","home_link":null,"wikipedia_link":null,"keywords":null},{"id":"25290","ident":"UT47","type":"small_airport","name":"Grassy Meadows/Sky Ranch Landowners Assn Airport","latitude_deg":"37.1018981934","longitude_deg":"-113.314002991","elevation_ft":"3350","continent":"NA","iso_country":"US","iso_region":"US-UT","municipality":"Hurricane","scheduled_service":"no","icao_code":null,"iata_code":null,"gps_code":"UT47","local_code":"UT47","home_link":null,"wikipedia_link":null,"keywords":null},{"id":"25292","ident":"UT49","type":"small_airport","name":"Desert Aviation Airport","latitude_deg":"39.45940017700195","longitude_deg":"-112.65499877929688","elevation_ft":"4589","continent":"NA","iso_country":"US","iso_region":"US-UT","municipality":"Delta","scheduled_service":"no","icao_code":null,"iata_code":null,"gps_code":"UT49","local_code":"UT49","home_link":null,"wikipedia_link":null,"keywords":null},{"id":"25294","ident":"UT51","type":"heliport","name":"Utah Valley Regional Medical Center Heliport","latitude_deg":"40.24800109863281","longitude_deg":"-111.66600036621094","elevation_ft":"4590","continent":"NA","iso_country":"US","iso_region":"US-UT","municipality":"Provo","scheduled_service":"no","icao_code":null,"iata_code":null,"gps_code":"UT51","local_code":"UT51","home_link":null,"wikipedia_link":null,"keywords":null},{"id":"25295","ident":"UT52","type":"heliport","name":"Dixie Medical Center Heliport","latitude_deg":"37.098174","longitude_deg":"-113.57579","elevation_ft":"2700","continent":"NA","iso_country":"US","iso_region":"US-UT","municipality":"St George","scheduled_service":"no","icao_code":null,"iata_code":null,"gps_code":"UT52","local_code":"UT52","home_link":null,"wikipedia_link":null,"keywords":null},{"id":"25296","ident":"UT53","type":"small_airport","name":"Sky Ranch Airport","latitude_deg":"38.493843","longitude_deg":"-109.446567","elevation_ft":"4875","continent":"NA","iso_country":"US","iso_region":"US-UT","municipality":"Moab","scheduled_service":"no","icao_code":null,"iata_code":null,"gps_code":"UT53","local_code":"UT53","home_link":null,"wikipedia_link":null,"keywords":null},{"id":"25297","ident":"UT54","type":"small_airport","name":"Crystal Springs Ranch Airport","latitude_deg":"37.253299713134766","longitude_deg":"-113.33399963378906","elevation_ft":"3671","continent":"NA","iso_country":"US","iso_region":"US-UT","municipality":"Leeds","scheduled_service":"no","icao_code":null,"iata_code":null,"gps_code":"UT54","local_code":"UT54","home_link":null,"wikipedia_link":null,"keywords":null},{"id":"25298","ident":"UT55","type":"heliport","name":"LDS Hospital Heliport","latitude_deg":"40.778192","longitude_deg":"-111.879515","elevation_ft":"4729","continent":"NA","iso_country":"US","iso_region":"US-UT","municipality":"Salt Lake City","scheduled_service":"no","icao_code":null,"iata_code":null,"gps_code":"UT55","local_code":"UT55","home_link":null,"wikipedia_link":null,"keywords":null},{"id":"25299","ident":"UT56","type":"heliport","name":"American Fork Hospital Heliport","latitude_deg":"40.379671","longitude_deg":"-111.768604","elevation_ft":"4603","continent":"NA","iso_country":"US","iso_region":"US-UT","municipality":"American Fork","scheduled_service":"no","icao_code":null,"iata_code":null,"gps_code":"UT56","local_code":"UT56","home_link":null,"wikipedia_link":null,"keywords":null},{"id":"25301","ident":"UT58","type":"heliport","name":"Bonanza Power Plant Heliport","latitude_deg":"40.08219909667969","longitude_deg":"-109.29199981689453","elevation_ft":"5028","continent":"NA","iso_country":"US","iso_region":"US-UT","municipality":"Bonanza","scheduled_service":"no","icao_code":null,"iata_code":null,"gps_code":"UT58","local_code":"UT58","home_link":null,"wikipedia_link":null,"keywords":null},{"id":"25304","ident":"UT61","type":"heliport","name":"Duchesne Co. Hospital Heliport","latitude_deg":"40.33610153198242","longitude_deg":"-110.33999633789062","elevation_ft":"5182","continent":"NA","iso_country":"US","iso_region":"US-UT","municipality":"Roosevelt","scheduled_service":"no","icao_code":null,"iata_code":null,"gps_code":"UT61","local_code":"UT61","home_link":null,"wikipedia_link":null,"keywords":null},{"id":"25305","ident":"UT62","type":"heliport","name":"Department of Veterans Affairs Heliport","latitude_deg":"40.756929","longitude_deg":"-111.842119","elevation_ft":"4713","continent":"NA","iso_country":"US","iso_region":"US-UT","municipality":"Salt Lake City","scheduled_service":"no","icao_code":null,"iata_code":null,"gps_code":null,"local_code":null,"home_link":null,"wikipedia_link":null,"keywords":"UT62"},{"id":"25306","ident":"UT63","type":"heliport","name":"Alta View Hospital Heliport","latitude_deg":"40.57780075073242","longitude_deg":"-111.85399627685547","elevation_ft":"4660","continent":"NA","iso_country":"US","iso_region":"US-UT","municipality":"Sandy","scheduled_service":"no","icao_code":null,"iata_code":null,"gps_code":"UT63","local_code":"UT63","home_link":null,"wikipedia_link":null,"keywords":null},{"id":"25307","ident":"UT64","type":"heliport","name":"St. Marks Hospital Heliport","latitude_deg":"40.686152","longitude_deg":"-111.856205","elevation_ft":"4315","continent":"NA","iso_country":"US","iso_region":"US-UT","municipality":"Salt Lake City","scheduled_service":"no","icao_code":null,"iata_code":null,"gps_code":"UT64","local_code":"UT64","home_link":null,"wikipedia_link":null,"keywords":null},{"id":"25308","ident":"UT65","type":"small_airport","name":"Goshute Airport","latitude_deg":"39.99800109863281","longitude_deg":"-113.97699737548828","elevation_ft":"5460","continent":"NA","iso_country":"US","iso_region":"US-UT","municipality":"Ibapah","scheduled_service":"no","icao_code":null,"iata_code":null,"gps_code":"UT65","local_code":"UT65","home_link":null,"wikipedia_link":null,"keywords":null},{"id":"25309","ident":"UT66","type":"heliport","name":"Ward Heliport","latitude_deg":"40.59989929199219","longitude_deg":"-111.8010025024414","elevation_ft":"5000","continent":"NA","iso_country":"US","iso_region":"US-UT","municipality":"Sandy","scheduled_service":"no","icao_code":null,"iata_code":null,"gps_code":"UT66","local_code":"UT66","home_link":null,"wikipedia_link":null,"keywords":null},{"id":"25310","ident":"UT67","type":"small_airport","name":"Paradise Air Park","latitude_deg":"40.44110107421875","longitude_deg":"-109.84700012207031","elevation_ft":"5700","continent":"NA","iso_country":"US","iso_region":"US-UT","municipality":"Tridell","scheduled_service":"no","icao_code":null,"iata_code":null,"gps_code":"UT67","local_code":"UT67","home_link":null,"wikipedia_link":null,"keywords":null},{"id":"25312","ident":"UT69","type":"small_airport","name":"Pelican Lake Airport","latitude_deg":"40.181400299072266","longitude_deg":"-109.6719970703125","elevation_ft":"4815","continent":"NA","iso_country":"US","iso_region":"US-UT","municipality":"Randlett","scheduled_service":"no","icao_code":null,"iata_code":null,"gps_code":"UT69","local_code":"UT69","home_link":null,"wikipedia_link":null,"keywords":null},{"id":"25314","ident":"UT71","type":"heliport","name":"Tooele Valley Hospital Heliport","latitude_deg":"40.524898529052734","longitude_deg":"-112.29399871826172","elevation_ft":"5100","continent":"NA","iso_country":"US","iso_region":"US-UT","municipality":"Tooele","scheduled_service":"no","icao_code":null,"iata_code":null,"gps_code":"UT71","local_code":"UT71","home_link":null,"wikipedia_link":null,"keywords":null},{"id":"25315","ident":"UT72","type":"heliport","name":"Two Jays #2 Heliport","latitude_deg":"38.584352","longitude_deg":"-109.566789","elevation_ft":"4200","continent":"NA","iso_country":"US","iso_region":"US-UT","municipality":"Moab","scheduled_service":"no","icao_code":null,"iata_code":null,"gps_code":"UT72","local_code":"UT72","home_link":null,"wikipedia_link":null,"keywords":null},{"id":"25317","ident":"UT74","type":"small_airport","name":"Fry Canyon Field","latitude_deg":"37.6483","longitude_deg":"-110.167","elevation_ft":"5372","continent":"NA","iso_country":"US","iso_region":"US-UT","municipality":"Hite","scheduled_service":"no","icao_code":null,"iata_code":null,"gps_code":"UT74","local_code":"UT74","home_link":null,"wikipedia_link":null,"keywords":null},{"id":"25318","ident":"UT75","type":"small_airport","name":"Mineral Canyon Strip","latitude_deg":"38.531583177899996","longitude_deg":"-109.995889664","elevation_ft":"3900","continent":"NA","iso_country":"US","iso_region":"US-UT","municipality":"Moab","scheduled_service":"no","icao_code":null,"iata_code":null,"gps_code":"UT75","local_code":"UT75","home_link":null,"wikipedia_link":null,"keywords":null},{"id":"25321","ident":"UT78","type":"heliport","name":"Timpanogos Regional Hospital Heliport","latitude_deg":"40.312933","longitude_deg":"-111.714455","elevation_ft":"4735","continent":"NA","iso_country":"US","iso_region":"US-UT","municipality":"Orem","scheduled_service":"no","icao_code":null,"iata_code":null,"gps_code":"UT78","local_code":"UT78","home_link":null,"wikipedia_link":null,"keywords":null},{"id":"25322","ident":"UT79","type":"small_airport","name":"3-I Rocker Ranch Airport","latitude_deg":"40.41559982299805","longitude_deg":"-109.34400177001953","elevation_ft":"4865","continent":"NA","iso_country":"US","iso_region":"US-UT","municipality":"Jensen","scheduled_service":"no","icao_code":null,"iata_code":null,"gps_code":"UT79","local_code":"UT79","home_link":null,"wikipedia_link":null,"keywords":null},{"id":"25323","ident":"UT80","type":"small_airport","name":"Hamilton Fort Ranch Airport","latitude_deg":"37.634700775146484","longitude_deg":"-113.15899658203125","elevation_ft":"5460","continent":"NA","iso_country":"US","iso_region":"US-UT","municipality":"Cedar City","scheduled_service":"no","icao_code":null,"iata_code":null,"gps_code":"UT80","local_code":"UT80","home_link":null,"wikipedia_link":null,"keywords":null},{"id":"25324","ident":"UT81","type":"heliport","name":"Blanding Ambulance Heliport","latitude_deg":"37.63560104370117","longitude_deg":"-109.48400115966797","elevation_ft":"5900","continent":"NA","iso_country":"US","iso_region":"US-UT","municipality":"Blanding","scheduled_service":"no","icao_code":null,"iata_code":null,"gps_code":"UT81","local_code":"UT81","home_link":null,"wikipedia_link":null,"keywords":null},{"id":"25325","ident":"UT82","type":"small_airport","name":"Beryl Junction Airport","latitude_deg":"37.709999084472656","longitude_deg":"-113.64600372314453","elevation_ft":"5181","continent":"NA","iso_country":"US","iso_region":"US-UT","municipality":"Beryl","scheduled_service":"no","icao_code":null,"iata_code":null,"gps_code":"UT82","local_code":"UT82","home_link":null,"wikipedia_link":null,"keywords":null},{"id":"25326","ident":"UT83","type":"small_airport","name":"Thunder Ridge Airpark","latitude_deg":"40.263806","longitude_deg":"-110.865183","elevation_ft":"7050","continent":"NA","iso_country":"US","iso_region":"US-UT","municipality":"Fruitland","scheduled_service":"no","icao_code":null,"iata_code":null,"gps_code":"UT83","local_code":"UT83","home_link":null,"wikipedia_link":null,"keywords":null},{"id":"25327","ident":"UT84","type":"heliport","name":"Skaggs Heliport","latitude_deg":"40.68830108642578","longitude_deg":"-111.89199829101562","elevation_ft":"4289","continent":"NA","iso_country":"US","iso_region":"US-UT","municipality":"South Salt Lake City","scheduled_service":"no","icao_code":null,"iata_code":null,"gps_code":"UT84","local_code":"UT84","home_link":null,"wikipedia_link":null,"keywords":null},{"id":"45862","ident":"UT85","type":"heliport","name":"Cirque Lodge Studio Heliport","latitude_deg":"40.311547","longitude_deg":"-111.66568","elevation_ft":"4860","continent":"NA","iso_country":"US","iso_region":"US-UT","municipality":"Orem","scheduled_service":"no","icao_code":null,"iata_code":null,"gps_code":"UT85","local_code":"UT85","home_link":null,"wikipedia_link":null,"keywords":null},{"id":"45865","ident":"UT86","type":"heliport","name":"Miller Motorsports Park Heliport","latitude_deg":"40.583624","longitude_deg":"-112.383013","elevation_ft":"4403","continent":"NA","iso_country":"US","iso_region":"US-UT","municipality":"Tooele","scheduled_service":"no","icao_code":null,"iata_code":null,"gps_code":"UT86","local_code":"UT86","home_link":null,"wikipedia_link":null,"keywords":null},{"id":"45864","ident":"UT87","type":"heliport","name":"Jordan Valley Hospital Heliport","latitude_deg":"40.591144","longitude_deg":"-111.976341","elevation_ft":"4590","continent":"NA","iso_country":"US","iso_region":"US-UT","municipality":"West Jordan","scheduled_service":"no","icao_code":null,"iata_code":null,"gps_code":"UT87","local_code":"UT87","home_link":null,"wikipedia_link":null,"keywords":null},{"id":"351328","ident":"UT89","type":"small_airport","name":"Cold Water Airport","latitude_deg":"41.681612","longitude_deg":"-111.98181","elevation_ft":"4926","continent":"NA","iso_country":"US","iso_region":"US-UT","municipality":"Mendon","scheduled_service":"no","icao_code":null,"iata_code":null,"gps_code":"UT89","local_code":"UT89","home_link":null,"wikipedia_link":null,"keywords":null},{"id":"324447","ident":"UT90","type":"small_airport","name":"CAVOK Ranch Airport","latitude_deg":"41.585369","longitude_deg":"-111.9037","elevation_ft":"5155","continent":"NA","iso_country":"US","iso_region":"US-UT","municipality":"Wellsville","scheduled_service":"no","icao_code":null,"iata_code":null,"gps_code":"UT90","local_code":"UT90","home_link":null,"wikipedia_link":null,"keywords":null},{"id":"355690","ident":"UT92","type":"heliport","name":"UBMC Vernal Helipad 1","latitude_deg":"40.462114","longitude_deg":"-109.540625","elevation_ft":"5371","continent":"NA","iso_country":"US","iso_region":"US-UT","municipality":"Vernal","scheduled_service":"no","icao_code":null,"iata_code":null,"gps_code":"UT92","local_code":"UT92","home_link":null,"wikipedia_link":null,"keywords":null},{"id":"524208","ident":"UT95","type":"heliport","name":"St. Mark's Hospital Helipad","latitude_deg":"40.68644","longitude_deg":"-111.856627","elevation_ft":"4498","continent":"NA","iso_country":"US","iso_region":"US-UT","municipality":"Millcreek","scheduled_service":"no","icao_code":null,"iata_code":null,"gps_code":"UT95","local_code":"UT95","home_link":null,"wikipedia_link":null,"keywords":null},{"id":"25328","ident":"UT97","type":"small_airport","name":"Happy Canyon Airport","latitude_deg":"38.15719985961914","longitude_deg":"-110.29199981689453","elevation_ft":"4934","continent":"NA","iso_country":"US","iso_region":"US-UT","municipality":"Happy Canyon","scheduled_service":"no","icao_code":null,"iata_code":null,"gps_code":"UT97","local_code":"UT97","home_link":null,"wikipedia_link":null,"keywords":null},{"id":"25329","ident":"UT98","type":"heliport","name":"Redwood Health Center Heliport","latitude_deg":"40.72560119628906","longitude_deg":"-111.93399810791016","elevation_ft":"4258","continent":"NA","iso_country":"US","iso_region":"US-UT","municipality":"Salt Lake City","scheduled_service":"no","icao_code":null,"iata_code":null,"gps_code":"UT98","local_code":"UT98","home_link":null,"wikipedia_link":null,"keywords":null},{"id":"25330","ident":"UT99","type":"small_airport","name":"West Desert Airpark","latitude_deg":"40.243268","longitude_deg":"-112.092018","elevation_ft":"4890","continent":"NA","iso_country":"US","iso_region":"US-UT","municipality":"Fairfield","scheduled_service":"no","icao_code":null,"iata_code":null,"gps_code":"KUT9","local_code":"UT9","home_link":null,"wikipedia_link":null,"keywords":"UT99, Cedar Valley"},{"id":"26380","ident":"UTAA","type":"large_airport","name":"Ashgabat International Airport","latitude_deg":"37.986801","longitude_deg":"58.361","elevation_ft":"692","continent":"AS","iso_country":"TM","iso_region":"TM-S","municipality":"Ashgabat","scheduled_service":"yes","icao_code":"UTAA","iata_code":"ASB","gps_code":"UTAA","local_code":null,"home_link":null,"wikipedia_link":"https://en.wikipedia.org/wiki/Ashgabat_International_Airport","keywords":"Saparmurat Turkmenbashy International Airport"},{"id":"6396","ident":"UTAE","type":"small_airport","name":"Kerki Airport","latitude_deg":"37.822051","longitude_deg":"65.135279","elevation_ft":"770","continent":"AS","iso_country":"TM","iso_region":"TM-L","municipality":"Kerki","scheduled_service":"no","icao_code":"UTAE","iata_code":"KEA","gps_code":"UTAE","local_code":null,"home_link":"https://caa.gov.tm/en/item/227","wikipedia_link":"https://en.wikipedia.org/wiki/Kerki_Airport","keywords":"UT51, Kerkiçi"},{"id":"26381","ident":"UTAK","type":"medium_airport","name":"Turkmenbaşy International Airport","latitude_deg":"40.062833","longitude_deg":"53.005085","elevation_ft":"279","continent":"AS","iso_country":"TM","iso_region":"TM-B","municipality":"Turkmenbaşy","scheduled_service":"yes","icao_code":"UTAK","iata_code":"KRW","gps_code":"UTAK","local_code":null,"home_link":"https://turkmenbashiairport.gov.tm/","wikipedia_link":"https://en.wikipedia.org/wiki/Turkmenbashi_International_Airport","keywords":"Turkmenbashi, Krasnovodsk, Красноводск"},{"id":"26382","ident":"UTAM","type":"medium_airport","name":"Mary International Airport","latitude_deg":"37.62353","longitude_deg":"61.895668","elevation_ft":"728","continent":"AS","iso_country":"TM","iso_region":"TM-M","municipality":"Mary","scheduled_service":"yes","icao_code":"UTAM","iata_code":"MYP","gps_code":"UTAM","local_code":null,"home_link":"https://www.maryairport.gov.tm/","wikipedia_link":"https://en.wikipedia.org/wiki/Mary_International_Airport","keywords":null},{"id":"26383","ident":"UTAT","type":"large_airport","name":"Dashoguz International Airport","latitude_deg":"41.759853","longitude_deg":"59.836149","elevation_ft":"272","continent":"AS","iso_country":"TM","iso_region":"TM-D","municipality":"Daşoguz","scheduled_service":"yes","icao_code":"UTAT","iata_code":"TAZ","gps_code":"UTAT","local_code":null,"home_link":"https://dashoguzairport.gov.tm/","wikipedia_link":"https://en.wikipedia.org/wiki/Da%C5%9Foguz_Airport","keywords":"Tashauz Airport, Dashkhovuz, Dashhowuz, Daşoguz, Dasoguz, Дашогуз"},{"id":"26384","ident":"UTAV","type":"large_airport","name":"Türkmenabat International Airport","latitude_deg":"38.930662","longitude_deg":"63.563982","elevation_ft":"649","continent":"AS","iso_country":"TM","iso_region":"TM-L","municipality":"Türkmenabat","scheduled_service":"yes","icao_code":"UTAV","iata_code":"CRZ","gps_code":"UTAV","local_code":null,"home_link":null,"wikipedia_link":"https://en.wikipedia.org/wiki/Turkmenabat_International_Airport","keywords":"Turkmenabad Airport, Chardzhou Airport, Аэропорт Туркменабат, Аэропорт Туркменабад, Аэропорт Чарджоу, چهارجوی"},{"id":"26385","ident":"UTDD","type":"large_airport","name":"Dushanbe International Airport","latitude_deg":"38.543746","longitude_deg":"68.822977","elevation_ft":"2575","continent":"AS","iso_country":"TJ","iso_region":"TJ-DU","municipality":"Dushanbe","scheduled_service":"yes","icao_code":"UTDD","iata_code":"DYU","gps_code":"UTDD","local_code":null,"home_link":"https://airport.tj/index.php/en","wikipedia_link":"https://en.wikipedia.org/wiki/Dushanbe_International_Airport","keywords":null},{"id":"6377","ident":"UTDK","type":"large_airport","name":"Kulob International Airport","latitude_deg":"37.988098","longitude_deg":"69.805","elevation_ft":"2293","continent":"AS","iso_country":"TJ","iso_region":"TJ-KT","municipality":"Kulob","scheduled_service":"yes","icao_code":"UTDK","iata_code":"TJU","gps_code":"UTDK","local_code":null,"home_link":"https://airport-kulob.tj/en","wikipedia_link":"https://en.wikipedia.org/wiki/Kulob_International_Airport","keywords":"Kuylab"},{"id":"26386","ident":"UTDL","type":"large_airport","name":"Khujand International Airport","latitude_deg":"40.215401","longitude_deg":"69.694702","elevation_ft":"1450","continent":"AS","iso_country":"TJ","iso_region":"TJ-SU","municipality":"Khujand","scheduled_service":"yes","icao_code":"UTDL","iata_code":"LBD","gps_code":"UTDL","local_code":null,"home_link":null,"wikipedia_link":"https://en.wikipedia.org/wiki/Khudzhand_Airport","keywords":"Khodjend, Khodzhent, Leninabad, Khudzhand"},{"id":"32556","ident":"UTDT","type":"large_airport","name":"Bokhtar International Airport","latitude_deg":"37.866315","longitude_deg":"68.864475","elevation_ft":"1473","continent":"AS","iso_country":"TJ","iso_region":"TJ-KT","municipality":"Bokhtar","scheduled_service":"yes","icao_code":"UTDT","iata_code":"KQT","gps_code":"UTDT","local_code":null,"home_link":null,"wikipedia_link":"https://en.wikipedia.org/wiki/Bokhtar_International_Airport","keywords":"Kurgan-Tube, Qurghonteppa"},{"id":"32038","ident":"UTFN","type":"large_airport","name":"Namangan International Airport","latitude_deg":"40.984622","longitude_deg":"71.5578","elevation_ft":"1555","continent":"AS","iso_country":"UZ","iso_region":"UZ-NG","municipality":"Namangan","scheduled_service":"yes","icao_code":"UZFN","iata_code":"NMA","gps_code":"UZFN","local_code":null,"home_link":null,"wikipedia_link":"https://en.wikipedia.org/wiki/Namangan_Airport","keywords":"UTFN, UTKN"},{"id":"30672","ident":"UTKA","type":"medium_airport","name":"Andijan International Airport","latitude_deg":"40.727699","longitude_deg":"72.293999","elevation_ft":"1515","continent":"AS","iso_country":"UZ","iso_region":"UZ-AN","municipality":"Andijan","scheduled_service":"yes","icao_code":"UZFA","iata_code":"AZN","gps_code":"UZFA","local_code":null,"home_link":null,"wikipedia_link":"https://en.wikipedia.org/wiki/Andizhan_Airport","keywords":"UTFA, UTKA, Andijan Airport, Andizhan Airport, Andijon Airport"},{"id":"31118","ident":"UTKF","type":"medium_airport","name":"Fergana International Airport","latitude_deg":"40.358799","longitude_deg":"71.745003","elevation_ft":"1980","continent":"AS","iso_country":"UZ","iso_region":"UZ-FA","municipality":"Fergana","scheduled_service":"yes","icao_code":"UZFF","iata_code":"FEG","gps_code":"UZFF","local_code":null,"home_link":null,"wikipedia_link":"https://en.wikipedia.org/wiki/Fergana_International_Airport","keywords":"UTFF, UTKF"},{"id":"41794","ident":"UTKK","type":"small_airport","name":"Kokand Airport","latitude_deg":"40.447781","longitude_deg":"70.991149","elevation_ft":"1357","continent":"AS","iso_country":"UZ","iso_region":"UZ-FA","municipality":"Kokand","scheduled_service":"no","icao_code":"UZKK","iata_code":"OQN","gps_code":"UZKK","local_code":null,"home_link":null,"wikipedia_link":null,"keywords":"UTKK, Kokand South"},{"id":"32558","ident":"UTNM","type":"small_airport","name":"Muynak Airport","latitude_deg":"43.753636","longitude_deg":"59.029884","elevation_ft":"177","continent":"AS","iso_country":"UZ","iso_region":"UZ-QR","municipality":"Muynak","scheduled_service":"no","icao_code":"UZNM","iata_code":"MOK","gps_code":"UZNM","local_code":null,"home_link":null,"wikipedia_link":"https://en.wikipedia.org/wiki/Muynak_Airport","keywords":"UTMM"},{"id":"32013","ident":"UTNN","type":"large_airport","name":"Nukus International Airport","latitude_deg":"42.4884","longitude_deg":"59.623299","elevation_ft":"246","continent":"AS","iso_country":"UZ","iso_region":"UZ-QR","municipality":"Nukus","scheduled_service":"yes","icao_code":"UZNN","iata_code":"NCU","gps_code":"UZNN","local_code":null,"home_link":null,"wikipedia_link":"https://en.m.wikipedia.org/wiki/Nukus_Airport","keywords":"Nokis, UTNN"},{"id":"32559","ident":"UTNT","type":"closed","name":"Turtkul Airport","latitude_deg":"41.57487","longitude_deg":"60.966335","elevation_ft":"305","continent":"AS","iso_country":"UZ","iso_region":"UZ-QR","municipality":"Turtkul","scheduled_service":"no","icao_code":null,"iata_code":null,"gps_code":null,"local_code":null,"home_link":null,"wikipedia_link":null,"keywords":"UTNT"},{"id":"26387","ident":"UTNU","type":"large_airport","name":"Urgench International Airport","latitude_deg":"41.58274","longitude_deg":"60.64338","elevation_ft":"320","continent":"AS","iso_country":"UZ","iso_region":"UZ-XO","municipality":"Urgench","scheduled_service":"yes","icao_code":"UZNU","iata_code":"UGC","gps_code":"UZNU","local_code":null,"home_link":null,"wikipedia_link":"https://en.wikipedia.org/wiki/Urgench_Airport","keywords":"UTNU"},{"id":"32561","ident":"UTSA","type":"medium_airport","name":"Navoi International Airport","latitude_deg":"40.117599","longitude_deg":"65.172658","elevation_ft":"1140","continent":"AS","iso_country":"UZ","iso_region":"UZ-NW","municipality":"Navoi","scheduled_service":"yes","icao_code":"UZSA","iata_code":"NVI","gps_code":"UZSA","local_code":null,"home_link":null,"wikipedia_link":"https://en.wikipedia.org/wiki/Navoi_International_Airport","keywords":"UTSA"},{"id":"26388","ident":"UTSB","type":"large_airport","name":"Bukhara International Airport","latitude_deg":"39.775319","longitude_deg":"64.482279","elevation_ft":"751","continent":"AS","iso_country":"UZ","iso_region":"UZ-BU","municipality":"Bukhara","scheduled_service":"yes","icao_code":"UZSB","iata_code":"BHK","gps_code":"UZSB","local_code":null,"home_link":null,"wikipedia_link":"https://en.wikipedia.org/wiki/Bukhara_International_Airport","keywords":"UTSB, Buhara, Buxoro"},{"id":"41812","ident":"UTSH","type":"small_airport","name":"Shahrisabz Airport","latitude_deg":"39.068003","longitude_deg":"66.758388","elevation_ft":"1900","continent":"AS","iso_country":"UZ","iso_region":"UZ-QA","municipality":"Shahrisabz","scheduled_service":"no","icao_code":"UZSH","iata_code":null,"gps_code":"UZSH","local_code":null,"home_link":null,"wikipedia_link":null,"keywords":"UTSH"},{"id":"26417","ident":"UTSK","type":"small_airport","name":"Karshi Airport","latitude_deg":"38.802246","longitude_deg":"65.773068","elevation_ft":"1230","continent":"AS","iso_country":"UZ","iso_region":"UZ-QA","municipality":"Karshi","scheduled_service":"yes","icao_code":"UZSK","iata_code":"KSQ","gps_code":"UZSK","local_code":"UT1N","home_link":null,"wikipedia_link":"https://en.wikipedia.org/wiki/Karshi_Airport","keywords":"Qarshi Airport, UTSK"},{"id":"26389","ident":"UTSL","type":"small_airport","name":"Karshi-Khanabad Air Base","latitude_deg":"38.833599","longitude_deg":"65.921501","elevation_ft":"1365","continent":"AS","iso_country":"UZ","iso_region":"UZ-QA","municipality":"Khanabad","scheduled_service":"no","icao_code":"UZSL","iata_code":null,"gps_code":"UZSL","local_code":null,"home_link":null,"wikipedia_link":"https://en.wikipedia.org/wiki/Karshi-Khanabad_Air_Base","keywords":"UTSL, K2 Air Base, Qarshi Khanabad Airport"},{"id":"41821","ident":"UTSM","type":"small_airport","name":"Tandy Bulak Airport","latitude_deg":"41.76217","longitude_deg":"64.600304","elevation_ft":"716","continent":"AS","iso_country":"UZ","iso_region":"UZ-NW","municipality":"Tandy Bulak","scheduled_service":"no","icao_code":"UZSM","iata_code":null,"gps_code":"UZSM","local_code":null,"home_link":null,"wikipedia_link":null,"keywords":"UTSM"},{"id":"41685","ident":"UTSN","type":"small_airport","name":"Sugraly Airport","latitude_deg":"41.613795","longitude_deg":"64.232963","elevation_ft":"1396","continent":"AS","iso_country":"UZ","iso_region":"UZ-NW","municipality":"Zarafshan","scheduled_service":"no","icao_code":"UZSN","iata_code":"AFS","gps_code":"UZSN","local_code":null,"home_link":null,"wikipedia_link":"https://en.wikipedia.org/wiki/Zarafshan_Airport","keywords":"UTSN, UT76, Zarafshon"},{"id":"41686","ident":"UTSR","type":"small_airport","name":"Sariasiya Airport","latitude_deg":"38.408006","longitude_deg":"67.94502","elevation_ft":"1949","continent":"AS","iso_country":"UZ","iso_region":"UZ-SU","municipality":"Sariasiya","scheduled_service":"no","icao_code":"UZSR","iata_code":null,"gps_code":"UZSR","local_code":null,"home_link":null,"wikipedia_link":null,"keywords":"UTSR"},{"id":"26390","ident":"UTSS","type":"large_airport","name":"Samarkand International Airport","latitude_deg":"39.701842","longitude_deg":"66.981467","elevation_ft":"2224","continent":"AS","iso_country":"UZ","iso_region":"UZ-SA","municipality":"Samarkand","scheduled_service":"yes","icao_code":"UZSS","iata_code":"SKD","gps_code":"UZSS","local_code":null,"home_link":null,"wikipedia_link":"https://en.wikipedia.org/wiki/Samarkand_Airport","keywords":"UTSS"},{"id":"26391","ident":"UTST","type":"medium_airport","name":"Termez Airport","latitude_deg":"37.287261","longitude_deg":"67.311869","elevation_ft":"1027","continent":"AS","iso_country":"UZ","iso_region":"UZ-SU","municipality":"Termez","scheduled_service":"yes","icao_code":"UZST","iata_code":"TMJ","gps_code":"UZST","local_code":null,"home_link":null,"wikipedia_link":"https://en.wikipedia.org/wiki/Termez_Airport","keywords":"UTST"},{"id":"32562","ident":"UTSU","type":"small_airport","name":"Uchkuduk Airport","latitude_deg":"42.083099","longitude_deg":"63.449299","elevation_ft":"416","continent":"AS","iso_country":"UZ","iso_region":"UZ-NW","municipality":"Uchkuduk","scheduled_service":"no","icao_code":"UZSU","iata_code":null,"gps_code":"UZSU","local_code":null,"home_link":null,"wikipedia_link":null,"keywords":"UTSU"},{"id":"41687","ident":"UTTP","type":"medium_airport","name":"Tashkent-Khumo International Airport","latitude_deg":"41.312889","longitude_deg":"69.395535","elevation_ft":"1574","continent":"AS","iso_country":"UZ","iso_region":"UZ-TO","municipality":"Tashkent","scheduled_service":"yes","icao_code":"UZTP","iata_code":"TVT","gps_code":"UZTP","local_code":null,"home_link":null,"wikipedia_link":"https://uz.wikipedia.org/wiki/Toshkent-sharqiy_aerodromi","keywords":"Tashkent Vostochny Airport, Tashkent East, Humo"},{"id":"26392","ident":"UTTT","type":"large_airport","name":"Tashkent International Airport","latitude_deg":"41.2579","longitude_deg":"69.281197","elevation_ft":"1417","continent":"AS","iso_country":"UZ","iso_region":"UZ-TO","municipality":"Tashkent","scheduled_service":"yes","icao_code":"UZTT","iata_code":"TAS","gps_code":"UZTT","local_code":null,"home_link":null,"wikipedia_link":"https://en.wikipedia.org/wiki/Tashkent_International_Airport","keywords":"UTTT"},{"id":"598248","ident":"UTTZ","type":"medium_airport","name":"Zomin Airport","latitude_deg":"40.01402","longitude_deg":"68.41103","elevation_ft":"1760","continent":"AS","iso_country":"UZ","iso_region":"UZ-JI","municipality":"Zomin","scheduled_service":"yes","icao_code":"UZTZ","iata_code":"OMN","gps_code":"UZTZ","local_code":null,"home_link":null,"wikipedia_link":"https://en.wikipedia.org/wiki/Zomin_Airport","keywords":"UTTZ, Zaamin"},{"id":"315193","ident":"UTU","type":"small_airport","name":"Ustupu Airport","latitude_deg":"9.1283","longitude_deg":"-77.9337","elevation_ft":"9","continent":"NA","iso_country":"PA","iso_region":"PA-GY","municipality":"Ustupu","scheduled_service":"no","icao_code":null,"iata_code":"UTU","gps_code":"MPUP","local_code":null,"home_link":null,"wikipedia_link":"https://en.wikipedia.org/wiki/Ustupo_Airport","keywords":"Ustupo"},{"id":"605799","ident":"UUAE","type":"heliport","name":"Pereslavl-Zalessky Heliport","latitude_deg":"56.691653","longitude_deg":"38.842977","elevation_ft":"647","continent":"EU","iso_country":"RU","iso_region":"RU-YAR","municipality":"Pereslavl-Zalessky","scheduled_service":"no","icao_code":null,"iata_code":null,"gps_code":"UUAE","local_code":"UUAE","home_link":null,"wikipedia_link":null,"keywords":"УУАЕ, Переславль-Залесский"},{"id":"604456","ident":"UUAN","type":"heliport","name":"Gazprom Compressor Station Helipad","latitude_deg":"57.029486","longitude_deg":"35.016716","elevation_ft":"541","continent":"EU","iso_country":"RU","iso_region":"RU-TVE","municipality":"Torzhok","scheduled_service":"no","icao_code":null,"iata_code":null,"gps_code":"UUAN","local_code":null,"home_link":null,"wikipedia_link":null,"keywords":"УУАН, Торжок"},{"id":"31761","ident":"UUBA","type":"medium_airport","name":"Kostroma Sokerkino Airport","latitude_deg":"57.796902","longitude_deg":"41.019402","elevation_ft":"446","continent":"EU","iso_country":"RU","iso_region":"RU-KOS","municipality":"Kostroma","scheduled_service":"yes","icao_code":"UUBA","iata_code":"KMW","gps_code":"UUBA","local_code":null,"home_link":"http://www.kmtn.ru/~koao/","wikipedia_link":"https://en.wikipedia.org/wiki/Kostroma_Airport","keywords":"Аэропорт Кострома Сокеркино"},{"id":"42934","ident":"UUBC","type":"medium_airport","name":"Grabtsevo Airport","latitude_deg":"54.5499992371","longitude_deg":"36.3666687012","elevation_ft":"656","continent":"EU","iso_country":"RU","iso_region":"RU-KLU","municipality":"Kaluga","scheduled_service":"no","icao_code":"UUBC","iata_code":"KLF","gps_code":"UUBC","local_code":null,"home_link":null,"wikipedia_link":"https://en.wikipedia.org/wiki/Grabtsevo_Airport","keywords":"Аэропорт Грабцево"},{"id":"31690","ident":"UUBI","type":"medium_airport","name":"Ivanovo South Airport","latitude_deg":"56.93939971923828","longitude_deg":"40.940799713134766","elevation_ft":"410","continent":"EU","iso_country":"RU","iso_region":"RU-IVA","municipality":"Ivanovo","scheduled_service":"yes","icao_code":"UUBI","iata_code":"IWA","gps_code":"UUBI","local_code":null,"home_link":null,"wikipedia_link":"https://en.wikipedia.org/wiki/Ivanovo_Yuzhny_Airport","keywords":"Ivanovo Yuzhniy Airport, Ivanovo Yuzhny Airport, Аэропорт Иваново Южный"},{"id":"32241","ident":"UUBK","type":"medium_airport","name":"Staroselye Airport","latitude_deg":"58.104198","longitude_deg":"38.929401","elevation_ft":"423","continent":"EU","iso_country":"RU","iso_region":"RU-YAR","municipality":"Rybinsk","scheduled_service":"yes","icao_code":"UUBK","iata_code":"RYB","gps_code":"UUBK","local_code":null,"home_link":null,"wikipedia_link":"https://en.wikipedia.org/wiki/Staroselye_Airport","keywords":"Аэропорт Староселье, ЬУБК"},{"id":"44648","ident":"UUBN","type":"small_airport","name":"Zmeyevo Airfield","latitude_deg":"56.914691","longitude_deg":"35.935672","elevation_ft":"472","continent":"EU","iso_country":"RU","iso_region":"RU-TVE","municipality":"Tver","scheduled_service":"no","icao_code":null,"iata_code":null,"gps_code":"UUBN","local_code":null,"home_link":null,"wikipedia_link":"https://ru.wikipedia.org/wiki/%D0%97%D0%BC%D0%B5%D1%91%D0%B2%D0%BE_(%D0%B0%D1%8D%D1%80%D0%BE%D0%BF%D0%BE%D1%80%D1%82)","keywords":"Zmeevo Airport, Zmeyovo Airport, Аэропорт Змеево, Аэропорт Змеёво"},{"id":"26393","ident":"UUBP","type":"medium_airport","name":"Bryansk International Airport","latitude_deg":"53.214403","longitude_deg":"34.175965","elevation_ft":"663","continent":"EU","iso_country":"RU","iso_region":"RU-BRY","municipality":"Bryansk","scheduled_service":"yes","icao_code":"UUBP","iata_code":"BZK","gps_code":"UUBP","local_code":null,"home_link":"https://bzk.aero/","wikipedia_link":"https://en.wikipedia.org/wiki/Bryansk_International_Airport","keywords":"Аэропорт Брянск, УУБП"},{"id":"335153","ident":"UUBQ","type":"small_airport","name":"Sharya Airport","latitude_deg":"58.39282","longitude_deg":"45.554381","elevation_ft":"120","continent":"EU","iso_country":"RU","iso_region":"RU-KOS","municipality":"Sharya","scheduled_service":"no","icao_code":null,"iata_code":null,"gps_code":"UUBQ","local_code":"UUBQ","home_link":null,"wikipedia_link":null,"keywords":"УУБЯ, Шарья, Sharia"},{"id":"31838","ident":"UUBS","type":"small_airport","name":"Smolensk South Airport","latitude_deg":"54.745","longitude_deg":"32.065","elevation_ft":"820","continent":"EU","iso_country":"RU","iso_region":"RU-SMO","municipality":"Smolensk","scheduled_service":"no","icao_code":"UUBS","iata_code":null,"gps_code":"UUBS","local_code":null,"home_link":null,"wikipedia_link":"https://en.wikipedia.org/wiki/Smolensk_South_Airport","keywords":"Smolensk Yuzhny Airport, Аэропорт Смоленск Южный, УУБС"},{"id":"42967","ident":"UUBW","type":"large_airport","name":"Zhukovsky International Airport","latitude_deg":"55.553299","longitude_deg":"38.150002","elevation_ft":"377","continent":"EU","iso_country":"RU","iso_region":"RU-MOS","municipality":"Moscow","scheduled_service":"yes","icao_code":"UUBW","iata_code":"ZIA","gps_code":"UUBW","local_code":null,"home_link":"http://zia.aero/","wikipedia_link":"https://en.wikipedia.org/wiki/Zhukovsky_International_Airport","keywords":"Аэропорт Раменское, Zhukovsky Air Base, Gromov Flight Research Institute, Лётно-исследовательский институт имени М. М. Громова, ЛИИ, Ramenskoye, Ramenskoye Airport"},{"id":"26394","ident":"UUDD","type":"large_airport","name":"Domodedovo International Airport","latitude_deg":"55.408798","longitude_deg":"37.9063","elevation_ft":"588","continent":"EU","iso_country":"RU","iso_region":"RU-MOS","municipality":"Moscow","scheduled_service":"yes","icao_code":"UUDD","iata_code":"DME","gps_code":"UUDD","local_code":null,"home_link":"http://www.domodedovo.ru/en/","wikipedia_link":"https://en.wikipedia.org/wiki/Domodedovo_International_Airport","keywords":"MOW, Аэропорт Домоде́дово"},{"id":"26395","ident":"UUDL","type":"large_airport","name":"Golden Ring Yaroslavl International Airport","latitude_deg":"57.560699","longitude_deg":"40.157398","elevation_ft":"287","continent":"EU","iso_country":"RU","iso_region":"RU-YAR","municipality":"Tunoshna","scheduled_service":"yes","icao_code":"UUDL","iata_code":"IAR","gps_code":"UUDL","local_code":null,"home_link":null,"wikipedia_link":"https://en.wikipedia.org/wiki/Tunoshna","keywords":null},{"id":"26396","ident":"UUEE","type":"large_airport","name":"Sheremetyevo International Airport","latitude_deg":"55.976858","longitude_deg":"37.41121","elevation_ft":"622","continent":"EU","iso_country":"RU","iso_region":"RU-MOS","municipality":"Moscow","scheduled_service":"yes","icao_code":"UUEE","iata_code":"SVO","gps_code":"UUEE","local_code":null,"home_link":"http://svo.aero/","wikipedia_link":"https://en.wikipedia.org/wiki/Sheremetyevo_International_Airport","keywords":"УУЕЕ, Москва, MOW, Международный аэропорт Шереметьево, Alexander S. Pushkin"},{"id":"42990","ident":"UUEI","type":"small_airport","name":"Kimry Airfield","latitude_deg":"56.798302","longitude_deg":"37.330002","elevation_ft":"449","continent":"EU","iso_country":"RU","iso_region":"RU-TVE","municipality":"Kimry","scheduled_service":"no","icao_code":null,"iata_code":null,"gps_code":"UUEI","local_code":null,"home_link":"http://www.aero-club.ru/borki.php","wikipedia_link":"https://en.wikipedia.org/wiki/Kimry_Airport","keywords":"Borki,Kletino,Кимры,Борки,Клетино"},{"id":"26397","ident":"UUEM","type":"medium_airport","name":"Migalovo Air Base","latitude_deg":"56.82469940185547","longitude_deg":"35.7577018737793","elevation_ft":"469","continent":"EU","iso_country":"RU","iso_region":"RU-TVE","municipality":"Tver","scheduled_service":"no","icao_code":"UUEM","iata_code":"KLD","gps_code":"UUEM","local_code":null,"home_link":null,"wikipedia_link":"https://en.wikipedia.org/wiki/Migalovo","keywords":null},{"id":"325060","ident":"UUMD","type":"small_airport","name":"Selnikovo Airfield","latitude_deg":"55.129783","longitude_deg":"39.145733","elevation_ft":"351","continent":"EU","iso_country":"RU","iso_region":"RU-MOS","municipality":"Selnikovo","scheduled_service":"no","icao_code":null,"iata_code":null,"gps_code":"UUMD","local_code":null,"home_link":null,"wikipedia_link":null,"keywords":"УУМД, Сельниково"},{"id":"35090","ident":"UUMI","type":"small_airport","name":"Stupino Air Base","latitude_deg":"54.889408","longitude_deg":"38.147036","elevation_ft":"584","continent":"EU","iso_country":"RU","iso_region":"RU-MOS","municipality":"Stupino","scheduled_service":"no","icao_code":null,"iata_code":null,"gps_code":"UUMI","local_code":"XUMI","home_link":null,"wikipedia_link":"https://en.wikipedia.org/wiki/Stupino_Airfield","keywords":"УУМИ, ЬУМИ, Krutyshki Airfield, Аэродром Ступино, Аэродром Крутышки"},{"id":"44920","ident":"UUML","type":"small_airport","name":"Severka Airfield","latitude_deg":"55.206608","longitude_deg":"38.679149","elevation_ft":"433","continent":"EU","iso_country":"RU","iso_region":"RU-MOS","municipality":"Voskresensk","scheduled_service":"no","icao_code":null,"iata_code":null,"gps_code":"UUML","local_code":null,"home_link":"http://www.aviaseverka.ru/","wikipedia_link":null,"keywords":"Аэродром Северка"},{"id":"34931","ident":"UUMO","type":"closed","name":"Ostafyevo International Airport","latitude_deg":"55.511369","longitude_deg":"37.50719","elevation_ft":"568","continent":"EU","iso_country":"RU","iso_region":"RU-MOW","municipality":"Moscow","scheduled_service":"no","icao_code":null,"iata_code":null,"gps_code":null,"local_code":null,"home_link":"http://eng.gazpromavia.ru/page20.shtml","wikipedia_link":"https://en.wikipedia.org/wiki/Ostafievo_International_Airport","keywords":"Podolsk, Ostafievo, Междунаро́дный аэропо́рт «Оста́фьево», Gazprom, UUMO, OSF, УУМО. ЬУМО"},{"id":"42968","ident":"UUMT","type":"medium_airport","name":"Tretyakovo Airport","latitude_deg":"54.904999","longitude_deg":"39.026669","elevation_ft":"515","continent":"EU","iso_country":"RU","iso_region":"RU-MOS","municipality":"Lukhovitsy","scheduled_service":"no","icao_code":null,"iata_code":null,"gps_code":"UUMT","local_code":null,"home_link":null,"wikipedia_link":"https://en.wikipedia.org/wiki/Tretyakovo_Airport","keywords":"Lukhovitsy Airport, Аэропорт Третьяково, Аэропорт Луховицы"},{"id":"34969","ident":"UUMU","type":"medium_airport","name":"Chkalovskiy Air Base","latitude_deg":"55.8783","longitude_deg":"38.061699","elevation_ft":"499","continent":"EU","iso_country":"RU","iso_region":"RU-MOS","municipality":"Moscow","scheduled_service":"no","icao_code":"UUMU","iata_code":"CKL","gps_code":"UUMU","local_code":null,"home_link":null,"wikipedia_link":"https://en.wikipedia.org/wiki/Chkalovsky_Airport","keywords":"Chkalovsky Airport, Аэродром Чкаловский"},{"id":"605772","ident":"UUMY","type":"small_airport","name":"Ozery Airport","latitude_deg":"54.815239","longitude_deg":"38.629275","elevation_ft":"675","continent":"EU","iso_country":"RU","iso_region":"RU-MOS","municipality":"Ozery","scheduled_service":"no","icao_code":null,"iata_code":null,"gps_code":"UUMY","local_code":"UUMY","home_link":null,"wikipedia_link":null,"keywords":"УУМЫ, Озеры, Озёры"},{"id":"26398","ident":"UUOB","type":"medium_airport","name":"Belgorod International Airport","latitude_deg":"50.643798828125","longitude_deg":"36.5900993347168","elevation_ft":"735","continent":"EU","iso_country":"RU","iso_region":"RU-BEL","municipality":"Belgorod","scheduled_service":"yes","icao_code":"UUOB","iata_code":"EGO","gps_code":"UUOB","local_code":null,"home_link":null,"wikipedia_link":"https://en.wikipedia.org/wiki/Belgorod_Airport","keywords":null},{"id":"42995","ident":"UUOD","type":"small_airport","name":"Pridacha Airport","latitude_deg":"51.652861","longitude_deg":"39.256244","elevation_ft":"344","continent":"EU","iso_country":"RU","iso_region":"RU-VOR","municipality":"Voronezh","scheduled_service":"no","icao_code":null,"iata_code":null,"gps_code":"UUOD","local_code":null,"home_link":"http://www.vaso.ru/","wikipedia_link":"https://en.wikipedia.org/wiki/Pridacha_Airport","keywords":"УУОД, Аэропорт Придача, Repnoe Airport, Voronezh East Airport"},{"id":"26399","ident":"UUOK","type":"medium_airport","name":"Kursk East Airport","latitude_deg":"51.7505989074707","longitude_deg":"36.29560089111328","elevation_ft":"686","continent":"EU","iso_country":"RU","iso_region":"RU-KRS","municipality":"Kursk","scheduled_service":"yes","icao_code":"UUOK","iata_code":"URS","gps_code":"UUOK","local_code":null,"home_link":null,"wikipedia_link":"https://en.wikipedia.org/wiki/Kursk_Vostochny_Airport","keywords":"Kursk Vostochny Airport"},{"id":"31846","ident":"UUOL","type":"medium_airport","name":"Lipetsk Airport","latitude_deg":"52.70280075073242","longitude_deg":"39.53779983520508","elevation_ft":"584","continent":"EU","iso_country":"RU","iso_region":"RU-LIP","municipality":"Lipetsk","scheduled_service":"yes","icao_code":"UUOL","iata_code":"LPK","gps_code":"UUOL","local_code":null,"home_link":null,"wikipedia_link":"https://en.wikipedia.org/wiki/Lipetsk_Airport","keywords":null},{"id":"26400","ident":"UUOO","type":"medium_airport","name":"Voronezh International Airport","latitude_deg":"51.814324","longitude_deg":"39.230948","elevation_ft":"514","continent":"EU","iso_country":"RU","iso_region":"RU-VOR","municipality":"Voronezh","scheduled_service":"yes","icao_code":"UUOO","iata_code":"VOZ","gps_code":"UUOO","local_code":null,"home_link":null,"wikipedia_link":"https://en.wikipedia.org/wiki/Voronezh_International_Airport","keywords":"УУОО, Chertovitskoye Airport, Chertovitskoe Airport, Аэропорт Воронеж, Аэропорт Чертовицкое"},{"id":"604037","ident":"UUOQ","type":"small_airport","name":"Parus Airfield","latitude_deg":"51.587233","longitude_deg":"39.490063","elevation_ft":"366","continent":"EU","iso_country":"RU","iso_region":"RU-VOR","municipality":"Parusnoye","scheduled_service":"no","icao_code":null,"iata_code":null,"gps_code":"UUOQ","local_code":null,"home_link":null,"wikipedia_link":null,"keywords":"УУОЯ, Парус, Парусное"},{"id":"32427","ident":"UUOT","type":"medium_airport","name":"Donskoye Airport","latitude_deg":"52.806099","longitude_deg":"41.4828","elevation_ft":"413","continent":"EU","iso_country":"RU","iso_region":"RU-TAM","municipality":"Tambov","scheduled_service":"no","icao_code":"UUOT","iata_code":"TBW","gps_code":"UUOT","local_code":null,"home_link":null,"wikipedia_link":"https://en.wikipedia.org/wiki/Tambov_Donskoye_Airport","keywords":null},{"id":"600077","ident":"UUOW","type":"small_airport","name":"Valuyki  Airfield","latitude_deg":"50.224929","longitude_deg":"38.110891","elevation_ft":"593","continent":"EU","iso_country":"RU","iso_region":"RU-BEL","municipality":"Valuyki","scheduled_service":"no","icao_code":null,"iata_code":null,"gps_code":"UUOW","local_code":null,"home_link":null,"wikipedia_link":null,"keywords":"УУОВ, Валуйки"},{"id":"517952","ident":"UUPM","type":"heliport","name":"163rd km Oil Pipeline Heliport","latitude_deg":"65.077713","longitude_deg":"57.23225","elevation_ft":"200","continent":"EU","iso_country":"RU","iso_region":"RU-KO","municipality":"Pechora","scheduled_service":"no","icao_code":null,"iata_code":null,"gps_code":"UUPM","local_code":null,"home_link":null,"wikipedia_link":null,"keywords":"УУПМ"},{"id":"541942","ident":"UURB","type":"heliport","name":"Brykalansk Heliport","latitude_deg":"65.478508","longitude_deg":"54.261503","elevation_ft":"240","continent":"EU","iso_country":"RU","iso_region":"RU-KO","municipality":null,"scheduled_service":"no","icao_code":null,"iata_code":null,"gps_code":"UURB","local_code":null,"home_link":null,"wikipedia_link":null,"keywords":"УУРБ, Брыкаланск"},{"id":"541957","ident":"UURG","type":"heliport","name":"Verkhnekolvinskaya Heliport","latitude_deg":"66.670644","longitude_deg":"56.980723","elevation_ft":"205","continent":"EU","iso_country":"RU","iso_region":"RU-KO","municipality":"Verkhnekolvinsk","scheduled_service":"no","icao_code":null,"iata_code":null,"gps_code":"UURG","local_code":null,"home_link":null,"wikipedia_link":null,"keywords":"УУРГ, Верхнеколвинская"},{"id":"44421","ident":"UURH","type":"heliport","name":"Haryaginskiy Heliport","latitude_deg":"67.212997","longitude_deg":"56.780998","elevation_ft":null,"continent":"AS","iso_country":"RU","iso_region":"RU-NEN","municipality":"Haryaginskiy","scheduled_service":"no","icao_code":null,"iata_code":null,"gps_code":"UURH","local_code":null,"home_link":null,"wikipedia_link":"https://es.wikipedia.org/wiki/Helipuerto_de_Jaryaguinskiy","keywords":"Haryaginsky Heliport, Аэропорт Харьягинский"},{"id":"600036","ident":"UUTK","type":"heliport","name":"Kalyazin Heliport","latitude_deg":"57.23238","longitude_deg":"37.86075","elevation_ft":"385","continent":"EU","iso_country":"RU","iso_region":"RU-TVE","municipality":"Kalyazin","scheduled_service":"no","icao_code":null,"iata_code":null,"gps_code":"UUTK","local_code":null,"home_link":null,"wikipedia_link":null,"keywords":"УУТК, Калязин"},{"id":"336167","ident":"UUTZ","type":"small_airport","name":"Zavidovo Air Park (U.C.)","latitude_deg":"56.553558","longitude_deg":"36.559481","elevation_ft":"1562","continent":"EU","iso_country":"RU","iso_region":"RU-TVE","municipality":"Shetakovo","scheduled_service":"no","icao_code":null,"iata_code":null,"gps_code":"UUTZ","local_code":null,"home_link":"http://www.zavidovoairpark.com/infrastructure","wikipedia_link":null,"keywords":null},{"id":"315021","ident":"UUU","type":"small_airport","name":"Manumu Airport","latitude_deg":"-9.0746","longitude_deg":"147.5735","elevation_ft":"1800","continent":"OC","iso_country":"PG","iso_region":"PG-CPM","municipality":"Manumu","scheduled_service":"no","icao_code":null,"iata_code":"UUU","gps_code":null,"local_code":"MMU","home_link":null,"wikipedia_link":null,"keywords":null},{"id":"352883","ident":"UUWK","type":"small_airport","name":"Kudinovo Airfield","latitude_deg":"55.023839","longitude_deg":"36.244583","elevation_ft":"600","continent":"EU","iso_country":"RU","iso_region":"RU-KLU","municipality":"Kudinovo","scheduled_service":"no","icao_code":null,"iata_code":null,"gps_code":"UUWK","local_code":null,"home_link":"http://www.uuwk.ru/","wikipedia_link":null,"keywords":"Кудиново"},{"id":"605770","ident":"UUWL","type":"heliport","name":"Luzhki Heliport","latitude_deg":"55.42536","longitude_deg":"37.1299","elevation_ft":"541","continent":"EU","iso_country":"RU","iso_region":"RU-MOS","municipality":"Luzhki","scheduled_service":"no","icao_code":null,"iata_code":null,"gps_code":"UUWL","local_code":"UUWL","home_link":null,"wikipedia_link":null,"keywords":"УУВЛ, Лужки"},{"id":"26401","ident":"UUWW","type":"large_airport","name":"Vnukovo International Airport","latitude_deg":"55.591499","longitude_deg":"37.261501","elevation_ft":"685","continent":"EU","iso_country":"RU","iso_region":"RU-MOW","municipality":"Moscow","scheduled_service":"yes","icao_code":"UUWW","iata_code":"VKO","gps_code":"UUWW","local_code":null,"home_link":"https://vnukovo.ru/en/","wikipedia_link":"https://en.wikipedia.org/wiki/Vnukovo_International_Airport","keywords":"MOW, Международный аэропорт Внуково"},{"id":"541940","ident":"UUXM","type":"heliport","name":"Samotsvyetniy Heliport","latitude_deg":"63.385023","longitude_deg":"58.81514","elevation_ft":"910","continent":"EU","iso_country":"RU","iso_region":"RU-KO","municipality":null,"scheduled_service":"no","icao_code":null,"iata_code":null,"gps_code":"UUXM","local_code":null,"home_link":null,"wikipedia_link":null,"keywords":"УУЬМ, Самоцветный"},{"id":"32506","ident":"UUYH","type":"medium_airport","name":"Ukhta Airport","latitude_deg":"63.566898","longitude_deg":"53.804699","elevation_ft":"482","continent":"AS","iso_country":"RU","iso_region":"RU-KO","municipality":"Ukhta","scheduled_service":"yes","icao_code":"UUYH","iata_code":"UCT","gps_code":"UUYH","local_code":null,"home_link":null,"wikipedia_link":"https://en.wikipedia.org/wiki/Ukhta_Airport","keywords":null},{"id":"42946","ident":"UUYI","type":"medium_airport","name":"Inta Airport","latitude_deg":"66.053372","longitude_deg":"60.105786","elevation_ft":"184","continent":"EU","iso_country":"RU","iso_region":"RU-KO","municipality":"Inta","scheduled_service":"no","icao_code":"UUYI","iata_code":"INA","gps_code":"UUYI","local_code":null,"home_link":null,"wikipedia_link":"https://en.wikipedia.org/wiki/Inta_Airport","keywords":"Аэропорт Инта"},{"id":"42950","ident":"UUYK","type":"medium_airport","name":"Vuktyl Airport","latitude_deg":"63.823299","longitude_deg":"57.279999","elevation_ft":"358","continent":"AS","iso_country":"RU","iso_region":"RU-KO","municipality":"Vuktyl","scheduled_service":"no","icao_code":null,"iata_code":null,"gps_code":"UUYK","local_code":null,"home_link":null,"wikipedia_link":"https://en.wikipedia.org/wiki/Vuktyl_Airport","keywords":"Аэропорт Вуктыл"},{"id":"43682","ident":"UUYM","type":"small_airport","name":"Yemva Airport","latitude_deg":"62.6054000854","longitude_deg":"50.925201416","elevation_ft":null,"continent":"EU","iso_country":"RU","iso_region":"RU-KO","municipality":"Emva","scheduled_service":"no","icao_code":null,"iata_code":null,"gps_code":"UUYM","local_code":null,"home_link":null,"wikipedia_link":null,"keywords":"Emva Airport, Аэропорт Емва"},{"id":"597130","ident":"UUYN","type":"small_airport","name":"Noviy Bor Airfield","latitude_deg":"66.715051","longitude_deg":"52.292875","elevation_ft":"71","continent":"EU","iso_country":"RU","iso_region":"RU-KO","municipality":"Noviy Bor","scheduled_service":"no","icao_code":null,"iata_code":null,"gps_code":"UUYN","local_code":null,"home_link":null,"wikipedia_link":null,"keywords":"УУЫН, Новый Бор"},{"id":"32154","ident":"UUYP","type":"medium_airport","name":"Pechora Airport","latitude_deg":"65.121101","longitude_deg":"57.130798","elevation_ft":"98","continent":"EU","iso_country":"RU","iso_region":"RU-KO","municipality":"Pechora","scheduled_service":"yes","icao_code":"UUYP","iata_code":"PEX","gps_code":"UUYP","local_code":null,"home_link":null,"wikipedia_link":"https://en.wikipedia.org/wiki/Pechora_Airport","keywords":null},{"id":"32555","ident":"UUYS","type":"medium_airport","name":"Usinsk Airport","latitude_deg":"66.0047","longitude_deg":"57.367199","elevation_ft":"262","continent":"AS","iso_country":"RU","iso_region":"RU-KO","municipality":"Usinsk","scheduled_service":"yes","icao_code":"UUYS","iata_code":"USK","gps_code":"UUYS","local_code":null,"home_link":null,"wikipedia_link":"https://en.wikipedia.org/wiki/Usinsk_Airport","keywords":null},{"id":"44858","ident":"UUYT","type":"small_airport","name":"Ust-Kulom Airport","latitude_deg":"61.689998626708984","longitude_deg":"53.709999084472656","elevation_ft":null,"continent":"EU","iso_country":"RU","iso_region":"RU-KO","municipality":"Ust-Kulom","scheduled_service":"no","icao_code":null,"iata_code":null,"gps_code":"UUYT","local_code":null,"home_link":null,"wikipedia_link":null,"keywords":"Аэропорт Усть-Кулом"},{"id":"42947","ident":"UUYV","type":"medium_airport","name":"Izhma Airport","latitude_deg":"65.0317","longitude_deg":"53.970001","elevation_ft":"230","continent":"AS","iso_country":"RU","iso_region":"RU-KO","municipality":"Izhma","scheduled_service":"no","icao_code":null,"iata_code":null,"gps_code":"UUYV","local_code":null,"home_link":null,"wikipedia_link":"https://en.wikipedia.org/wiki/Izhma_Airport","keywords":"Аэропорт Ижма"},{"id":"32581","ident":"UUYW","type":"medium_airport","name":"Vorkuta Airport","latitude_deg":"67.488602","longitude_deg":"63.993099","elevation_ft":"604","continent":"AS","iso_country":"RU","iso_region":"RU-KO","municipality":"Vorkuta","scheduled_service":"yes","icao_code":"UUYW","iata_code":"VKT","gps_code":"UUYW","local_code":null,"home_link":null,"wikipedia_link":"https://en.wikipedia.org/wiki/Vorkuta_Airport","keywords":null},{"id":"42949","ident":"UUYX","type":"medium_airport","name":"Ust-Tsylma Airport","latitude_deg":"65.437294","longitude_deg":"52.200336","elevation_ft":"262","continent":"AS","iso_country":"RU","iso_region":"RU-KO","municipality":"Ust-Tsylma","scheduled_service":"no","icao_code":"UUYX","iata_code":"UTS","gps_code":"UUYX","local_code":null,"home_link":null,"wikipedia_link":"https://en.wikipedia.org/wiki/Ust-Tsylma_Airport","keywords":"Ust-Tsilma, Усть-Цильма"},{"id":"26402","ident":"UUYY","type":"medium_airport","name":"Syktyvkar Airport","latitude_deg":"61.64699935913086","longitude_deg":"50.84510040283203","elevation_ft":"342","continent":"EU","iso_country":"RU","iso_region":"RU-KO","municipality":"Syktyvkar","scheduled_service":"yes","icao_code":"UUYY","iata_code":"SCW","gps_code":"UUYY","local_code":null,"home_link":null,"wikipedia_link":"https://en.wikipedia.org/wiki/Syktyvkar_Airport","keywords":null},{"id":"44901","ident":"UWGB","type":"small_airport","name":"Bolshoye Boldino Airport","latitude_deg":"55.02000045776367","longitude_deg":"45.314998626708984","elevation_ft":null,"continent":"EU","iso_country":"RU","iso_region":"RU-ARK","municipality":"Bolshoye Boldino","scheduled_service":"no","icao_code":null,"iata_code":null,"gps_code":"UWGB","local_code":null,"home_link":null,"wikipedia_link":null,"keywords":"Bolshoe Boldino Airport, Аэропорт Большое Болдино"},{"id":"26403","ident":"UWGG","type":"large_airport","name":"Nizhny Novgorod / Strigino International Airport","latitude_deg":"56.227351","longitude_deg":"43.785152","elevation_ft":"256","continent":"EU","iso_country":"RU","iso_region":"RU-NIZ","municipality":"Nizhny Novgorod","scheduled_service":"yes","icao_code":"UWGG","iata_code":"GOJ","gps_code":"UWGG","local_code":null,"home_link":"http://www.airportnn.ru/en/","wikipedia_link":"https://en.wikipedia.org/wiki/Nizhny_Novgorod_International_Airport","keywords":"УВГГ, ЬВГГ, Нижний Новгород / Стригино"},{"id":"35174","ident":"UWKB","type":"medium_airport","name":"Bugulma Airport","latitude_deg":"54.641184","longitude_deg":"52.800229","elevation_ft":"991","continent":"AS","iso_country":"RU","iso_region":"RU-TA","municipality":"Bugulma","scheduled_service":"yes","icao_code":"UWKB","iata_code":"UUA","gps_code":"UWKB","local_code":null,"home_link":null,"wikipedia_link":"https://en.wikipedia.org/wiki/Bugulma_Airport","keywords":"УВКБ, Аэропорт Бугульма"},{"id":"26404","ident":"UWKD","type":"large_airport","name":"Kazan International Airport","latitude_deg":"55.606201","longitude_deg":"49.278702","elevation_ft":"411","continent":"AS","iso_country":"RU","iso_region":"RU-TA","municipality":"Kazan","scheduled_service":"yes","icao_code":"UWKD","iata_code":"KZN","gps_code":"UWKD","local_code":null,"home_link":"http://www.kazan.aero/en/","wikipedia_link":"https://en.wikipedia.org/wiki/Kazan_International_Airport","keywords":"УВКД, Казань"},{"id":"26405","ident":"UWKE","type":"medium_airport","name":"Begishevo Airport","latitude_deg":"55.564701","longitude_deg":"52.092499","elevation_ft":"643","continent":"AS","iso_country":"RU","iso_region":"RU-TA","municipality":"Nizhnekamsk","scheduled_service":"yes","icao_code":"UWKE","iata_code":"NBC","gps_code":"UWKE","local_code":null,"home_link":null,"wikipedia_link":"https://en.wikipedia.org/wiki/Begishevo_Airport","keywords":"УВКЕ, Бегишево, Нижнекамск"},{"id":"34954","ident":"UWKG","type":"medium_airport","name":"Borisoglebskoye Airport","latitude_deg":"55.866699","longitude_deg":"49.133301","elevation_ft":"213","continent":"AS","iso_country":"RU","iso_region":"RU-TA","municipality":"Kazan","scheduled_service":"no","icao_code":null,"iata_code":null,"gps_code":"UWKG","local_code":null,"home_link":null,"wikipedia_link":"https://en.wikipedia.org/wiki/Borisoglebskoye_Airport","keywords":"Аэропорт Борисоглебское"},{"id":"31707","ident":"UWKJ","type":"medium_airport","name":"Yoshkar-Ola Airport","latitude_deg":"56.7006","longitude_deg":"47.904701","elevation_ft":"348","continent":"AS","iso_country":"RU","iso_region":"RU-ME","municipality":"Yoshkar-Ola","scheduled_service":"no","icao_code":"UWKJ","iata_code":"JOK","gps_code":"UWKJ","local_code":null,"home_link":null,"wikipedia_link":"https://en.wikipedia.org/wiki/Yoshkar-Ola_Airport","keywords":"Аэропорт Йошкар-Ола"},{"id":"26406","ident":"UWKS","type":"medium_airport","name":"Cheboksary Airport","latitude_deg":"56.090302","longitude_deg":"47.347301","elevation_ft":"558","continent":"AS","iso_country":"RU","iso_region":"RU-CU","municipality":"Cheboksary","scheduled_service":"yes","icao_code":"UWKS","iata_code":"CSY","gps_code":"UWKS","local_code":null,"home_link":null,"wikipedia_link":"https://en.wikipedia.org/wiki/Cheboksary_Airport","keywords":"УВКС, ЬВКС, Чебоксары"},{"id":"43881","ident":"UWKW","type":"heliport","name":"Yudino Heliport","latitude_deg":"55.85900115966797","longitude_deg":"49.040000915527344","elevation_ft":null,"continent":"EU","iso_country":"RU","iso_region":"RU-TA","municipality":"Kazan","scheduled_service":"no","icao_code":null,"iata_code":null,"gps_code":"UWKW","local_code":null,"home_link":"http://kazanhelicopters.com/","wikipedia_link":null,"keywords":"Kazan Helicopter Works, Юдино, Казанский Вертолетный завод"},{"id":"35104","ident":"UWLL","type":"medium_airport","name":"Ulyanovsk Baratayevka Airport","latitude_deg":"54.27016","longitude_deg":"48.225569","elevation_ft":"449","continent":"EU","iso_country":"RU","iso_region":"RU-ULY","municipality":"Ulyanovsk","scheduled_service":"yes","icao_code":"UWLL","iata_code":"ULV","gps_code":"UWLL","local_code":null,"home_link":"http://ulk.aero/","wikipedia_link":"https://en.wikipedia.org/wiki/Ulyanovsk_Baratayevka_Airport","keywords":null},{"id":"46256","ident":"UWLS","type":"small_airport","name":"Soldatskaya Tashla Airfield","latitude_deg":"54.015284","longitude_deg":"48.306026","elevation_ft":"673","continent":"AS","iso_country":"RU","iso_region":"RU-ULY","municipality":null,"scheduled_service":"no","icao_code":null,"iata_code":null,"gps_code":"UWLS","local_code":null,"home_link":null,"wikipedia_link":null,"keywords":"Аэродром Солдатская Ташла, УВЛС"},{"id":"26407","ident":"UWLW","type":"medium_airport","name":"Ulyanovsk Vostochny Airport","latitude_deg":"54.401001","longitude_deg":"48.8027","elevation_ft":"252","continent":"AS","iso_country":"RU","iso_region":"RU-ULY","municipality":"Cherdakly","scheduled_service":"yes","icao_code":"UWLW","iata_code":"ULY","gps_code":"UWLW","local_code":null,"home_link":null,"wikipedia_link":"https://en.wikipedia.org/wiki/Ulyanovsk_Vostochny_Airport","keywords":"Ulyanovsk Vostochny Airport"},{"id":"310608","ident":"UWOD","type":"small_airport","name":"Adamovka Airport","latitude_deg":"51.499284","longitude_deg":"59.936658","elevation_ft":null,"continent":"AS","iso_country":"RU","iso_region":"RU-ORE","municipality":"Adamovka","scheduled_service":"no","icao_code":null,"iata_code":null,"gps_code":"UWOD","local_code":null,"home_link":null,"wikipedia_link":null,"keywords":null},{"id":"310609","ident":"UWOH","type":"small_airport","name":"Kvarkeno Airport","latitude_deg":"52.077797","longitude_deg":"59.686542","elevation_ft":null,"continent":"AS","iso_country":"RU","iso_region":"RU-ORE","municipality":"Kvarkeno","scheduled_service":"yes","icao_code":null,"iata_code":null,"gps_code":"UWOH","local_code":null,"home_link":null,"wikipedia_link":null,"keywords":null},{"id":"26408","ident":"UWOO","type":"medium_airport","name":"Orenburg Central Airport","latitude_deg":"51.792668","longitude_deg":"55.457229","elevation_ft":"387","continent":"AS","iso_country":"RU","iso_region":"RU-ORE","municipality":"Orenburg","scheduled_service":"yes","icao_code":"UWOO","iata_code":"REN","gps_code":"UWOO","local_code":null,"home_link":"http://www.airoport.orenair.ru/","wikipedia_link":"https://en.wikipedia.org/wiki/Orenburg_Tsentralny_Airport","keywords":"Orenburg Tsentralny Airport, Аэропорт Центральный"},{"id":"26409","ident":"UWOR","type":"medium_airport","name":"Orsk Airport","latitude_deg":"51.072498","longitude_deg":"58.5956","elevation_ft":"909","continent":"AS","iso_country":"RU","iso_region":"RU-ORE","municipality":"Orsk","scheduled_service":"yes","icao_code":"UWOR","iata_code":"OSW","gps_code":"UWOR","local_code":null,"home_link":null,"wikipedia_link":"https://en.wikipedia.org/wiki/Orsk_Airport","keywords":null},{"id":"335161","ident":"UWOS","type":"small_airport","name":"Svetlyy Airport","latitude_deg":"50.800721","longitude_deg":"60.902367","elevation_ft":"978","continent":"AS","iso_country":"RU","iso_region":"RU-ORE","municipality":null,"scheduled_service":"yes","icao_code":null,"iata_code":null,"gps_code":"UWOS","local_code":null,"home_link":null,"wikipedia_link":null,"keywords":null},{"id":"32155","ident":"UWPP","type":"medium_airport","name":"Penza Airport","latitude_deg":"53.1106","longitude_deg":"45.021099","elevation_ft":"614","continent":"AS","iso_country":"RU","iso_region":"RU-PNZ","municipality":"Penza","scheduled_service":"yes","icao_code":"UWPP","iata_code":"PEZ","gps_code":"UWPP","local_code":null,"home_link":null,"wikipedia_link":"https://en.wikipedia.org/wiki/Penza_Airport","keywords":"УВПП, Пенза, Penza South"},{"id":"42965","ident":"UWPS","type":"large_airport","name":"Saransk International Airport","latitude_deg":"54.12513","longitude_deg":"45.212257","elevation_ft":"676","continent":"EU","iso_country":"RU","iso_region":"RU-MO","municipality":"Saransk","scheduled_service":"yes","icao_code":"UWPS","iata_code":"SKX","gps_code":"UWPS","local_code":null,"home_link":null,"wikipedia_link":"https://en.wikipedia.org/wiki/Saransk_Airport","keywords":"Аэропорт Саранск"},{"id":"30804","ident":"UWSB","type":"medium_airport","name":"Balakovo Airport","latitude_deg":"51.858299","longitude_deg":"47.745602","elevation_ft":"95","continent":"AS","iso_country":"RU","iso_region":"RU-SAR","municipality":"Balakovo","scheduled_service":"yes","icao_code":"UWSB","iata_code":"BWO","gps_code":"UWSB","local_code":null,"home_link":null,"wikipedia_link":"https://en.wikipedia.org/wiki/Balakovo_Airport","keywords":"Malaya Bykovka Airport, Аэропорт Балаково, Аэропорт Малая Быковка"},{"id":"339001","ident":"UWSG","type":"large_airport","name":"Gagarin International Airport","latitude_deg":"51.712778","longitude_deg":"46.171111","elevation_ft":"103","continent":"AS","iso_country":"RU","iso_region":"RU-SAR","municipality":"Saratov","scheduled_service":"yes","icao_code":"UWSG","iata_code":"GSV","gps_code":"UWSG","local_code":null,"home_link":"http://gsv.aero/en/","wikipedia_link":"https://en.wikipedia.org/wiki/Saratov_Gagarin_Airport","keywords":"УВСГ, Гагарин, Саратов"},{"id":"44315","ident":"UWSK","type":"small_airport","name":"Krasny Kut Airport","latitude_deg":"50.955458","longitude_deg":"46.949901","elevation_ft":"177","continent":"EU","iso_country":"RU","iso_region":"RU-SAR","municipality":"Krasny Kut","scheduled_service":"no","icao_code":null,"iata_code":null,"gps_code":"UWSK","local_code":null,"home_link":"http://www.kluga.ru/","wikipedia_link":"https://de.wikipedia.org/wiki/Flugplatz_Krasny_Kut","keywords":"Аэропорт Красный Кут"},{"id":"351649","ident":"UWTK","type":"small_airport","name":"Karaishevo Airfield","latitude_deg":"55.53869","longitude_deg":"49.32154","elevation_ft":"185","continent":"EU","iso_country":"RU","iso_region":"RU-TA","municipality":"Karaishevo","scheduled_service":"no","icao_code":null,"iata_code":null,"gps_code":"UWTK","local_code":null,"home_link":null,"wikipedia_link":null,"keywords":null},{"id":"42920","ident":"UWUA","type":"heliport","name":"Sibay Airport","latitude_deg":"52.687412","longitude_deg":"58.714802","elevation_ft":"1309","continent":"AS","iso_country":"RU","iso_region":"RU-BA","municipality":"Sibay","scheduled_service":"no","icao_code":null,"iata_code":null,"gps_code":"UWUA","local_code":null,"home_link":null,"wikipedia_link":"https://en.wikipedia.org/wiki/Sibay_Airport","keywords":"УВУА, Сибай"},{"id":"30690","ident":"UWUB","type":"small_airport","name":"Beloretsk Airport","latitude_deg":"53.938389","longitude_deg":"58.340113","elevation_ft":"1827","continent":"AS","iso_country":"RU","iso_region":"RU-BA","municipality":"Beloretsk","scheduled_service":"no","icao_code":"UWUB","iata_code":"BCX","gps_code":"UWUB","local_code":null,"home_link":null,"wikipedia_link":null,"keywords":null},{"id":"32112","ident":"UWUK","type":"small_airport","name":"Oktyabrskiy Airport","latitude_deg":"54.439999","longitude_deg":"53.388302","elevation_ft":"377","continent":"AS","iso_country":"RU","iso_region":"RU-TA","municipality":"Kzyl-Yar","scheduled_service":"no","icao_code":"UWUK","iata_code":"OKT","gps_code":"UWUK","local_code":null,"home_link":null,"wikipedia_link":"https://en.wikipedia.org/wiki/Oktyabrsky_Airport","keywords":"Oktyabrsky Airport, Аэропорт Октябрьский"},{"id":"26411","ident":"UWUU","type":"large_airport","name":"Ufa International Airport","latitude_deg":"54.557498931885","longitude_deg":"55.874401092529","elevation_ft":"449","continent":"EU","iso_country":"RU","iso_region":"RU-BA","municipality":"Ufa","scheduled_service":"yes","icao_code":"UWUU","iata_code":"UFA","gps_code":"UWUU","local_code":null,"home_link":"http://www.airportufa.ru/en/","wikipedia_link":"https://en.wikipedia.org/wiki/Ufa_International_Airport","keywords":"Международный аэропорт Уфа"},{"id":"315322","ident":"UWUZ","type":"small_airport","name":"Aktanysh Airport","latitude_deg":"55.6975","longitude_deg":"54.0677","elevation_ft":"378","continent":"EU","iso_country":"RU","iso_region":"RU-TA","municipality":"Aktanysh","scheduled_service":"no","icao_code":null,"iata_code":null,"gps_code":"UWUZ","local_code":"UWUZ","home_link":null,"wikipedia_link":null,"keywords":"УВУЗ, Актаныш"},{"id":"43671","ident":"UWWB","type":"medium_airport","name":"Buguruslan Severny Airport","latitude_deg":"53.718399","longitude_deg":"52.371899","elevation_ft":"728","continent":"EU","iso_country":"RU","iso_region":"RU-ORE","municipality":"Buguruslan","scheduled_service":"no","icao_code":null,"iata_code":null,"gps_code":"UWWB","local_code":null,"home_link":null,"wikipedia_link":null,"keywords":"УВВБ, Buguruslan North Airport, Аэропорт Бугуруслан Северный"},{"id":"46254","ident":"UWWE","type":"small_airport","name":"Verkhneye Sancheleyevo Airfield","latitude_deg":"53.6960966684","longitude_deg":"49.491519928","elevation_ft":"246","continent":"EU","iso_country":"RU","iso_region":"RU-SAM","municipality":"Tolyatti","scheduled_service":"no","icao_code":null,"iata_code":null,"gps_code":"UWWE","local_code":null,"home_link":"http://www.aviatlt.ru/","wikipedia_link":null,"keywords":"Verkhnee Sancheleevo Airfield, Аэродром Верхнее Санчелеево, УВВЕ"},{"id":"44614","ident":"UWWG","type":"medium_airport","name":"Bezymyanka Airfield","latitude_deg":"53.220001","longitude_deg":"50.325001","elevation_ft":"135","continent":"EU","iso_country":"RU","iso_region":"RU-SAM","municipality":"Samara","scheduled_service":"no","icao_code":null,"iata_code":null,"gps_code":"UWWG","local_code":"XWWG","home_link":"http://www.aviacor.ru/","wikipedia_link":"https://en.wikipedia.org/wiki/Bezymyanka_%28airport%29","keywords":"УВВГ, ЬВВГ, Bezimyanka Airfield, Аэродром Безымянка"},{"id":"44613","ident":"UWWS","type":"small_airport","name":"Smyshlyayevka Airport","latitude_deg":"53.241318","longitude_deg":"50.374982","elevation_ft":"131","continent":"AS","iso_country":"RU","iso_region":"RU-SAM","municipality":"Samara","scheduled_service":"no","icao_code":"UWWS","iata_code":null,"gps_code":"UWWS","local_code":null,"home_link":null,"wikipedia_link":"https://es.wikipedia.org/wiki/Aeropuerto_de_Samara-Smyshliayevka","keywords":"УВВС, Самара, Smyshlyaevka Airport, Аэропорт Смышляевка"},{"id":"26412","ident":"UWWW","type":"large_airport","name":"Kurumoch International Airport","latitude_deg":"53.504902","longitude_deg":"50.164299","elevation_ft":"477","continent":"EU","iso_country":"RU","iso_region":"RU-SAM","municipality":"Samara","scheduled_service":"yes","icao_code":"UWWW","iata_code":"KUF","gps_code":"UWWW","local_code":null,"home_link":"https://kuf.aero/en/","wikipedia_link":"https://en.wikipedia.org/wiki/Kurumoch_International_Airport","keywords":null},{"id":"39084","ident":"UY-0001","type":"small_airport","name":"Villa Independencia Airport","latitude_deg":"-33.14196","longitude_deg":"-58.293759","elevation_ft":"52","continent":"SA","iso_country":"UY","iso_region":"UY-RN","municipality":"Fray Bentos","scheduled_service":"no","icao_code":null,"iata_code":null,"gps_code":"SUFB","local_code":null,"home_link":null,"wikipedia_link":"https://en.wikipedia.org/wiki/Villa_Independencia_Airport","keywords":"FZB, Fray Bentos Airport"},{"id":"39085","ident":"UY-0002","type":"small_airport","name":"Rocha Airport","latitude_deg":"-34.479077","longitude_deg":"-54.283494","elevation_ft":"130","continent":"SA","iso_country":"UY","iso_region":"UY-RO","municipality":"Rocha","scheduled_service":"no","icao_code":null,"iata_code":null,"gps_code":"SURO","local_code":null,"home_link":null,"wikipedia_link":null,"keywords":"Rocha Aeroclub"},{"id":"324370","ident":"UY-0003","type":"closed","name":"Carlos M Fraschini Airport","latitude_deg":"-32.246237","longitude_deg":"-58.093017","elevation_ft":"66","continent":"SA","iso_country":"UY","iso_region":"UY-PA","municipality":"Paysandu","scheduled_service":"no","icao_code":null,"iata_code":null,"gps_code":null,"local_code":null,"home_link":null,"wikipedia_link":null,"keywords":null},{"id":"324371","ident":"UY-0004","type":"small_airport","name":"Garcia Brum Airstrip","latitude_deg":"-32.396295","longitude_deg":"-56.588257","elevation_ft":"448","continent":"SA","iso_country":"UY","iso_region":"UY-PA","municipality":null,"scheduled_service":"no","icao_code":null,"iata_code":null,"gps_code":null,"local_code":null,"home_link":null,"wikipedia_link":null,"keywords":null},{"id":"324636","ident":"UY-0005","type":"small_airport","name":"Joaquín Lenzina Airport","latitude_deg":"-31.868851","longitude_deg":"-55.498746","elevation_ft":null,"continent":"SA","iso_country":"UY","iso_region":"UY-TA","municipality":"Ansina","scheduled_service":"no","icao_code":null,"iata_code":null,"gps_code":null,"local_code":null,"home_link":null,"wikipedia_link":null,"keywords":null},{"id":"324637","ident":"UY-0006","type":"small_airport","name":"Ansina Airstrip","latitude_deg":"-31.869065","longitude_deg":"-55.491636","elevation_ft":null,"continent":"SA","iso_country":"UY","iso_region":"UY-TA","municipality":"Ansina","scheduled_service":"no","icao_code":null,"iata_code":null,"gps_code":null,"local_code":null,"home_link":null,"wikipedia_link":null,"keywords":null},{"id":"325594","ident":"UY-0007","type":"small_airport","name":"La Lata Aeroclub Airport","latitude_deg":"-30.952597","longitude_deg":"-55.5353","elevation_ft":"743","continent":"SA","iso_country":"UY","iso_region":"UY-RV","municipality":"Rivera","scheduled_service":"no","icao_code":null,"iata_code":null,"gps_code":null,"local_code":null,"home_link":null,"wikipedia_link":null,"keywords":null},{"id":"325597","ident":"UY-0008","type":"small_airport","name":"Ricardo Raver Airport","latitude_deg":"-34.312485","longitude_deg":"-57.041631","elevation_ft":"92","continent":"SA","iso_country":"UY","iso_region":"UY-SJ","municipality":"Ecilda Paullier","scheduled_service":"no","icao_code":null,"iata_code":null,"gps_code":null,"local_code":null,"home_link":null,"wikipedia_link":null,"keywords":null},{"id":"325599","ident":"UY-0009","type":"small_airport","name":"Aeroclub Guichón Airfield","latitude_deg":"-32.346251","longitude_deg":"-57.170861","elevation_ft":"276","continent":"SA","iso_country":"UY","iso_region":"UY-PA","municipality":"Guichón","scheduled_service":"no","icao_code":null,"iata_code":null,"gps_code":null,"local_code":null,"home_link":null,"wikipedia_link":null,"keywords":null},{"id":"325603","ident":"UY-0010","type":"small_airport","name":"Saman Lascano Airport","latitude_deg":"-33.755113","longitude_deg":"-54.148823","elevation_ft":"163","continent":"SA","iso_country":"UY","iso_region":"UY-RO","municipality":"Lascano","scheduled_service":"no","icao_code":null,"iata_code":null,"gps_code":null,"local_code":null,"home_link":null,"wikipedia_link":null,"keywords":null},{"id":"325604","ident":"UY-0011","type":"small_airport","name":"La Media Luna Airport","latitude_deg":"-30.4053","longitude_deg":"-57.2756","elevation_ft":"255","continent":"SA","iso_country":"UY","iso_region":"UY-AR","municipality":"Yucutujá","scheduled_service":"no","icao_code":null,"iata_code":null,"gps_code":null,"local_code":null,"home_link":null,"wikipedia_link":null,"keywords":null},{"id":"325903","ident":"UY-0012","type":"heliport","name":"Carmelo Park Hyatt Heliport","latitude_deg":"-33.95582","longitude_deg":"-58.335986","elevation_ft":null,"continent":"SA","iso_country":"UY","iso_region":"UY-CO","municipality":"Carmelo","scheduled_service":"no","icao_code":null,"iata_code":null,"gps_code":null,"local_code":null,"home_link":null,"wikipedia_link":null,"keywords":null},{"id":"326528","ident":"UY-0013","type":"small_airport","name":"Florida Aviation Center","latitude_deg":"-34.08392","longitude_deg":"-56.186665","elevation_ft":"188","continent":"SA","iso_country":"UY","iso_region":"UY-FD","municipality":"Florida","scheduled_service":"no","icao_code":null,"iata_code":null,"gps_code":"SUFL","local_code":null,"home_link":null,"wikipedia_link":null,"keywords":null},{"id":"326549","ident":"UY-0014","type":"small_airport","name":"Juan B. Desalvo Airport","latitude_deg":"-33.485556","longitude_deg":"-56.890833","elevation_ft":"423","continent":"SA","iso_country":"UY","iso_region":"UY-FS","municipality":"Trinidad","scheduled_service":"no","icao_code":null,"iata_code":null,"gps_code":"SUTD","local_code":null,"home_link":null,"wikipedia_link":null,"keywords":"Aeroclub de Flores"},{"id":"348478","ident":"UY-0015","type":"small_airport","name":"La Arcadia Airport","latitude_deg":"-34.18717","longitude_deg":"-58.0733","elevation_ft":"59","continent":"SA","iso_country":"UY","iso_region":"UY-CO","municipality":"Puerto de Conchillas","scheduled_service":"no","icao_code":null,"iata_code":null,"gps_code":null,"local_code":null,"home_link":null,"wikipedia_link":null,"keywords":null},{"id":"348479","ident":"UY-0016","type":"small_airport","name":"La Rabida Airport","latitude_deg":"-34.72139","longitude_deg":"-56.61134","elevation_ft":"104","continent":"SA","iso_country":"UY","iso_region":"UY-SJ","municipality":"Costas del Tigre","scheduled_service":"no","icao_code":null,"iata_code":null,"gps_code":null,"local_code":"1001","home_link":null,"wikipedia_link":null,"keywords":null},{"id":"348480","ident":"UY-0017","type":"small_airport","name":"Kiyú Airport","latitude_deg":"-34.66828","longitude_deg":"-56.71273","elevation_ft":"75","continent":"SA","iso_country":"UY","iso_region":"UY-SJ","municipality":"Kiyú","scheduled_service":"no","icao_code":null,"iata_code":null,"gps_code":null,"local_code":null,"home_link":null,"wikipedia_link":null,"keywords":null},{"id":"348481","ident":"UY-0018","type":"small_airport","name":"La Horqueta Airport","latitude_deg":"-34.56547","longitude_deg":"-56.72975","elevation_ft":"144","continent":"SA","iso_country":"UY","iso_region":"UY-SJ","municipality":"Puntas de Valdez","scheduled_service":"no","icao_code":null,"iata_code":null,"gps_code":null,"local_code":null,"home_link":null,"wikipedia_link":null,"keywords":null},{"id":"348482","ident":"UY-0019","type":"small_airport","name":"Wings of Freedom Airport","latitude_deg":"-34.76568","longitude_deg":"-55.48423","elevation_ft":"66","continent":"SA","iso_country":"UY","iso_region":"UY-CA","municipality":"Cuchilla Alta","scheduled_service":"no","icao_code":null,"iata_code":null,"gps_code":null,"local_code":null,"home_link":null,"wikipedia_link":null,"keywords":null},{"id":"348483","ident":"UY-0020","type":"small_airport","name":"Cumbres de Carrasco Airport","latitude_deg":"-34.76896","longitude_deg":"-55.95315","elevation_ft":"83","continent":"SA","iso_country":"UY","iso_region":"UY-CA","municipality":"Ciudad de la Costa","scheduled_service":"no","icao_code":null,"iata_code":null,"gps_code":null,"local_code":null,"home_link":null,"wikipedia_link":null,"keywords":null},{"id":"348484","ident":"UY-0021","type":"small_airport","name":"La Rinconada Airport","latitude_deg":"-34.66773","longitude_deg":"-54.30602","elevation_ft":"66","continent":"SA","iso_country":"UY","iso_region":"UY-RO","municipality":"La Paloma","scheduled_service":"no","icao_code":null,"iata_code":null,"gps_code":null,"local_code":null,"home_link":null,"wikipedia_link":null,"keywords":null},{"id":"349347","ident":"UY-0022","type":"small_airport","name":"Nueva Helvecia Airport","latitude_deg":"-34.244003","longitude_deg":"-57.205465","elevation_ft":"135","continent":"SA","iso_country":"UY","iso_region":"UY-CO","municipality":"Nueva Helvecia","scheduled_service":"no","icao_code":null,"iata_code":null,"gps_code":null,"local_code":null,"home_link":null,"wikipedia_link":null,"keywords":null},{"id":"513760","ident":"UY-0023","type":"small_airport","name":"Los Alamos Airport","latitude_deg":"-31.804875","longitude_deg":"-54.264035","elevation_ft":"558","continent":"SA","iso_country":"UY","iso_region":"UY-CL","municipality":"Aceguá","scheduled_service":"no","icao_code":null,"iata_code":null,"gps_code":null,"local_code":null,"home_link":null,"wikipedia_link":null,"keywords":null},{"id":"517333","ident":"UY-0024","type":"small_airport","name":"OTA Agricultural Airport","latitude_deg":"-33.217597","longitude_deg":"-54.330647","elevation_ft":"184","continent":"SA","iso_country":"UY","iso_region":"UY-TT","municipality":"Treinta y Tres","scheduled_service":"no","icao_code":null,"iata_code":null,"gps_code":null,"local_code":"1109","home_link":null,"wikipedia_link":null,"keywords":null},{"id":"517338","ident":"UY-0025","type":"heliport","name":"Atchugarry Foundation Heliport","latitude_deg":"-34.865038","longitude_deg":"-54.825127","elevation_ft":"109","continent":"SA","iso_country":"UY","iso_region":"UY-MA","municipality":"Pueblo Garzon","scheduled_service":"no","icao_code":null,"iata_code":null,"gps_code":null,"local_code":"1002","home_link":null,"wikipedia_link":null,"keywords":null},{"id":"517339","ident":"UY-0026","type":"small_airport","name":"Estancia Don Tomás Airstrip","latitude_deg":"-31.661925","longitude_deg":"-54.664019","elevation_ft":"502","continent":"SA","iso_country":"UY","iso_region":"UY-RV","municipality":"Paso Hospital","scheduled_service":"no","icao_code":null,"iata_code":null,"gps_code":null,"local_code":"1003","home_link":null,"wikipedia_link":null,"keywords":null},{"id":"517340","ident":"UY-0027","type":"small_airport","name":"Estancia El Monasterio Airstrip","latitude_deg":"-33.834374","longitude_deg":"-54.000696","elevation_ft":"82","continent":"SA","iso_country":"UY","iso_region":"UY-RO","municipality":"Los Ajos","scheduled_service":"no","icao_code":null,"iata_code":null,"gps_code":null,"local_code":"1004","home_link":null,"wikipedia_link":null,"keywords":null},{"id":"533490","ident":"UY-0028","type":"heliport","name":"Helipad","latitude_deg":"-34.825459","longitude_deg":"-54.658197","elevation_ft":"15","continent":"SA","iso_country":"UY","iso_region":"UY-MA","municipality":"Jose Ignacio","scheduled_service":"no","icao_code":null,"iata_code":null,"gps_code":null,"local_code":null,"home_link":null,"wikipedia_link":null,"keywords":null},{"id":"549752","ident":"UY-0029","type":"small_airport","name":"Cerro Cueva del Tigre Airfield","latitude_deg":"-31.741739","longitude_deg":"-58.026713","elevation_ft":"58","continent":"SA","iso_country":"UY","iso_region":"UY-PA","municipality":"Estancia 'Los Olivos de Guaviyú'","scheduled_service":"no","icao_code":null,"iata_code":null,"gps_code":null,"local_code":null,"home_link":null,"wikipedia_link":null,"keywords":null},{"id":"41688","ident":"UZ-0001","type":"closed","name":"Aim Southeast Airport","latitude_deg":"40.753399","longitude_deg":"72.752296","elevation_ft":"2240","continent":"AS","iso_country":"UZ","iso_region":"UZ-AN","municipality":"Kurgantepa","scheduled_service":"no","icao_code":null,"iata_code":null,"gps_code":null,"local_code":null,"home_link":null,"wikipedia_link":null,"keywords":null},{"id":"41689","ident":"UZ-0002","type":"closed","name":"Ak Kurgan Airport","latitude_deg":"40.86287","longitude_deg":"69.029046","elevation_ft":"969","continent":"AS","iso_country":"UZ","iso_region":"UZ-TO","municipality":"Ak Kurgan","scheduled_service":"no","icao_code":null,"iata_code":null,"gps_code":null,"local_code":null,"home_link":null,"wikipedia_link":null,"keywords":null},{"id":"26418","ident":"UZ-0003","type":"closed","name":"Jasliq Airfield","latitude_deg":"44.054254","longitude_deg":"57.54776","elevation_ft":"413","continent":"AS","iso_country":"UZ","iso_region":"UZ-QR","municipality":"Jasliq","scheduled_service":"no","icao_code":null,"iata_code":null,"gps_code":null,"local_code":null,"home_link":null,"wikipedia_link":null,"keywords":"Beleuli North Airport, Аэропорт Белеули Северный, Аэропорт Жаслык, UT1O"},{"id":"41691","ident":"UZ-0004","type":"closed","name":"Andizhan Northeast Airport","latitude_deg":"40.887563","longitude_deg":"72.406724","elevation_ft":"1585","continent":"AS","iso_country":"UZ","iso_region":"UZ-AN","municipality":"Andizhan","scheduled_service":"no","icao_code":null,"iata_code":null,"gps_code":null,"local_code":null,"home_link":null,"wikipedia_link":null,"keywords":null},{"id":"41692","ident":"UZ-0005","type":"closed","name":"Balykchi Southwest Airport","latitude_deg":"40.827202","longitude_deg":"71.767998","elevation_ft":"1344","continent":"AS","iso_country":"UZ","iso_region":"UZ-AN","municipality":"Saryksu","scheduled_service":"no","icao_code":null,"iata_code":null,"gps_code":null,"local_code":null,"home_link":null,"wikipedia_link":null,"keywords":null},{"id":"41693","ident":"UZ-0006","type":"small_airport","name":"Besh Kotan Airport","latitude_deg":"37.493271","longitude_deg":"66.978463","elevation_ft":"1063","continent":"AS","iso_country":"UZ","iso_region":"UZ-SU","municipality":"Besh Kotan","scheduled_service":"no","icao_code":null,"iata_code":null,"gps_code":null,"local_code":null,"home_link":null,"wikipedia_link":null,"keywords":null},{"id":"41694","ident":"UZ-0007","type":"closed","name":"Charkhin Airport","latitude_deg":"39.6665","longitude_deg":"66.7705","elevation_ft":"2200","continent":"AS","iso_country":"UZ","iso_region":"UZ-SA","municipality":"Charkhin","scheduled_service":"no","icao_code":null,"iata_code":null,"gps_code":null,"local_code":null,"home_link":null,"wikipedia_link":null,"keywords":null},{"id":"41695","ident":"UZ-0008","type":"closed","name":"Chartak Airport","latitude_deg":"40.949405","longitude_deg":"69.043633","elevation_ft":"999","continent":"AS","iso_country":"UZ","iso_region":"UZ-TO","municipality":"Chartak","scheduled_service":"no","icao_code":null,"iata_code":null,"gps_code":null,"local_code":null,"home_link":null,"wikipedia_link":null,"keywords":null},{"id":"41696","ident":"UZ-0009","type":"small_airport","name":"Chinaz Highway Airstrip","latitude_deg":"40.97949981689453","longitude_deg":"68.79219818115234","elevation_ft":"923","continent":"AS","iso_country":"UZ","iso_region":"UZ-TO","municipality":"Chinaz","scheduled_service":"no","icao_code":null,"iata_code":null,"gps_code":null,"local_code":null,"home_link":null,"wikipedia_link":null,"keywords":null},{"id":"41697","ident":"UZ-0010","type":"closed","name":"Dustlik North Airport","latitude_deg":"40.549809","longitude_deg":"68.08371","elevation_ft":"879","continent":"AS","iso_country":"UZ","iso_region":"UZ-JI","municipality":"Dustlik","scheduled_service":"no","icao_code":null,"iata_code":null,"gps_code":null,"local_code":null,"home_link":null,"wikipedia_link":null,"keywords":null},{"id":"41698","ident":"UZ-0011","type":"closed","name":"Dutyr Airport","latitude_deg":"40.372501","longitude_deg":"71.370499","elevation_ft":"1473","continent":"AS","iso_country":"UZ","iso_region":"UZ-FA","municipality":"Rishtan","scheduled_service":"no","icao_code":null,"iata_code":null,"gps_code":null,"local_code":null,"home_link":null,"wikipedia_link":null,"keywords":null},{"id":"41699","ident":"UZ-0012","type":"small_airport","name":"Kunkhodzha Airport","latitude_deg":"43.118801","longitude_deg":"58.3736","elevation_ft":"300","continent":"AS","iso_country":"UZ","iso_region":"UZ-QR","municipality":"Kunkhodzha","scheduled_service":"no","icao_code":null,"iata_code":null,"gps_code":null,"local_code":null,"home_link":null,"wikipedia_link":null,"keywords":"Dzhangabirlyk West"},{"id":"41700","ident":"UZ-0013","type":"small_airport","name":"Dzhar-Tepe Airport","latitude_deg":"39.16740036010742","longitude_deg":"66.7145004272461","elevation_ft":"2022","continent":"AS","iso_country":"UZ","iso_region":"UZ-QA","municipality":"Dzhar-Tepe","scheduled_service":"no","icao_code":null,"iata_code":null,"gps_code":null,"local_code":null,"home_link":null,"wikipedia_link":null,"keywords":null},{"id":"41701","ident":"UZ-0014","type":"closed","name":"Fergana Southwest Airport","latitude_deg":"40.309101","longitude_deg":"71.7145","elevation_ft":"2327","continent":"AS","iso_country":"UZ","iso_region":"UZ-FA","municipality":"Fergana","scheduled_service":"no","icao_code":null,"iata_code":null,"gps_code":null,"local_code":null,"home_link":null,"wikipedia_link":null,"keywords":"UTFE"},{"id":"41702","ident":"UZ-0015","type":"closed","name":"Galyabita East Airport","latitude_deg":"38.419701","longitude_deg":"68.101097","elevation_ft":"1940","continent":"AS","iso_country":"UZ","iso_region":"UZ-SU","municipality":"Galyabita","scheduled_service":"no","icao_code":null,"iata_code":null,"gps_code":null,"local_code":null,"home_link":null,"wikipedia_link":null,"keywords":null},{"id":"41703","ident":"UZ-0016","type":"closed","name":"Guzar Airport","latitude_deg":"38.634701","longitude_deg":"66.272797","elevation_ft":"1679","continent":"AS","iso_country":"UZ","iso_region":"UZ-QA","municipality":"Guzar","scheduled_service":"no","icao_code":null,"iata_code":null,"gps_code":null,"local_code":null,"home_link":null,"wikipedia_link":null,"keywords":null},{"id":"41704","ident":"UZ-0017","type":"closed","name":"Atakent Airport","latitude_deg":"40.874993","longitude_deg":"68.460041","elevation_ft":"852","continent":"AS","iso_country":"UZ","iso_region":"UZ-JI","municipality":"Atakent","scheduled_service":"no","icao_code":null,"iata_code":null,"gps_code":null,"local_code":null,"home_link":null,"wikipedia_link":null,"keywords":null},{"id":"41705","ident":"UZ-0018","type":"closed","name":"Ilich North Airport","latitude_deg":"40.939201","longitude_deg":"68.520203","elevation_ft":"835","continent":"AS","iso_country":"UZ","iso_region":"UZ-JI","municipality":"Ilich","scheduled_service":"no","icao_code":null,"iata_code":null,"gps_code":null,"local_code":null,"home_link":null,"wikipedia_link":null,"keywords":null},{"id":"41706","ident":"UZ-0019","type":"closed","name":"Imeni Kirova Airport","latitude_deg":"40.633514","longitude_deg":"68.617562","elevation_ft":"875","continent":"AS","iso_country":"UZ","iso_region":"UZ-SI","municipality":"Imeni Kirova","scheduled_service":"no","icao_code":null,"iata_code":null,"gps_code":null,"local_code":null,"home_link":null,"wikipedia_link":null,"keywords":null},{"id":"41707","ident":"UZ-0020","type":"small_airport","name":"Aranchi Airfield","latitude_deg":"41.026817","longitude_deg":"69.199536","elevation_ft":"1132","continent":"AS","iso_country":"UZ","iso_region":"UZ-TO","municipality":"Aranchi","scheduled_service":"no","icao_code":null,"iata_code":null,"gps_code":null,"local_code":null,"home_link":null,"wikipedia_link":null,"keywords":"Angren, Kalinovka"},{"id":"41708","ident":"UZ-0021","type":"small_airport","name":"Kamashi Airport","latitude_deg":"38.80440139770508","longitude_deg":"66.52960205078125","elevation_ft":"1780","continent":"AS","iso_country":"UZ","iso_region":"UZ-QA","municipality":"Kamashi","scheduled_service":"no","icao_code":null,"iata_code":null,"gps_code":null,"local_code":null,"home_link":null,"wikipedia_link":null,"keywords":null},{"id":"41709","ident":"UZ-0022","type":"small_airport","name":"Kara Kalpak Airport","latitude_deg":"40.80339813232422","longitude_deg":"71.18920135498047","elevation_ft":"1229","continent":"AS","iso_country":"UZ","iso_region":"UZ-NG","municipality":"Kara Kalpak","scheduled_service":"no","icao_code":null,"iata_code":null,"gps_code":null,"local_code":null,"home_link":null,"wikipedia_link":null,"keywords":null},{"id":"41710","ident":"UZ-0023","type":"small_airport","name":"Kayki Airport","latitude_deg":"41.078374","longitude_deg":"72.028289","elevation_ft":"1570","continent":"AS","iso_country":"UZ","iso_region":"UZ-NG","municipality":"Kayki","scheduled_service":"no","icao_code":null,"iata_code":null,"gps_code":null,"local_code":null,"home_link":null,"wikipedia_link":null,"keywords":null},{"id":"41711","ident":"UZ-0024","type":"heliport","name":"Dehqonobod Heliport","latitude_deg":"38.343389","longitude_deg":"66.447908","elevation_ft":null,"continent":"AS","iso_country":"UZ","iso_region":"UZ-QA","municipality":"Dehqonobod","scheduled_service":"no","icao_code":null,"iata_code":null,"gps_code":null,"local_code":null,"home_link":null,"wikipedia_link":null,"keywords":null},{"id":"41712","ident":"UZ-0025","type":"closed","name":"Kokand Southeast Airport","latitude_deg":"40.377905","longitude_deg":"71.093859","elevation_ft":"1890","continent":"AS","iso_country":"UZ","iso_region":"UZ-FA","municipality":"Kokand","scheduled_service":"no","icao_code":null,"iata_code":null,"gps_code":null,"local_code":null,"home_link":null,"wikipedia_link":null,"keywords":null},{"id":"41713","ident":"UZ-0026","type":"closed","name":"Qo'shrabot Airport","latitude_deg":"39.766998","longitude_deg":"64.312103","elevation_ft":"715","continent":"AS","iso_country":"UZ","iso_region":"UZ-BU","municipality":"Chor Bakr","scheduled_service":"no","icao_code":null,"iata_code":null,"gps_code":null,"local_code":null,"home_link":null,"wikipedia_link":null,"keywords":"Kosh Rabat"},{"id":"41714","ident":"UZ-0027","type":"closed","name":"Kumushkent Airport","latitude_deg":"39.807999","longitude_deg":"66.844299","elevation_ft":"2025","continent":"AS","iso_country":"UZ","iso_region":"UZ-SA","municipality":"Kumushkent","scheduled_service":"no","icao_code":null,"iata_code":null,"gps_code":null,"local_code":null,"home_link":null,"wikipedia_link":null,"keywords":"UTDA"},{"id":"41715","ident":"UZ-0028","type":"small_airport","name":"Kuva Southeast Airport","latitude_deg":"40.483441","longitude_deg":"72.280825","elevation_ft":"1973","continent":"AS","iso_country":"UZ","iso_region":"UZ-AN","municipality":"Markhamat","scheduled_service":"no","icao_code":null,"iata_code":null,"gps_code":null,"local_code":null,"home_link":null,"wikipedia_link":null,"keywords":"AG3808, FR38715, UTMA"},{"id":"41716","ident":"UZ-0029","type":"small_airport","name":"Kuva West Airport","latitude_deg":"40.504785","longitude_deg":"71.902458","elevation_ft":"1591","continent":"AS","iso_country":"UZ","iso_region":"UZ-FA","municipality":"Ramadan","scheduled_service":"no","icao_code":null,"iata_code":null,"gps_code":null,"local_code":null,"home_link":null,"wikipedia_link":null,"keywords":null},{"id":"41717","ident":"UZ-0030","type":"small_airport","name":"Muglan Airport","latitude_deg":"38.901798248291016","longitude_deg":"65.39669799804688","elevation_ft":"1050","continent":"AS","iso_country":"UZ","iso_region":"UZ-QA","municipality":"Muglan","scheduled_service":"no","icao_code":null,"iata_code":null,"gps_code":null,"local_code":null,"home_link":null,"wikipedia_link":null,"keywords":null},{"id":"41718","ident":"UZ-0031","type":"closed","name":"Muruntau Southeast Airport","latitude_deg":"41.47037","longitude_deg":"64.667138","elevation_ft":"1340","continent":"AS","iso_country":"UZ","iso_region":"UZ-NW","municipality":"Muruntau","scheduled_service":"no","icao_code":null,"iata_code":null,"gps_code":null,"local_code":null,"home_link":null,"wikipedia_link":null,"keywords":null},{"id":"41719","ident":"UZ-0032","type":"small_airport","name":"Namangan Northeast Airport","latitude_deg":"41.044891","longitude_deg":"71.786989","elevation_ft":"1591","continent":"AS","iso_country":"UZ","iso_region":"UZ-NG","municipality":"Namangan","scheduled_service":"no","icao_code":null,"iata_code":null,"gps_code":null,"local_code":null,"home_link":null,"wikipedia_link":null,"keywords":null},{"id":"41720","ident":"UZ-0033","type":"small_airport","name":"Naubag Airport","latitude_deg":"37.65290069580078","longitude_deg":"66.97380065917969","elevation_ft":"1264","continent":"AS","iso_country":"UZ","iso_region":"UZ-SU","municipality":"Akkurgan","scheduled_service":"no","icao_code":null,"iata_code":null,"gps_code":null,"local_code":null,"home_link":null,"wikipedia_link":null,"keywords":null},{"id":"41721","ident":"UZ-0034","type":"small_airport","name":"Nishan Airport","latitude_deg":"38.58919906616211","longitude_deg":"65.60970306396484","elevation_ft":"1165","continent":"AS","iso_country":"UZ","iso_region":"UZ-QA","municipality":"Nishan","scheduled_service":"no","icao_code":null,"iata_code":null,"gps_code":null,"local_code":null,"home_link":null,"wikipedia_link":null,"keywords":null},{"id":"41722","ident":"UZ-0035","type":"small_airport","name":"Nukus South Airport","latitude_deg":"42.36360168457031","longitude_deg":"59.516998291015625","elevation_ft":"240","continent":"AS","iso_country":"UZ","iso_region":"UZ-QR","municipality":"Nukus","scheduled_service":"no","icao_code":null,"iata_code":null,"gps_code":null,"local_code":null,"home_link":null,"wikipedia_link":null,"keywords":null},{"id":"41723","ident":"UZ-0036","type":"closed","name":"Obi Kiik Airport","latitude_deg":"38.249298","longitude_deg":"67.721703","elevation_ft":"2213","continent":"AS","iso_country":"UZ","iso_region":"UZ-SU","municipality":"Khodzhi Sagat","scheduled_service":"no","icao_code":null,"iata_code":null,"gps_code":null,"local_code":null,"home_link":null,"wikipedia_link":null,"keywords":null},{"id":"41724","ident":"UZ-0037","type":"small_airport","name":"Ostrov Vozrozhdeniya Airport","latitude_deg":"45.159148","longitude_deg":"59.301882","elevation_ft":"232","continent":"AS","iso_country":"UZ","iso_region":"UZ-QR","municipality":"Kantubek","scheduled_service":"no","icao_code":null,"iata_code":null,"gps_code":null,"local_code":null,"home_link":null,"wikipedia_link":null,"keywords":null},